time,.header.seq,.header.stamp.secs,.header.stamp.nsecs,.header.frame_id,.status.status,.status.service,.latitude,.longitude,.altitude,.position_covariance,.position_covariance_type
2020/02/28/11:00:07.347109,11367,0,0,,0,0,30.6730807132,-96.3728974905,85.3986209123,"(0.0, 0.6781578660011292, 0.0, 0.0, 0.0, 0.0, 0.0, 0.0, 0.0)",0
2020/02/28/11:00:07.366961,11368,0,0,,0,0,30.6730807116,-96.3728974911,85.3963759465,"(0.0, 0.6789030432701111, 0.0, 0.0, 0.0, 0.0, 0.0, 0.0, 0.0)",0
2020/02/28/11:00:07.387025,11369,0,0,,0,0,30.6730807878,-96.3728975142,85.4264165313,"(0.0, 0.6696999669075012, 0.0, 0.0, 0.0, 0.0, 0.0, 0.0, 0.0)",0
2020/02/28/11:00:07.407025,11370,0,0,,0,0,30.6730807856,-96.3728975148,85.4242116379,"(0.0, 0.6706424951553345, 0.0, 0.0, 0.0, 0.0, 0.0, 0.0, 0.0)",0
2020/02/28/11:00:07.426927,11371,0,0,,0,0,30.6730807847,-96.3728975157,85.421998719,"(0.0, 0.6715898513793945, 0.0, 0.0, 0.0, 0.0, 0.0, 0.0, 0.0)",0
2020/02/28/11:00:07.446923,11372,0,0,,0,0,30.673080783,-96.372897516,85.4197859966,"(0.0, 0.672542154788971, 0.0, 0.0, 0.0, 0.0, 0.0, 0.0, 0.0)",0
2020/02/28/11:00:07.467026,11373,0,0,,0,0,30.6730807812,-96.3728975166,85.4175866598,"(0.0, 0.6734994053840637, 0.0, 0.0, 0.0, 0.0, 0.0, 0.0, 0.0)",0
2020/02/28/11:00:07.487119,11374,0,0,,0,0,30.6730807796,-96.3728975177,85.4153650776,"(0.0, 0.6744616031646729, 0.0, 0.0, 0.0, 0.0, 0.0, 0.0, 0.0)",0
2020/02/28/11:00:07.506921,11375,0,0,,0,0,30.6730807773,-96.3728975187,85.4132125368,"(0.0, 0.6754287481307983, 0.0, 0.0, 0.0, 0.0, 0.0, 0.0, 0.0)",0
2020/02/28/11:00:07.527006,11376,0,0,,0,0,30.6730807756,-96.3728975195,85.4109358984,"(0.0, 0.6764010190963745, 0.0, 0.0, 0.0, 0.0, 0.0, 0.0, 0.0)",0
2020/02/28/11:00:07.546962,11377,0,0,,0,0,30.6730807747,-96.3728975208,85.408768563,"(0.0, 0.6773782968521118, 0.0, 0.0, 0.0, 0.0, 0.0, 0.0, 0.0)",0
2020/02/28/11:00:07.566902,11378,0,0,,0,0,30.6730807725,-96.3728975217,85.4064491272,"(0.0, 0.678360641002655, 0.0, 0.0, 0.0, 0.0, 0.0, 0.0, 0.0)",0
2020/02/28/11:00:07.586969,11379,0,0,,0,0,30.6730808464,-96.3728974901,85.4366430522,"(0.0, 0.670543909072876, 0.0, 0.0, 0.0, 0.0, 0.0, 0.0, 0.0)",0
2020/02/28/11:00:07.606975,11380,0,0,,0,0,30.6730808451,-96.3728974911,85.4344302677,"(0.0, 0.6714935898780823, 0.0, 0.0, 0.0, 0.0, 0.0, 0.0, 0.0)",0
2020/02/28/11:00:07.626918,11381,0,0,,0,0,30.673080843,-96.3728974922,85.4322472702,"(0.0, 0.6724482178688049, 0.0, 0.0, 0.0, 0.0, 0.0, 0.0, 0.0)",0
2020/02/28/11:00:07.646919,11382,0,0,,0,0,30.673080841,-96.372897493,85.4300771218,"(0.0, 0.673407793045044, 0.0, 0.0, 0.0, 0.0, 0.0, 0.0, 0.0)",0
2020/02/28/11:00:07.666945,11383,0,0,,0,0,30.6730808396,-96.3728974937,85.4279838509,"(0.0, 0.6743723750114441, 0.0, 0.0, 0.0, 0.0, 0.0, 0.0, 0.0)",0
2020/02/28/11:00:07.686969,11384,0,0,,0,0,30.6730808372,-96.3728974946,85.425737433,"(0.0, 0.6753420233726501, 0.0, 0.0, 0.0, 0.0, 0.0, 0.0, 0.0)",0
2020/02/28/11:00:07.706920,11385,0,0,,0,0,30.6730808349,-96.3728974954,85.4236808587,"(0.0, 0.6763167381286621, 0.0, 0.0, 0.0, 0.0, 0.0, 0.0, 0.0)",0
2020/02/28/11:00:07.726947,11386,0,0,,0,0,30.673080833,-96.3728974962,85.4213938774,"(0.0, 0.6772965788841248, 0.0, 0.0, 0.0, 0.0, 0.0, 0.0, 0.0)",0
2020/02/28/11:00:07.746983,11387,0,0,,0,0,30.673080831,-96.3728974961,85.4193024464,"(0.0, 0.6782815456390381, 0.0, 0.0, 0.0, 0.0, 0.0, 0.0, 0.0)",0
2020/02/28/11:00:07.766788,11388,0,0,,0,0,30.6730808287,-96.3728974978,85.417045371,"(0.0, 0.6792716383934021, 0.0, 0.0, 0.0, 0.0, 0.0, 0.0, 0.0)",0
2020/02/28/11:00:07.786996,11389,0,0,,0,0,30.6730809144,-96.3728975178,85.4343972286,"(0.0, 0.6709625124931335, 0.0, 0.0, 0.0, 0.0, 0.0, 0.0, 0.0)",0
2020/02/28/11:00:07.806815,11390,0,0,,0,0,30.6730809122,-96.3728975194,85.432229656,"(0.0, 0.6719140410423279, 0.0, 0.0, 0.0, 0.0, 0.0, 0.0, 0.0)",0
2020/02/28/11:00:07.826870,11391,0,0,,0,0,30.6730809105,-96.3728975196,85.4300884632,"(0.0, 0.6728705167770386, 0.0, 0.0, 0.0, 0.0, 0.0, 0.0, 0.0)",0
2020/02/28/11:00:07.846859,11392,0,0,,0,0,30.6730809082,-96.37289752,85.4279837619,"(0.0, 0.6738319993019104, 0.0, 0.0, 0.0, 0.0, 0.0, 0.0, 0.0)",0
2020/02/28/11:00:07.866866,11393,0,0,,0,0,30.673080906,-96.3728975216,85.4257570251,"(0.0, 0.6747984886169434, 0.0, 0.0, 0.0, 0.0, 0.0, 0.0, 0.0)",0
2020/02/28/11:00:07.886935,11394,0,0,,0,0,30.6730809035,-96.3728975226,85.423582225,"(0.0, 0.675770103931427, 0.0, 0.0, 0.0, 0.0, 0.0, 0.0, 0.0)",0
2020/02/28/11:00:07.906882,11395,0,0,,0,0,30.6730809014,-96.3728975242,85.4214235027,"(0.0, 0.6767467856407166, 0.0, 0.0, 0.0, 0.0, 0.0, 0.0, 0.0)",0
2020/02/28/11:00:07.926900,11396,0,0,,0,0,30.6730808985,-96.3728975252,85.4192588603,"(0.0, 0.6777285933494568, 0.0, 0.0, 0.0, 0.0, 0.0, 0.0, 0.0)",0
2020/02/28/11:00:07.946857,11397,0,0,,0,0,30.6730808966,-96.3728975266,85.4170711143,"(0.0, 0.6787155866622925, 0.0, 0.0, 0.0, 0.0, 0.0, 0.0, 0.0)",0
2020/02/28/11:00:07.966802,11398,0,0,,0,0,30.6730808946,-96.3728975278,85.4149548293,"(0.0, 0.6797077655792236, 0.0, 0.0, 0.0, 0.0, 0.0, 0.0, 0.0)",0
2020/02/28/11:00:07.986883,11399,0,0,,0,0,30.6730810088,-96.372897501,85.442738071,"(0.0, 0.6708151698112488, 0.0, 0.0, 0.0, 0.0, 0.0, 0.0, 0.0)",0
2020/02/28/11:00:08.006922,11400,0,0,,0,0,30.6730810064,-96.3728975024,85.4406711358,"(0.0, 0.6717617511749268, 0.0, 0.0, 0.0, 0.0, 0.0, 0.0, 0.0)",0
2020/02/28/11:00:08.026764,11401,0,0,,0,0,30.673081005,-96.3728975046,85.4385430939,"(0.0, 0.6727133393287659, 0.0, 0.0, 0.0, 0.0, 0.0, 0.0, 0.0)",0
2020/02/28/11:00:08.046828,11402,0,0,,0,0,30.6730810018,-96.3728975055,85.4364155425,"(0.0, 0.6736698746681213, 0.0, 0.0, 0.0, 0.0, 0.0, 0.0, 0.0)",0
2020/02/28/11:00:08.066763,11403,0,0,,0,0,30.6730810003,-96.3728975075,85.4342569991,"(0.0, 0.6746314764022827, 0.0, 0.0, 0.0, 0.0, 0.0, 0.0, 0.0)",0
2020/02/28/11:00:08.086786,11404,0,0,,0,0,30.6730809981,-96.3728975082,85.4320766652,"(0.0, 0.6755980849266052, 0.0, 0.0, 0.0, 0.0, 0.0, 0.0, 0.0)",0
2020/02/28/11:00:08.106797,11405,0,0,,0,0,30.6730809958,-96.3728975097,85.4299272621,"(0.0, 0.6765697598457336, 0.0, 0.0, 0.0, 0.0, 0.0, 0.0, 0.0)",0
2020/02/28/11:00:08.126714,11406,0,0,,0,0,30.6730809928,-96.372897511,85.4278705326,"(0.0, 0.6775465607643127, 0.0, 0.0, 0.0, 0.0, 0.0, 0.0, 0.0)",0
2020/02/28/11:00:08.146821,11407,0,0,,0,0,30.6730809908,-96.3728975129,85.4256264421,"(0.0, 0.6785284876823425, 0.0, 0.0, 0.0, 0.0, 0.0, 0.0, 0.0)",0
2020/02/28/11:00:08.166789,11408,0,0,,0,0,30.6730809883,-96.3728975134,85.4234548832,"(0.0, 0.679515540599823, 0.0, 0.0, 0.0, 0.0, 0.0, 0.0, 0.0)",0
2020/02/28/11:00:08.186821,11409,0,0,,0,0,30.673081175,-96.3728975002,85.4572519972,"(0.0, 0.6690203547477722, 0.0, 0.0, 0.0, 0.0, 0.0, 0.0, 0.0)",0
2020/02/28/11:00:08.206786,11410,0,0,,0,0,30.6730811727,-96.3728975022,85.4551511016,"(0.0, 0.66994309425354, 0.0, 0.0, 0.0, 0.0, 0.0, 0.0, 0.0)",0
2020/02/28/11:00:08.226872,11411,0,0,,0,0,30.6730811714,-96.3728975032,85.4530648965,"(0.0, 0.6708706021308899, 0.0, 0.0, 0.0, 0.0, 0.0, 0.0, 0.0)",0
2020/02/28/11:00:08.246837,11412,0,0,,0,0,30.6730811694,-96.3728975043,85.4510041818,"(0.0, 0.6718029975891113, 0.0, 0.0, 0.0, 0.0, 0.0, 0.0, 0.0)",0
2020/02/28/11:00:08.266970,11413,0,0,,0,0,30.6730811682,-96.3728975053,85.4489911258,"(0.0, 0.6727402210235596, 0.0, 0.0, 0.0, 0.0, 0.0, 0.0, 0.0)",0
2020/02/28/11:00:08.286694,11414,0,0,,0,0,30.6730811659,-96.3728975071,85.4468461456,"(0.0, 0.6736822724342346, 0.0, 0.0, 0.0, 0.0, 0.0, 0.0, 0.0)",0
2020/02/28/11:00:08.306786,11415,0,0,,0,0,30.6730811646,-96.3728975084,85.44472468,"(0.0, 0.674629271030426, 0.0, 0.0, 0.0, 0.0, 0.0, 0.0, 0.0)",0
2020/02/28/11:00:08.326792,11416,0,0,,0,0,30.6730811628,-96.3728975097,85.4426181901,"(0.0, 0.675581157207489, 0.0, 0.0, 0.0, 0.0, 0.0, 0.0, 0.0)",0
2020/02/28/11:00:08.346831,11417,0,0,,0,0,30.6730811604,-96.3728975112,85.4405275357,"(0.0, 0.6765381693840027, 0.0, 0.0, 0.0, 0.0, 0.0, 0.0, 0.0)",0
2020/02/28/11:00:08.366824,11418,0,0,,0,0,30.6730812749,-96.3728975138,85.4715306784,"(0.0, 0.6685477495193481, 0.0, 0.0, 0.0, 0.0, 0.0, 0.0, 0.0)",0
2020/02/28/11:00:08.386773,11419,0,0,,0,0,30.6730812724,-96.3728975152,85.4694484125,"(0.0, 0.66946941614151, 0.0, 0.0, 0.0, 0.0, 0.0, 0.0, 0.0)",0
2020/02/28/11:00:08.406709,11420,0,0,,0,0,30.6730812708,-96.3728975165,85.4673963664,"(0.0, 0.6703959107398987, 0.0, 0.0, 0.0, 0.0, 0.0, 0.0, 0.0)",0
2020/02/28/11:00:08.426714,11421,0,0,,0,0,30.6730812693,-96.3728975179,85.4653394683,"(0.0, 0.6713271737098694, 0.0, 0.0, 0.0, 0.0, 0.0, 0.0, 0.0)",0
2020/02/28/11:00:08.446630,11422,0,0,,0,0,30.6730812669,-96.3728975188,85.463319941,"(0.0, 0.6722633838653564, 0.0, 0.0, 0.0, 0.0, 0.0, 0.0, 0.0)",0
2020/02/28/11:00:08.466714,11423,0,0,,0,0,30.673081265,-96.3728975204,85.4613296685,"(0.0, 0.6732044219970703, 0.0, 0.0, 0.0, 0.0, 0.0, 0.0, 0.0)",0
2020/02/28/11:00:08.486641,11424,0,0,,0,0,30.6730812636,-96.372897522,85.4591731187,"(0.0, 0.6741504073143005, 0.0, 0.0, 0.0, 0.0, 0.0, 0.0, 0.0)",0
2020/02/28/11:00:08.506731,11425,0,0,,0,0,30.6730812611,-96.3728975231,85.4570862597,"(0.0, 0.6751013398170471, 0.0, 0.0, 0.0, 0.0, 0.0, 0.0, 0.0)",0
2020/02/28/11:00:08.526647,11426,0,0,,0,0,30.6730812589,-96.3728975243,85.4550333876,"(0.0, 0.6760572791099548, 0.0, 0.0, 0.0, 0.0, 0.0, 0.0, 0.0)",0
2020/02/28/11:00:08.546730,11427,0,0,,0,0,30.6730812569,-96.3728975259,85.452928434,"(0.0, 0.6770181655883789, 0.0, 0.0, 0.0, 0.0, 0.0, 0.0, 0.0)",0
2020/02/28/11:00:08.566625,11428,0,0,,0,0,30.6730814123,-96.372897488,85.484161299,"(0.0, 0.6777421832084656, 0.0, 0.0, 0.0, 0.0, 0.0, 0.0, 0.0)",0
2020/02/28/11:00:08.586606,11429,0,0,,0,0,30.6730814114,-96.3728974891,85.4823173058,"(0.0, 0.6691523790359497, 0.0, 0.0, 0.0, 0.0, 0.0, 0.0, 0.0)",0
2020/02/28/11:00:08.606689,11430,0,0,,0,0,30.6730814102,-96.3728974902,85.4804086587,"(0.0, 0.670073390007019, 0.0, 0.0, 0.0, 0.0, 0.0, 0.0, 0.0)",0
2020/02/28/11:00:08.626640,11431,0,0,,0,0,30.6730814085,-96.3728974921,85.4783042322,"(0.0, 0.6709994077682495, 0.0, 0.0, 0.0, 0.0, 0.0, 0.0, 0.0)",0
2020/02/28/11:00:08.646628,11432,0,0,,0,0,30.6730814073,-96.3728974936,85.4762720306,"(0.0, 0.6719300150871277, 0.0, 0.0, 0.0, 0.0, 0.0, 0.0, 0.0)",0
2020/02/28/11:00:08.666588,11433,0,0,,0,0,30.6730814063,-96.3728974944,85.4743044608,"(0.0, 0.672865629196167, 0.0, 0.0, 0.0, 0.0, 0.0, 0.0, 0.0)",0
2020/02/28/11:00:08.686640,11434,0,0,,0,0,30.6730814045,-96.3728974957,85.4721422583,"(0.0, 0.6738060712814331, 0.0, 0.0, 0.0, 0.0, 0.0, 0.0, 0.0)",0
2020/02/28/11:00:08.706599,11435,0,0,,0,0,30.6730814035,-96.3728974971,85.4701189939,"(0.0, 0.6747515201568604, 0.0, 0.0, 0.0, 0.0, 0.0, 0.0, 0.0)",0
2020/02/28/11:00:08.726593,11436,0,0,,0,0,30.6730814011,-96.3728974981,85.4681352602,"(0.0, 0.6757018566131592, 0.0, 0.0, 0.0, 0.0, 0.0, 0.0, 0.0)",0
2020/02/28/11:00:08.746605,11437,0,0,,0,0,30.6730813999,-96.372897499,85.4660589056,"(0.0, 0.6766572594642639, 0.0, 0.0, 0.0, 0.0, 0.0, 0.0, 0.0)",0
2020/02/28/11:00:08.766515,11438,0,0,,0,0,30.6730813983,-96.3728975009,85.4639626343,"(0.0, 0.6773771047592163, 0.0, 0.0, 0.0, 0.0, 0.0, 0.0, 0.0)",0
2020/02/28/11:00:08.786532,11439,0,0,,0,0,30.673081554,-96.3728974888,85.4960587879,"(0.0, 0.6684675812721252, 0.0, 0.0, 0.0, 0.0, 0.0, 0.0, 0.0)",0
2020/02/28/11:00:08.806526,11440,0,0,,0,0,30.6730815532,-96.3728974897,85.4941741885,"(0.0, 0.6693791747093201, 0.0, 0.0, 0.0, 0.0, 0.0, 0.0, 0.0)",0
2020/02/28/11:00:08.826579,11441,0,0,,0,0,30.6730815518,-96.3728974917,85.4920876918,"(0.0, 0.6702955961227417, 0.0, 0.0, 0.0, 0.0, 0.0, 0.0, 0.0)",0
2020/02/28/11:00:08.846701,11442,0,0,,0,0,30.6730815508,-96.3728974923,85.4900880529,"(0.0, 0.6712168455123901, 0.0, 0.0, 0.0, 0.0, 0.0, 0.0, 0.0)",0
2020/02/28/11:00:08.866589,11443,0,0,,0,0,30.6730815503,-96.3728974942,85.4881099554,"(0.0, 0.6721428632736206, 0.0, 0.0, 0.0, 0.0, 0.0, 0.0, 0.0)",0
2020/02/28/11:00:08.886564,11444,0,0,,0,0,30.6730815487,-96.3728974953,85.4860675774,"(0.0, 0.6730737686157227, 0.0, 0.0, 0.0, 0.0, 0.0, 0.0, 0.0)",0
2020/02/28/11:00:08.906570,11445,0,0,,0,0,30.6730815472,-96.3728974969,85.4840989938,"(0.0, 0.6740095615386963, 0.0, 0.0, 0.0, 0.0, 0.0, 0.0, 0.0)",0
2020/02/28/11:00:08.926512,11446,0,0,,0,0,30.6730815469,-96.3728974974,85.4821150021,"(0.0, 0.6749503016471863, 0.0, 0.0, 0.0, 0.0, 0.0, 0.0, 0.0)",0
2020/02/28/11:00:08.946578,11447,0,0,,0,0,30.6730815454,-96.3728974991,85.4800472178,"(0.0, 0.6758959293365479, 0.0, 0.0, 0.0, 0.0, 0.0, 0.0, 0.0)",0
2020/02/28/11:00:08.966668,11448,0,0,,0,0,30.6730816531,-96.3728974747,85.5084921486,"(0.0, 0.6673060655593872, 0.0, 0.0, 0.0, 0.0, 0.0, 0.0, 0.0)",0
2020/02/28/11:00:08.986580,11449,0,0,,0,0,30.6730816519,-96.3728974762,85.506554643,"(0.0, 0.6682091951370239, 0.0, 0.0, 0.0, 0.0, 0.0, 0.0, 0.0)",0
2020/02/28/11:00:09.006493,11450,0,0,,0,0,30.6730816513,-96.3728974775,85.5046702601,"(0.0, 0.6691170334815979, 0.0, 0.0, 0.0, 0.0, 0.0, 0.0, 0.0)",0
2020/02/28/11:00:09.026508,11451,0,0,,0,0,30.6730816503,-96.3728974785,85.5026952844,"(0.0, 0.670026957988739, 0.0, 0.0, 0.0, 0.0, 0.0, 0.0, 0.0)",0
2020/02/28/11:00:09.046473,11452,0,0,,0,0,30.6730816487,-96.3728974805,85.5006807291,"(0.0, 0.6709442734718323, 0.0, 0.0, 0.0, 0.0, 0.0, 0.0, 0.0)",0
2020/02/28/11:00:09.066487,11453,0,0,,0,0,30.6730816479,-96.3728974812,85.4987134236,"(0.0, 0.6718664169311523, 0.0, 0.0, 0.0, 0.0, 0.0, 0.0, 0.0)",0
2020/02/28/11:00:09.086591,11454,0,0,,0,0,30.6730816463,-96.3728974824,85.4966359299,"(0.0, 0.672793447971344, 0.0, 0.0, 0.0, 0.0, 0.0, 0.0, 0.0)",0
2020/02/28/11:00:09.106564,11455,0,0,,0,0,30.6730816451,-96.3728974838,85.4947493195,"(0.0, 0.6737253069877625, 0.0, 0.0, 0.0, 0.0, 0.0, 0.0, 0.0)",0
2020/02/28/11:00:09.126586,11456,0,0,,0,0,30.6730816435,-96.3728974853,85.4926803818,"(0.0, 0.6746621131896973, 0.0, 0.0, 0.0, 0.0, 0.0, 0.0, 0.0)",0
2020/02/28/11:00:09.146558,11457,0,0,,0,0,30.6730816421,-96.3728974861,85.4906739581,"(0.0, 0.6756038665771484, 0.0, 0.0, 0.0, 0.0, 0.0, 0.0, 0.0)",0
2020/02/28/11:00:09.166475,11458,0,0,,0,0,30.6730816402,-96.3728974874,85.4886520456,"(0.0, 0.676550567150116, 0.0, 0.0, 0.0, 0.0, 0.0, 0.0, 0.0)",0
2020/02/28/11:00:09.186533,11459,0,0,,0,0,30.6730818071,-96.3728974405,85.5209856522,"(0.0, 0.6663830876350403, 0.0, 0.0, 0.0, 0.0, 0.0, 0.0, 0.0)",0
2020/02/28/11:00:09.206424,11460,0,0,,0,0,30.6730818062,-96.3728974422,85.5191260765,"(0.0, 0.6672689914703369, 0.0, 0.0, 0.0, 0.0, 0.0, 0.0, 0.0)",0
2020/02/28/11:00:09.226426,11461,0,0,,0,0,30.673081806,-96.3728974436,85.5171751009,"(0.0, 0.668159544467926, 0.0, 0.0, 0.0, 0.0, 0.0, 0.0, 0.0)",0
2020/02/28/11:00:09.246484,11462,0,0,,0,0,30.6730818052,-96.372897444,85.5151623518,"(0.0, 0.6690547466278076, 0.0, 0.0, 0.0, 0.0, 0.0, 0.0, 0.0)",0
2020/02/28/11:00:09.266569,11463,0,0,,0,0,30.6730818041,-96.372897446,85.5131332058,"(0.0, 0.6699545979499817, 0.0, 0.0, 0.0, 0.0, 0.0, 0.0, 0.0)",0
2020/02/28/11:00:09.286528,11464,0,0,,0,0,30.6730818036,-96.3728974466,85.5112050993,"(0.0, 0.670859158039093, 0.0, 0.0, 0.0, 0.0, 0.0, 0.0, 0.0)",0
2020/02/28/11:00:09.306493,11465,0,0,,0,0,30.6730818026,-96.3728974478,85.5092779679,"(0.0, 0.6717684268951416, 0.0, 0.0, 0.0, 0.0, 0.0, 0.0, 0.0)",0
2020/02/28/11:00:09.326479,11466,0,0,,0,0,30.6730818012,-96.37289745,85.5072593309,"(0.0, 0.672682523727417, 0.0, 0.0, 0.0, 0.0, 0.0, 0.0, 0.0)",0
2020/02/28/11:00:09.346509,11467,0,0,,0,0,30.6730818007,-96.3728974504,85.5053313244,"(0.0, 0.6736013889312744, 0.0, 0.0, 0.0, 0.0, 0.0, 0.0, 0.0)",0
2020/02/28/11:00:09.366390,11468,0,0,,0,0,30.6730817995,-96.3728974522,85.503338108,"(0.0, 0.6745250821113586, 0.0, 0.0, 0.0, 0.0, 0.0, 0.0, 0.0)",0
2020/02/28/11:00:09.386463,11469,0,0,,0,0,30.6730819301,-96.3728973988,85.5264670855,"(0.0, 0.6665596961975098, 0.0, 0.0, 0.0, 0.0, 0.0, 0.0, 0.0)",0
2020/02/28/11:00:09.406354,11470,0,0,,0,0,30.6730819302,-96.3728974003,85.524515096,"(0.0, 0.6674483418464661, 0.0, 0.0, 0.0, 0.0, 0.0, 0.0, 0.0)",0
2020/02/28/11:00:09.426492,11471,0,0,,0,0,30.67308193,-96.3728974015,85.5225996432,"(0.0, 0.6683416366577148, 0.0, 0.0, 0.0, 0.0, 0.0, 0.0, 0.0)",0
2020/02/28/11:00:09.446446,11472,0,0,,0,0,30.6730819298,-96.3728974033,85.5207371161,"(0.0, 0.6692397594451904, 0.0, 0.0, 0.0, 0.0, 0.0, 0.0, 0.0)",0
2020/02/28/11:00:09.466393,11473,0,0,,0,0,30.673081929,-96.3728974041,85.5187363494,"(0.0, 0.6701425313949585, 0.0, 0.0, 0.0, 0.0, 0.0, 0.0, 0.0)",0
2020/02/28/11:00:09.486442,11474,0,0,,0,0,30.6730819289,-96.3728974052,85.5167829862,"(0.0, 0.6710500121116638, 0.0, 0.0, 0.0, 0.0, 0.0, 0.0, 0.0)",0
2020/02/28/11:00:09.506401,11475,0,0,,0,0,30.6730819283,-96.3728974061,85.5148381001,"(0.0, 0.671962320804596, 0.0, 0.0, 0.0, 0.0, 0.0, 0.0, 0.0)",0
2020/02/28/11:00:09.526466,11476,0,0,,0,0,30.6730819276,-96.372897408,85.5128221948,"(0.0, 0.6728794574737549, 0.0, 0.0, 0.0, 0.0, 0.0, 0.0, 0.0)",0
2020/02/28/11:00:09.546394,11477,0,0,,0,0,30.6730819275,-96.372897409,85.5108584282,"(0.0, 0.6738014221191406, 0.0, 0.0, 0.0, 0.0, 0.0, 0.0, 0.0)",0
2020/02/28/11:00:09.566434,11478,0,0,,0,0,30.6730819267,-96.3728974109,85.5089119348,"(0.0, 0.6744961142539978, 0.0, 0.0, 0.0, 0.0, 0.0, 0.0, 0.0)",0
2020/02/28/11:00:09.586398,11479,0,0,,0,0,30.6730820654,-96.3728973667,85.5356975896,"(0.0, 0.6662255525588989, 0.0, 0.0, 0.0, 0.0, 0.0, 0.0, 0.0)",0
2020/02/28/11:00:09.606399,11480,0,0,,0,0,30.6730820651,-96.3728973673,85.5337887785,"(0.0, 0.6671109199523926, 0.0, 0.0, 0.0, 0.0, 0.0, 0.0, 0.0)",0
2020/02/28/11:00:09.626382,11481,0,0,,0,0,30.6730820654,-96.3728973682,85.5318633571,"(0.0, 0.6680008769035339, 0.0, 0.0, 0.0, 0.0, 0.0, 0.0, 0.0)",0
2020/02/28/11:00:09.646385,11482,0,0,,0,0,30.6730820657,-96.3728973688,85.5299722709,"(0.0, 0.6688955426216125, 0.0, 0.0, 0.0, 0.0, 0.0, 0.0, 0.0)",0
2020/02/28/11:00:09.666374,11483,0,0,,0,0,30.6730820657,-96.3728973696,85.5280387281,"(0.0, 0.669795036315918, 0.0, 0.0, 0.0, 0.0, 0.0, 0.0, 0.0)",0
2020/02/28/11:00:09.686316,11484,0,0,,0,0,30.6730820658,-96.3728973703,85.5261234101,"(0.0, 0.6706992387771606, 0.0, 0.0, 0.0, 0.0, 0.0, 0.0, 0.0)",0
2020/02/28/11:00:09.706308,11485,0,0,,0,0,30.6730820656,-96.372897371,85.5241774488,"(0.0, 0.6716082096099854, 0.0, 0.0, 0.0, 0.0, 0.0, 0.0, 0.0)",0
2020/02/28/11:00:09.726317,11486,0,0,,0,0,30.6730820653,-96.3728973718,85.5222511467,"(0.0, 0.6725220084190369, 0.0, 0.0, 0.0, 0.0, 0.0, 0.0, 0.0)",0
2020/02/28/11:00:09.746324,11487,0,0,,0,0,30.6730820653,-96.3728973726,85.5202958238,"(0.0, 0.6734406352043152, 0.0, 0.0, 0.0, 0.0, 0.0, 0.0, 0.0)",0
2020/02/28/11:00:09.766317,11488,0,0,,0,0,30.6730820652,-96.372897373,85.518227401,"(0.0, 0.674132764339447, 0.0, 0.0, 0.0, 0.0, 0.0, 0.0, 0.0)",0
2020/02/28/11:00:09.786347,11489,0,0,,0,0,30.6730821784,-96.3728973427,85.5382859381,"(0.0, 0.6668705344200134, 0.0, 0.0, 0.0, 0.0, 0.0, 0.0, 0.0)",0
2020/02/28/11:00:09.806306,11490,0,0,,0,0,30.673082179,-96.3728973435,85.5363122548,"(0.0, 0.6677643060684204, 0.0, 0.0, 0.0, 0.0, 0.0, 0.0, 0.0)",0
2020/02/28/11:00:09.826305,11491,0,0,,0,0,30.6730821786,-96.3728973442,85.5343795044,"(0.0, 0.6686627864837646, 0.0, 0.0, 0.0, 0.0, 0.0, 0.0, 0.0)",0
2020/02/28/11:00:09.846332,11492,0,0,,0,0,30.6730821784,-96.372897345,85.5324627262,"(0.0, 0.6695660948753357, 0.0, 0.0, 0.0, 0.0, 0.0, 0.0, 0.0)",0
2020/02/28/11:00:09.866253,11493,0,0,,0,0,30.6730821791,-96.3728973456,85.5305088092,"(0.0, 0.6704744696617126, 0.0, 0.0, 0.0, 0.0, 0.0, 0.0, 0.0)",0
2020/02/28/11:00:09.886396,11494,0,0,,0,0,30.6730821785,-96.3728973473,85.5286589829,"(0.0, 0.6713871955871582, 0.0, 0.0, 0.0, 0.0, 0.0, 0.0, 0.0)",0
2020/02/28/11:00:09.906356,11495,0,0,,0,0,30.6730821778,-96.3728973486,85.5266049329,"(0.0, 0.6723050475120544, 0.0, 0.0, 0.0, 0.0, 0.0, 0.0, 0.0)",0
2020/02/28/11:00:09.926242,11496,0,0,,0,0,30.673082178,-96.3728973493,85.524713177,"(0.0, 0.6732277274131775, 0.0, 0.0, 0.0, 0.0, 0.0, 0.0, 0.0)",0
2020/02/28/11:00:09.947351,11497,0,0,,0,0,30.6730821772,-96.3728973515,85.5226870992,"(0.0, 0.6741553544998169, 0.0, 0.0, 0.0, 0.0, 0.0, 0.0, 0.0)",0
2020/02/28/11:00:09.966243,11498,0,0,,0,0,30.6730821774,-96.3728973532,85.5205768042,"(0.0, 0.6748543977737427, 0.0, 0.0, 0.0, 0.0, 0.0, 0.0, 0.0)",0
2020/02/28/11:00:09.986312,11499,0,0,,0,0,30.673082214,-96.3728972517,85.553871315,"(0.0, 0.6656599640846252, 0.0, 0.0, 0.0, 0.0, 0.0, 0.0, 0.0)",0
2020/02/28/11:00:10.006350,11500,0,0,,0,0,30.6730822132,-96.3728972529,85.5519779216,"(0.0, 0.6665397882461548, 0.0, 0.0, 0.0, 0.0, 0.0, 0.0, 0.0)",0
2020/02/28/11:00:10.028133,11501,0,0,,0,0,30.6730822125,-96.3728972541,85.5500873966,"(0.0, 0.667424201965332, 0.0, 0.0, 0.0, 0.0, 0.0, 0.0, 0.0)",0
2020/02/28/11:00:10.046397,11502,0,0,,0,0,30.6730822115,-96.3728972553,85.5481869753,"(0.0, 0.6683133244514465, 0.0, 0.0, 0.0, 0.0, 0.0, 0.0, 0.0)",0
2020/02/28/11:00:10.066242,11503,0,0,,0,0,30.6730822109,-96.3728972564,85.546295394,"(0.0, 0.6692071557044983, 0.0, 0.0, 0.0, 0.0, 0.0, 0.0, 0.0)",0
2020/02/28/11:00:10.087370,11504,0,0,,0,0,30.67308221,-96.3728972576,85.5443914554,"(0.0, 0.6701058149337769, 0.0, 0.0, 0.0, 0.0, 0.0, 0.0, 0.0)",0
2020/02/28/11:00:10.106234,11505,0,0,,0,0,30.6730822083,-96.3728972584,85.5425330269,"(0.0, 0.6710092425346375, 0.0, 0.0, 0.0, 0.0, 0.0, 0.0, 0.0)",0
2020/02/28/11:00:10.127282,11506,0,0,,0,0,30.6730822079,-96.3728972589,85.5405682374,"(0.0, 0.6719174385070801, 0.0, 0.0, 0.0, 0.0, 0.0, 0.0, 0.0)",0
2020/02/28/11:00:10.147212,11507,0,0,,0,0,30.6730822068,-96.3728972595,85.5386559836,"(0.0, 0.6728305220603943, 0.0, 0.0, 0.0, 0.0, 0.0, 0.0, 0.0)",0
2020/02/28/11:00:10.167184,11508,0,0,,0,0,30.6730822056,-96.3728972604,85.5367829797,"(0.0, 0.6737484335899353, 0.0, 0.0, 0.0, 0.0, 0.0, 0.0, 0.0)",0
2020/02/28/11:00:10.187382,11509,0,0,,0,0,30.6730823248,-96.3728972545,85.5727412629,"(0.0, 0.6647165417671204, 0.0, 0.0, 0.0, 0.0, 0.0, 0.0, 0.0)",0
2020/02/28/11:00:10.207241,11510,0,0,,0,0,30.6730823241,-96.3728972556,85.5708856572,"(0.0, 0.6655862927436829, 0.0, 0.0, 0.0, 0.0, 0.0, 0.0, 0.0)",0
2020/02/28/11:00:10.227307,11511,0,0,,0,0,30.6730823234,-96.372897256,85.5690337816,"(0.0, 0.6664606928825378, 0.0, 0.0, 0.0, 0.0, 0.0, 0.0, 0.0)",0
2020/02/28/11:00:10.247202,11512,0,0,,0,0,30.6730823234,-96.3728972561,85.5672191047,"(0.0, 0.6673396825790405, 0.0, 0.0, 0.0, 0.0, 0.0, 0.0, 0.0)",0
2020/02/28/11:00:10.267182,11513,0,0,,0,0,30.6730823226,-96.3728972573,85.5653361737,"(0.0, 0.6682233214378357, 0.0, 0.0, 0.0, 0.0, 0.0, 0.0, 0.0)",0
2020/02/28/11:00:10.287249,11514,0,0,,0,0,30.6730823217,-96.3728972575,85.5634646677,"(0.0, 0.6691116690635681, 0.0, 0.0, 0.0, 0.0, 0.0, 0.0, 0.0)",0
2020/02/28/11:00:10.307195,11515,0,0,,0,0,30.6730823215,-96.3728972582,85.5616639665,"(0.0, 0.6700048446655273, 0.0, 0.0, 0.0, 0.0, 0.0, 0.0, 0.0)",0
2020/02/28/11:00:10.327168,11516,0,0,,0,0,30.67308232,-96.3728972581,85.5597657675,"(0.0, 0.6709027290344238, 0.0, 0.0, 0.0, 0.0, 0.0, 0.0, 0.0)",0
2020/02/28/11:00:10.347223,11517,0,0,,0,0,30.6730823197,-96.3728972591,85.5578791817,"(0.0, 0.6718053817749023, 0.0, 0.0, 0.0, 0.0, 0.0, 0.0, 0.0)",0
2020/02/28/11:00:10.367258,11518,0,0,,0,0,30.6730823187,-96.3728972597,85.55599699,"(0.0, 0.6727128028869629, 0.0, 0.0, 0.0, 0.0, 0.0, 0.0, 0.0)",0
2020/02/28/11:00:10.387201,11519,0,0,,0,0,30.6730824069,-96.3728972423,85.5825106326,"(0.0, 0.6653740406036377, 0.0, 0.0, 0.0, 0.0, 0.0, 0.0, 0.0)",0
2020/02/28/11:00:10.407159,11520,0,0,,0,0,30.6730824065,-96.3728972439,85.5806245895,"(0.0, 0.6662533283233643, 0.0, 0.0, 0.0, 0.0, 0.0, 0.0, 0.0)",0
2020/02/28/11:00:10.427195,11521,0,0,,0,0,30.6730824052,-96.3728972451,85.5787766952,"(0.0, 0.6671372652053833, 0.0, 0.0, 0.0, 0.0, 0.0, 0.0, 0.0)",0
2020/02/28/11:00:10.447119,11522,0,0,,0,0,30.6730824043,-96.3728972463,85.5769185486,"(0.0, 0.6680259704589844, 0.0, 0.0, 0.0, 0.0, 0.0, 0.0, 0.0)",0
2020/02/28/11:00:10.467127,11523,0,0,,0,0,30.6730824033,-96.3728972475,85.5750640923,"(0.0, 0.6689194440841675, 0.0, 0.0, 0.0, 0.0, 0.0, 0.0, 0.0)",0
2020/02/28/11:00:10.487116,11524,0,0,,0,0,30.6730824019,-96.3728972492,85.5732887641,"(0.0, 0.6698177456855774, 0.0, 0.0, 0.0, 0.0, 0.0, 0.0, 0.0)",0
2020/02/28/11:00:10.507095,11525,0,0,,0,0,30.673082401,-96.37289725,85.5713445315,"(0.0, 0.6707208752632141, 0.0, 0.0, 0.0, 0.0, 0.0, 0.0, 0.0)",0
2020/02/28/11:00:10.527106,11526,0,0,,0,0,30.6730823997,-96.372897251,85.5694668869,"(0.0, 0.6716288328170776, 0.0, 0.0, 0.0, 0.0, 0.0, 0.0, 0.0)",0
2020/02/28/11:00:10.547159,11527,0,0,,0,0,30.6730823989,-96.3728972522,85.5676434305,"(0.0, 0.6725416779518127, 0.0, 0.0, 0.0, 0.0, 0.0, 0.0, 0.0)",0
2020/02/28/11:00:10.567083,11528,0,0,,0,0,30.6730823969,-96.3728972537,85.5656042246,"(0.0, 0.6732295155525208, 0.0, 0.0, 0.0, 0.0, 0.0, 0.0, 0.0)",0
2020/02/28/11:00:10.587152,11529,0,0,,0,0,30.6730825068,-96.3728971939,85.5939553049,"(0.0, 0.6655022501945496, 0.0, 0.0, 0.0, 0.0, 0.0, 0.0, 0.0)",0
2020/02/28/11:00:10.607083,11530,0,0,,0,0,30.6730825062,-96.3728971949,85.5921320505,"(0.0, 0.666384220123291, 0.0, 0.0, 0.0, 0.0, 0.0, 0.0, 0.0)",0
2020/02/28/11:00:10.627123,11531,0,0,,0,0,30.6730825051,-96.3728971961,85.5903963417,"(0.0, 0.6672709584236145, 0.0, 0.0, 0.0, 0.0, 0.0, 0.0, 0.0)",0
2020/02/28/11:00:10.647015,11532,0,0,,0,0,30.6730825041,-96.3728971969,85.5884909109,"(0.0, 0.6681625247001648, 0.0, 0.0, 0.0, 0.0, 0.0, 0.0, 0.0)",0
2020/02/28/11:00:10.667227,11533,0,0,,0,0,30.6730825025,-96.3728971984,85.5866443446,"(0.0, 0.6690588593482971, 0.0, 0.0, 0.0, 0.0, 0.0, 0.0, 0.0)",0
2020/02/28/11:00:10.687087,11534,0,0,,0,0,30.673082501,-96.3728971994,85.584915481,"(0.0, 0.6699600219726562, 0.0, 0.0, 0.0, 0.0, 0.0, 0.0, 0.0)",0
2020/02/28/11:00:10.707106,11535,0,0,,0,0,30.6730825003,-96.3728971998,85.5830048607,"(0.0, 0.670866072177887, 0.0, 0.0, 0.0, 0.0, 0.0, 0.0, 0.0)",0
2020/02/28/11:00:10.727105,11536,0,0,,0,0,30.6730824992,-96.3728972011,85.5811477534,"(0.0, 0.6717769503593445, 0.0, 0.0, 0.0, 0.0, 0.0, 0.0, 0.0)",0
2020/02/28/11:00:10.747044,11537,0,0,,0,0,30.673082498,-96.3728972024,85.5792772109,"(0.0, 0.6726927757263184, 0.0, 0.0, 0.0, 0.0, 0.0, 0.0, 0.0)",0
2020/02/28/11:00:10.767022,11538,0,0,,0,0,30.6730824956,-96.372897204,85.5773254905,"(0.0, 0.6733828783035278, 0.0, 0.0, 0.0, 0.0, 0.0, 0.0, 0.0)",0
2020/02/28/11:00:10.786987,11539,0,0,,0,0,30.6730825903,-96.3728971652,85.6064355976,"(0.0, 0.6660200953483582, 0.0, 0.0, 0.0, 0.0, 0.0, 0.0, 0.0)",0
2020/02/28/11:00:10.807139,11540,0,0,,0,0,30.6730825903,-96.3728971667,85.6046076904,"(0.0, 0.6669094562530518, 0.0, 0.0, 0.0, 0.0, 0.0, 0.0, 0.0)",0
2020/02/28/11:00:10.826993,11541,0,0,,0,0,30.6730825893,-96.3728971678,85.6028314671,"(0.0, 0.6678035855293274, 0.0, 0.0, 0.0, 0.0, 0.0, 0.0, 0.0)",0
2020/02/28/11:00:10.847081,11542,0,0,,0,0,30.6730825882,-96.3728971687,85.6008902651,"(0.0, 0.6687025427818298, 0.0, 0.0, 0.0, 0.0, 0.0, 0.0, 0.0)",0
2020/02/28/11:00:10.867037,11543,0,0,,0,0,30.6730825869,-96.3728971702,85.5990805843,"(0.0, 0.6696063876152039, 0.0, 0.0, 0.0, 0.0, 0.0, 0.0, 0.0)",0
2020/02/28/11:00:10.887063,11544,0,0,,0,0,30.6730825864,-96.3728971709,85.5972285521,"(0.0, 0.6705151200294495, 0.0, 0.0, 0.0, 0.0, 0.0, 0.0, 0.0)",0
2020/02/28/11:00:10.907003,11545,0,0,,0,0,30.6730825855,-96.3728971719,85.5954089509,"(0.0, 0.6714288592338562, 0.0, 0.0, 0.0, 0.0, 0.0, 0.0, 0.0)",0
2020/02/28/11:00:10.927011,11546,0,0,,0,0,30.6730825842,-96.3728971728,85.5935621354,"(0.0, 0.6723475456237793, 0.0, 0.0, 0.0, 0.0, 0.0, 0.0, 0.0)",0
2020/02/28/11:00:10.947018,11547,0,0,,0,0,30.6730825827,-96.3728971745,85.591689922,"(0.0, 0.6732711791992188, 0.0, 0.0, 0.0, 0.0, 0.0, 0.0, 0.0)",0
2020/02/28/11:00:10.967079,11548,0,0,,0,0,30.6730825816,-96.3728971755,85.5898314733,"(0.0, 0.6742001175880432, 0.0, 0.0, 0.0, 0.0, 0.0, 0.0, 0.0)",0
2020/02/28/11:00:10.987094,11549,0,0,,0,0,30.6730827002,-96.3728971477,85.6242599219,"(0.0, 0.6655536890029907, 0.0, 0.0, 0.0, 0.0, 0.0, 0.0, 0.0)",0
2020/02/28/11:00:11.006955,11550,0,0,,0,0,30.6730826995,-96.3728971495,85.6224184874,"(0.0, 0.6664380431175232, 0.0, 0.0, 0.0, 0.0, 0.0, 0.0, 0.0)",0
2020/02/28/11:00:11.027003,11551,0,0,,0,0,30.6730826985,-96.3728971512,85.6206645195,"(0.0, 0.6673271059989929, 0.0, 0.0, 0.0, 0.0, 0.0, 0.0, 0.0)",0
2020/02/28/11:00:11.047041,11552,0,0,,0,0,30.6730826972,-96.3728971518,85.6188627855,"(0.0, 0.6682210564613342, 0.0, 0.0, 0.0, 0.0, 0.0, 0.0, 0.0)",0
2020/02/28/11:00:11.067003,11553,0,0,,0,0,30.6730826964,-96.3728971526,85.616948278,"(0.0, 0.6691198945045471, 0.0, 0.0, 0.0, 0.0, 0.0, 0.0, 0.0)",0
2020/02/28/11:00:11.086940,11554,0,0,,0,0,30.6730826962,-96.3728971544,85.6151519378,"(0.0, 0.670023500919342, 0.0, 0.0, 0.0, 0.0, 0.0, 0.0, 0.0)",0
2020/02/28/11:00:11.106974,11555,0,0,,0,0,30.6730826947,-96.3728971547,85.6132940676,"(0.0, 0.6709321141242981, 0.0, 0.0, 0.0, 0.0, 0.0, 0.0, 0.0)",0
2020/02/28/11:00:11.126997,11556,0,0,,0,0,30.6730826939,-96.3728971567,85.6114569027,"(0.0, 0.671845555305481, 0.0, 0.0, 0.0, 0.0, 0.0, 0.0, 0.0)",0
2020/02/28/11:00:11.146980,11557,0,0,,0,0,30.673082693,-96.3728971568,85.609647178,"(0.0, 0.672764003276825, 0.0, 0.0, 0.0, 0.0, 0.0, 0.0, 0.0)",0
2020/02/28/11:00:11.166887,11558,0,0,,0,0,30.6730826923,-96.3728971582,85.6078232382,"(0.0, 0.6736874580383301, 0.0, 0.0, 0.0, 0.0, 0.0, 0.0, 0.0)",0
2020/02/28/11:00:11.186961,11559,0,0,,0,0,30.673082825,-96.3728970999,85.6428192977,"(0.0, 0.6646880507469177, 0.0, 0.0, 0.0, 0.0, 0.0, 0.0, 0.0)",0
2020/02/28/11:00:11.206871,11560,0,0,,0,0,30.6730828249,-96.3728971011,85.6411562087,"(0.0, 0.6655628085136414, 0.0, 0.0, 0.0, 0.0, 0.0, 0.0, 0.0)",0
2020/02/28/11:00:11.226969,11561,0,0,,0,0,30.6730828242,-96.3728971026,85.6392822656,"(0.0, 0.6664422750473022, 0.0, 0.0, 0.0, 0.0, 0.0, 0.0, 0.0)",0
2020/02/28/11:00:11.246912,11562,0,0,,0,0,30.6730828235,-96.3728971034,85.6374943958,"(0.0, 0.6673265099525452, 0.0, 0.0, 0.0, 0.0, 0.0, 0.0, 0.0)",0
2020/02/28/11:00:11.266876,11563,0,0,,0,0,30.673082823,-96.3728971049,85.6358207984,"(0.0, 0.6682155728340149, 0.0, 0.0, 0.0, 0.0, 0.0, 0.0, 0.0)",0
2020/02/28/11:00:11.286888,11564,0,0,,0,0,30.6730828227,-96.3728971058,85.6339122126,"(0.0, 0.6691094040870667, 0.0, 0.0, 0.0, 0.0, 0.0, 0.0, 0.0)",0
2020/02/28/11:00:11.306842,11565,0,0,,0,0,30.6730828225,-96.3728971069,85.6321792637,"(0.0, 0.6700080633163452, 0.0, 0.0, 0.0, 0.0, 0.0, 0.0, 0.0)",0
2020/02/28/11:00:11.326963,11566,0,0,,0,0,30.6730828212,-96.3728971085,85.6303206263,"(0.0, 0.6709116697311401, 0.0, 0.0, 0.0, 0.0, 0.0, 0.0, 0.0)",0
2020/02/28/11:00:11.346921,11567,0,0,,0,0,30.6730828201,-96.3728971092,85.6286067896,"(0.0, 0.6718201041221619, 0.0, 0.0, 0.0, 0.0, 0.0, 0.0, 0.0)",0
2020/02/28/11:00:11.366907,11568,0,0,,0,0,30.67308282,-96.3728971102,85.6266183394,"(0.0, 0.672504723072052, 0.0, 0.0, 0.0, 0.0, 0.0, 0.0, 0.0)",0
2020/02/28/11:00:11.386832,11569,0,0,,0,0,30.6730828546,-96.3728970512,85.6661010502,"(0.0, 0.662825345993042, 0.0, 0.0, 0.0, 0.0, 0.0, 0.0, 0.0)",0
2020/02/28/11:00:11.406957,11570,0,0,,0,0,30.6730828534,-96.3728970519,85.6643694907,"(0.0, 0.6636791229248047, 0.0, 0.0, 0.0, 0.0, 0.0, 0.0, 0.0)",0
2020/02/28/11:00:11.426839,11571,0,0,,0,0,30.6730828521,-96.3728970526,85.6626704431,"(0.0, 0.664534866809845, 0.0, 0.0, 0.0, 0.0, 0.0, 0.0, 0.0)",0
2020/02/28/11:00:11.446868,11572,0,0,,0,0,30.6730828514,-96.3728970542,85.6609274549,"(0.0, 0.6653978824615479, 0.0, 0.0, 0.0, 0.0, 0.0, 0.0, 0.0)",0
2020/02/28/11:00:11.466762,11573,0,0,,0,0,30.6730828507,-96.3728970554,85.6592127306,"(0.0, 0.6662654876708984, 0.0, 0.0, 0.0, 0.0, 0.0, 0.0, 0.0)",0
2020/02/28/11:00:11.486782,11574,0,0,,0,0,30.6730828495,-96.3728970559,85.6573831143,"(0.0, 0.6671377420425415, 0.0, 0.0, 0.0, 0.0, 0.0, 0.0, 0.0)",0
2020/02/28/11:00:11.506877,11575,0,0,,0,0,30.6730828488,-96.3728970566,85.6556258915,"(0.0, 0.6680147051811218, 0.0, 0.0, 0.0, 0.0, 0.0, 0.0, 0.0)",0
2020/02/28/11:00:11.526766,11576,0,0,,0,0,30.6730828472,-96.372897058,85.6538591103,"(0.0, 0.668896496295929, 0.0, 0.0, 0.0, 0.0, 0.0, 0.0, 0.0)",0
2020/02/28/11:00:11.546815,11577,0,0,,0,0,30.6730828461,-96.3728970584,85.6521553776,"(0.0, 0.6697829365730286, 0.0, 0.0, 0.0, 0.0, 0.0, 0.0, 0.0)",0
2020/02/28/11:00:11.566721,11578,0,0,,0,0,30.6730828447,-96.3728970596,85.6504687576,"(0.0, 0.6706741452217102, 0.0, 0.0, 0.0, 0.0, 0.0, 0.0, 0.0)",0
2020/02/28/11:00:11.586763,11579,0,0,,0,0,30.6730829306,-96.3728970311,85.6904891006,"(0.0, 0.6632329821586609, 0.0, 0.0, 0.0, 0.0, 0.0, 0.0, 0.0)",0
2020/02/28/11:00:11.606812,11580,0,0,,0,0,30.6730829296,-96.3728970324,85.6887005711,"(0.0, 0.664094090461731, 0.0, 0.0, 0.0, 0.0, 0.0, 0.0, 0.0)",0
2020/02/28/11:00:11.626803,11581,0,0,,0,0,30.673082928,-96.3728970331,85.6870642919,"(0.0, 0.6649599075317383, 0.0, 0.0, 0.0, 0.0, 0.0, 0.0, 0.0)",0
2020/02/28/11:00:11.646869,11582,0,0,,0,0,30.6730829278,-96.3728970341,85.6853653035,"(0.0, 0.6658303737640381, 0.0, 0.0, 0.0, 0.0, 0.0, 0.0, 0.0)",0
2020/02/28/11:00:11.666808,11583,0,0,,0,0,30.6730829262,-96.372897035,85.6836465012,"(0.0, 0.6667055487632751, 0.0, 0.0, 0.0, 0.0, 0.0, 0.0, 0.0)",0
2020/02/28/11:00:11.686880,11584,0,0,,0,0,30.6730829252,-96.372897036,85.6819579373,"(0.0, 0.6675854921340942, 0.0, 0.0, 0.0, 0.0, 0.0, 0.0, 0.0)",0
2020/02/28/11:00:11.706838,11585,0,0,,0,0,30.6730829239,-96.3728970372,85.6802449308,"(0.0, 0.6684702038764954, 0.0, 0.0, 0.0, 0.0, 0.0, 0.0, 0.0)",0
2020/02/28/11:00:11.726748,11586,0,0,,0,0,30.6730829226,-96.3728970383,85.6785427519,"(0.0, 0.6693598031997681, 0.0, 0.0, 0.0, 0.0, 0.0, 0.0, 0.0)",0
2020/02/28/11:00:11.746758,11587,0,0,,0,0,30.6730829213,-96.372897039,85.6768692954,"(0.0, 0.6702542304992676, 0.0, 0.0, 0.0, 0.0, 0.0, 0.0, 0.0)",0
2020/02/28/11:00:11.766842,11588,0,0,,0,0,30.6730829204,-96.3728970412,85.6751379566,"(0.0, 0.6711534857749939, 0.0, 0.0, 0.0, 0.0, 0.0, 0.0, 0.0)",0
2020/02/28/11:00:11.786859,11589,0,0,,0,0,30.6730829749,-96.372897029,85.7194398588,"(0.0, 0.663718581199646, 0.0, 0.0, 0.0, 0.0, 0.0, 0.0, 0.0)",0
2020/02/28/11:00:11.806695,11590,0,0,,0,0,30.6730829731,-96.3728970309,85.7177620095,"(0.0, 0.6645876169204712, 0.0, 0.0, 0.0, 0.0, 0.0, 0.0, 0.0)",0
2020/02/28/11:00:11.826719,11591,0,0,,0,0,30.673082972,-96.3728970325,85.7161508361,"(0.0, 0.6654613614082336, 0.0, 0.0, 0.0, 0.0, 0.0, 0.0, 0.0)",0
2020/02/28/11:00:11.846728,11592,0,0,,0,0,30.6730829704,-96.3728970338,85.7145747253,"(0.0, 0.6663398742675781, 0.0, 0.0, 0.0, 0.0, 0.0, 0.0, 0.0)",0
2020/02/28/11:00:11.866693,11593,0,0,,0,0,30.6730829695,-96.3728970357,85.7129284804,"(0.0, 0.6672232151031494, 0.0, 0.0, 0.0, 0.0, 0.0, 0.0, 0.0)",0
2020/02/28/11:00:11.886751,11594,0,0,,0,0,30.6730829676,-96.3728970368,85.7113295534,"(0.0, 0.6681114435195923, 0.0, 0.0, 0.0, 0.0, 0.0, 0.0, 0.0)",0
2020/02/28/11:00:11.906666,11595,0,0,,0,0,30.6730829659,-96.3728970385,85.7097001406,"(0.0, 0.6690044403076172, 0.0, 0.0, 0.0, 0.0, 0.0, 0.0, 0.0)",0
2020/02/28/11:00:11.926626,11596,0,0,,0,0,30.6730829642,-96.37289704,85.708054349,"(0.0, 0.6699023246765137, 0.0, 0.0, 0.0, 0.0, 0.0, 0.0, 0.0)",0
2020/02/28/11:00:11.946696,11597,0,0,,0,0,30.6730829624,-96.3728970422,85.7064180458,"(0.0, 0.6708052158355713, 0.0, 0.0, 0.0, 0.0, 0.0, 0.0, 0.0)",0
2020/02/28/11:00:11.966704,11598,0,0,,0,0,30.6730829611,-96.372897043,85.7046817362,"(0.0, 0.6714855432510376, 0.0, 0.0, 0.0, 0.0, 0.0, 0.0, 0.0)",0
2020/02/28/11:00:11.986736,11599,0,0,,0,0,30.6730830005,-96.3728969511,85.7492703581,"(0.0, 0.6644399166107178, 0.0, 0.0, 0.0, 0.0, 0.0, 0.0, 0.0)",0
2020/02/28/11:00:12.006677,11600,0,0,,0,0,30.6730829983,-96.3728969515,85.7477118989,"(0.0, 0.6653193235397339, 0.0, 0.0, 0.0, 0.0, 0.0, 0.0, 0.0)",0
2020/02/28/11:00:12.026632,11601,0,0,,0,0,30.673082996,-96.3728969525,85.7461415652,"(0.0, 0.6662036776542664, 0.0, 0.0, 0.0, 0.0, 0.0, 0.0, 0.0)",0
2020/02/28/11:00:12.046683,11602,0,0,,0,0,30.6730829933,-96.3728969537,85.744584503,"(0.0, 0.6670928001403809, 0.0, 0.0, 0.0, 0.0, 0.0, 0.0, 0.0)",0
2020/02/28/11:00:12.066587,11603,0,0,,0,0,30.6730829905,-96.3728969541,85.7430153009,"(0.0, 0.6679868102073669, 0.0, 0.0, 0.0, 0.0, 0.0, 0.0, 0.0)",0
2020/02/28/11:00:12.086772,11604,0,0,,0,0,30.6730829887,-96.3728969547,85.7414174227,"(0.0, 0.6688857674598694, 0.0, 0.0, 0.0, 0.0, 0.0, 0.0, 0.0)",0
2020/02/28/11:00:12.106648,11605,0,0,,0,0,30.6730829865,-96.3728969555,85.7398506223,"(0.0, 0.6697896718978882, 0.0, 0.0, 0.0, 0.0, 0.0, 0.0, 0.0)",0
2020/02/28/11:00:12.126701,11606,0,0,,0,0,30.6730829835,-96.3728969564,85.7381879716,"(0.0, 0.6706985831260681, 0.0, 0.0, 0.0, 0.0, 0.0, 0.0, 0.0)",0
2020/02/28/11:00:12.146729,11607,0,0,,0,0,30.6730829813,-96.3728969573,85.7365771232,"(0.0, 0.6716124415397644, 0.0, 0.0, 0.0, 0.0, 0.0, 0.0, 0.0)",0
2020/02/28/11:00:12.166619,11608,0,0,,0,0,30.6730829783,-96.3728969581,85.735021273,"(0.0, 0.6725314259529114, 0.0, 0.0, 0.0, 0.0, 0.0, 0.0, 0.0)",0
2020/02/28/11:00:12.186648,11609,0,0,,0,0,30.6730829769,-96.3728969586,85.7334802132,"(0.0, 0.6734554767608643, 0.0, 0.0, 0.0, 0.0, 0.0, 0.0, 0.0)",0
2020/02/28/11:00:12.206583,11610,0,0,,0,0,30.6730830093,-96.3728968742,85.7814737583,"(0.0, 0.6660671234130859, 0.0, 0.0, 0.0, 0.0, 0.0, 0.0, 0.0)",0
2020/02/28/11:00:12.226651,11611,0,0,,0,0,30.6730830067,-96.3728968748,85.7800068197,"(0.0, 0.6669615507125854, 0.0, 0.0, 0.0, 0.0, 0.0, 0.0, 0.0)",0
2020/02/28/11:00:12.246568,11612,0,0,,0,0,30.6730830038,-96.3728968755,85.7785360523,"(0.0, 0.6678609251976013, 0.0, 0.0, 0.0, 0.0, 0.0, 0.0, 0.0)",0
2020/02/28/11:00:12.266557,11613,0,0,,0,0,30.6730830011,-96.3728968765,85.7770487588,"(0.0, 0.6687653064727783, 0.0, 0.0, 0.0, 0.0, 0.0, 0.0, 0.0)",0
2020/02/28/11:00:12.286552,11614,0,0,,0,0,30.673082999,-96.3728968768,85.7755267115,"(0.0, 0.6696746349334717, 0.0, 0.0, 0.0, 0.0, 0.0, 0.0, 0.0)",0
2020/02/28/11:00:12.306540,11615,0,0,,0,0,30.6730829966,-96.3728968778,85.7740121244,"(0.0, 0.670589029788971, 0.0, 0.0, 0.0, 0.0, 0.0, 0.0, 0.0)",0
2020/02/28/11:00:12.326551,11616,0,0,,0,0,30.6730829935,-96.3728968785,85.7724112258,"(0.0, 0.6715085506439209, 0.0, 0.0, 0.0, 0.0, 0.0, 0.0, 0.0)",0
2020/02/28/11:00:12.346557,11617,0,0,,0,0,30.6730829907,-96.3728968794,85.7708468669,"(0.0, 0.6724331378936768, 0.0, 0.0, 0.0, 0.0, 0.0, 0.0, 0.0)",0
2020/02/28/11:00:12.366639,11618,0,0,,0,0,30.6730829874,-96.37289688,85.769298784,"(0.0, 0.6733629703521729, 0.0, 0.0, 0.0, 0.0, 0.0, 0.0, 0.0)",0
2020/02/28/11:00:12.386627,11619,0,0,,0,0,30.6730830583,-96.3728967779,85.8147833811,"(0.0, 0.665924608707428, 0.0, 0.0, 0.0, 0.0, 0.0, 0.0, 0.0)",0
2020/02/28/11:00:12.406592,11620,0,0,,0,0,30.6730830552,-96.3728967774,85.8132881611,"(0.0, 0.6668238043785095, 0.0, 0.0, 0.0, 0.0, 0.0, 0.0, 0.0)",0
2020/02/28/11:00:12.426589,11621,0,0,,0,0,30.6730830524,-96.3728967775,85.8118264694,"(0.0, 0.667728066444397, 0.0, 0.0, 0.0, 0.0, 0.0, 0.0, 0.0)",0
2020/02/28/11:00:12.446576,11622,0,0,,0,0,30.6730830498,-96.3728967774,85.8103610506,"(0.0, 0.668637216091156, 0.0, 0.0, 0.0, 0.0, 0.0, 0.0, 0.0)",0
2020/02/28/11:00:12.466686,11623,0,0,,0,0,30.6730830466,-96.3728967777,85.8089363604,"(0.0, 0.6695514917373657, 0.0, 0.0, 0.0, 0.0, 0.0, 0.0, 0.0)",0
2020/02/28/11:00:12.486530,11624,0,0,,0,0,30.6730830442,-96.372896779,85.8075697489,"(0.0, 0.6704708933830261, 0.0, 0.0, 0.0, 0.0, 0.0, 0.0, 0.0)",0
2020/02/28/11:00:12.506485,11625,0,0,,0,0,30.6730830418,-96.3728967793,85.8061521284,"(0.0, 0.671395480632782, 0.0, 0.0, 0.0, 0.0, 0.0, 0.0, 0.0)",0
2020/02/28/11:00:12.527551,11626,0,0,,0,0,30.6730830382,-96.3728967798,85.8047731899,"(0.0, 0.672325074672699, 0.0, 0.0, 0.0, 0.0, 0.0, 0.0, 0.0)",0
2020/02/28/11:00:12.546559,11627,0,0,,0,0,30.6730830358,-96.3728967804,85.8032555197,"(0.0, 0.673259973526001, 0.0, 0.0, 0.0, 0.0, 0.0, 0.0, 0.0)",0
2020/02/28/11:00:12.566477,11628,0,0,,0,0,30.6730830317,-96.3728967807,85.8016477859,"(0.0, 0.6739645004272461, 0.0, 0.0, 0.0, 0.0, 0.0, 0.0, 0.0)",0
2020/02/28/11:00:12.586642,11629,0,0,,0,0,30.6730831245,-96.3728967008,85.8406133468,"(0.0, 0.6656747460365295, 0.0, 0.0, 0.0, 0.0, 0.0, 0.0, 0.0)",0
2020/02/28/11:00:12.606511,11630,0,0,,0,0,30.6730831215,-96.3728967011,85.8391369487,"(0.0, 0.6665709018707275, 0.0, 0.0, 0.0, 0.0, 0.0, 0.0, 0.0)",0
2020/02/28/11:00:12.626586,11631,0,0,,0,0,30.6730831186,-96.3728967012,85.8376477684,"(0.0, 0.6674719452857971, 0.0, 0.0, 0.0, 0.0, 0.0, 0.0, 0.0)",0
2020/02/28/11:00:12.646569,11632,0,0,,0,0,30.6730831155,-96.3728967012,85.8361655098,"(0.0, 0.6683779358863831, 0.0, 0.0, 0.0, 0.0, 0.0, 0.0, 0.0)",0
2020/02/28/11:00:12.667439,11633,0,0,,0,0,30.6730831122,-96.3728967009,85.8347019481,"(0.0, 0.6692889928817749, 0.0, 0.0, 0.0, 0.0, 0.0, 0.0, 0.0)",0
2020/02/28/11:00:12.686679,11634,0,0,,0,0,30.673083109,-96.3728967012,85.8332385257,"(0.0, 0.6702051758766174, 0.0, 0.0, 0.0, 0.0, 0.0, 0.0, 0.0)",0
2020/02/28/11:00:12.706494,11635,0,0,,0,0,30.6730831057,-96.3728967012,85.8317944638,"(0.0, 0.6711264848709106, 0.0, 0.0, 0.0, 0.0, 0.0, 0.0, 0.0)",0
2020/02/28/11:00:12.727525,11636,0,0,,0,0,30.6730831023,-96.3728967015,85.8303607613,"(0.0, 0.6720527410507202, 0.0, 0.0, 0.0, 0.0, 0.0, 0.0, 0.0)",0
2020/02/28/11:00:12.746456,11637,0,0,,0,0,30.6730830994,-96.3728967012,85.8289129362,"(0.0, 0.6729841828346252, 0.0, 0.0, 0.0, 0.0, 0.0, 0.0, 0.0)",0
2020/02/28/11:00:12.766438,11638,0,0,,0,0,30.6730830957,-96.3728967016,85.8274430195,"(0.0, 0.6739211082458496, 0.0, 0.0, 0.0, 0.0, 0.0, 0.0, 0.0)",0
2020/02/28/11:00:12.787484,11639,0,0,,0,0,30.6730832155,-96.3728967222,85.8702715433,"(0.0, 0.6647047400474548, 0.0, 0.0, 0.0, 0.0, 0.0, 0.0, 0.0)",0
2020/02/28/11:00:12.807422,11640,0,0,,0,0,30.6730832127,-96.3728967234,85.8688826541,"(0.0, 0.6655890345573425, 0.0, 0.0, 0.0, 0.0, 0.0, 0.0, 0.0)",0
2020/02/28/11:00:12.827432,11641,0,0,,0,0,30.6730832098,-96.3728967245,85.8674969194,"(0.0, 0.666478157043457, 0.0, 0.0, 0.0, 0.0, 0.0, 0.0, 0.0)",0
2020/02/28/11:00:12.847435,11642,0,0,,0,0,30.6730832062,-96.3728967258,85.8660908422,"(0.0, 0.6673722267150879, 0.0, 0.0, 0.0, 0.0, 0.0, 0.0, 0.0)",0
2020/02/28/11:00:12.867434,11643,0,0,,0,0,30.6730832027,-96.3728967271,85.8647169324,"(0.0, 0.6682711839675903, 0.0, 0.0, 0.0, 0.0, 0.0, 0.0, 0.0)",0
2020/02/28/11:00:12.887444,11644,0,0,,0,0,30.6730831996,-96.3728967274,85.8632814212,"(0.0, 0.6691750884056091, 0.0, 0.0, 0.0, 0.0, 0.0, 0.0, 0.0)",0
2020/02/28/11:00:12.907521,11645,0,0,,0,0,30.6730831965,-96.3728967281,85.8619472674,"(0.0, 0.6700841188430786, 0.0, 0.0, 0.0, 0.0, 0.0, 0.0, 0.0)",0
2020/02/28/11:00:12.927528,11646,0,0,,0,0,30.6730831937,-96.3728967283,85.8604693635,"(0.0, 0.6709979772567749, 0.0, 0.0, 0.0, 0.0, 0.0, 0.0, 0.0)",0
2020/02/28/11:00:12.947545,11647,0,0,,0,0,30.6730831906,-96.3728967292,85.8590198577,"(0.0, 0.671917200088501, 0.0, 0.0, 0.0, 0.0, 0.0, 0.0, 0.0)",0
2020/02/28/11:00:12.967410,11648,0,0,,0,0,30.6730831873,-96.3728967296,85.85749363,"(0.0, 0.6728410720825195, 0.0, 0.0, 0.0, 0.0, 0.0, 0.0, 0.0)",0
2020/02/28/11:00:12.987375,11649,0,0,,0,0,30.6730832805,-96.3728966479,85.8864975118,"(0.0, 0.66518235206604, 0.0, 0.0, 0.0, 0.0, 0.0, 0.0, 0.0)",0
2020/02/28/11:00:13.007296,11650,0,0,,0,0,30.6730832787,-96.3728966475,85.8850114249,"(0.0, 0.6660733222961426, 0.0, 0.0, 0.0, 0.0, 0.0, 0.0, 0.0)",0
2020/02/28/11:00:13.027393,11651,0,0,,0,0,30.6730832774,-96.3728966475,85.8836284041,"(0.0, 0.6669692397117615, 0.0, 0.0, 0.0, 0.0, 0.0, 0.0, 0.0)",0
2020/02/28/11:00:13.047367,11652,0,0,,0,0,30.6730832756,-96.3728966483,85.8821612147,"(0.0, 0.667870044708252, 0.0, 0.0, 0.0, 0.0, 0.0, 0.0, 0.0)",0
2020/02/28/11:00:13.067327,11653,0,0,,0,0,30.6730832742,-96.3728966488,85.8807797217,"(0.0, 0.6687758564949036, 0.0, 0.0, 0.0, 0.0, 0.0, 0.0, 0.0)",0
2020/02/28/11:00:13.087388,11654,0,0,,0,0,30.6730832719,-96.3728966503,85.8793355378,"(0.0, 0.6696866750717163, 0.0, 0.0, 0.0, 0.0, 0.0, 0.0, 0.0)",0
2020/02/28/11:00:13.107353,11655,0,0,,0,0,30.6730832712,-96.3728966508,85.8779029058,"(0.0, 0.670602560043335, 0.0, 0.0, 0.0, 0.0, 0.0, 0.0, 0.0)",0
2020/02/28/11:00:13.127309,11656,0,0,,0,0,30.6730832693,-96.3728966512,85.8763972946,"(0.0, 0.6715235114097595, 0.0, 0.0, 0.0, 0.0, 0.0, 0.0, 0.0)",0
2020/02/28/11:00:13.147293,11657,0,0,,0,0,30.673083268,-96.3728966516,85.8749700174,"(0.0, 0.67244952917099, 0.0, 0.0, 0.0, 0.0, 0.0, 0.0, 0.0)",0
2020/02/28/11:00:13.167336,11658,0,0,,0,0,30.6730832652,-96.3728966512,85.8735332777,"(0.0, 0.6733807325363159, 0.0, 0.0, 0.0, 0.0, 0.0, 0.0, 0.0)",0
2020/02/28/11:00:13.187373,11659,0,0,,0,0,30.6730833732,-96.3728966175,85.9030600088,"(0.0, 0.6659027338027954, 0.0, 0.0, 0.0, 0.0, 0.0, 0.0, 0.0)",0
2020/02/28/11:00:13.207244,11660,0,0,,0,0,30.6730833723,-96.3728966172,85.9015752539,"(0.0, 0.6668030619621277, 0.0, 0.0, 0.0, 0.0, 0.0, 0.0, 0.0)",0
2020/02/28/11:00:13.227337,11661,0,0,,0,0,30.6730833704,-96.3728966172,85.9001214489,"(0.0, 0.6677083373069763, 0.0, 0.0, 0.0, 0.0, 0.0, 0.0, 0.0)",0
2020/02/28/11:00:13.247344,11662,0,0,,0,0,30.673083368,-96.3728966172,85.8986200524,"(0.0, 0.6686187982559204, 0.0, 0.0, 0.0, 0.0, 0.0, 0.0, 0.0)",0
2020/02/28/11:00:13.267271,11663,0,0,,0,0,30.6730833653,-96.3728966175,85.8971125923,"(0.0, 0.6695340871810913, 0.0, 0.0, 0.0, 0.0, 0.0, 0.0, 0.0)",0
2020/02/28/11:00:13.287313,11664,0,0,,0,0,30.6730833625,-96.3728966177,85.8956250323,"(0.0, 0.6704546809196472, 0.0, 0.0, 0.0, 0.0, 0.0, 0.0, 0.0)",0
2020/02/28/11:00:13.307213,11665,0,0,,0,0,30.6730833594,-96.3728966182,85.8942168856,"(0.0, 0.6713802814483643, 0.0, 0.0, 0.0, 0.0, 0.0, 0.0, 0.0)",0
2020/02/28/11:00:13.327262,11666,0,0,,0,0,30.6730833564,-96.3728966178,85.8926769991,"(0.0, 0.6723110675811768, 0.0, 0.0, 0.0, 0.0, 0.0, 0.0, 0.0)",0
2020/02/28/11:00:13.347335,11667,0,0,,0,0,30.6730833535,-96.3728966178,85.8911772082,"(0.0, 0.6732470393180847, 0.0, 0.0, 0.0, 0.0, 0.0, 0.0, 0.0)",0
2020/02/28/11:00:13.367221,11668,0,0,,0,0,30.6730833499,-96.3728966181,85.8897579722,"(0.0, 0.6741881966590881, 0.0, 0.0, 0.0, 0.0, 0.0, 0.0, 0.0)",0
2020/02/28/11:00:13.387382,11669,0,0,,0,0,30.6730834721,-96.3728965502,85.9151916947,"(0.0, 0.6665199398994446, 0.0, 0.0, 0.0, 0.0, 0.0, 0.0, 0.0)",0
2020/02/28/11:00:13.407256,11670,0,0,,0,0,30.6730834689,-96.3728965504,85.9136784005,"(0.0, 0.6674278974533081, 0.0, 0.0, 0.0, 0.0, 0.0, 0.0, 0.0)",0
2020/02/28/11:00:13.427253,11671,0,0,,0,0,30.6730834664,-96.3728965514,85.9121890556,"(0.0, 0.6683409214019775, 0.0, 0.0, 0.0, 0.0, 0.0, 0.0, 0.0)",0
2020/02/28/11:00:13.447262,11672,0,0,,0,0,30.6730834639,-96.3728965514,85.910589623,"(0.0, 0.6692590117454529, 0.0, 0.0, 0.0, 0.0, 0.0, 0.0, 0.0)",0
2020/02/28/11:00:13.467167,11673,0,0,,0,0,30.6730834604,-96.3728965524,85.9090969824,"(0.0, 0.6701822280883789, 0.0, 0.0, 0.0, 0.0, 0.0, 0.0, 0.0)",0
2020/02/28/11:00:13.487192,11674,0,0,,0,0,30.6730834576,-96.3728965539,85.9075810333,"(0.0, 0.6711105108261108, 0.0, 0.0, 0.0, 0.0, 0.0, 0.0, 0.0)",0
2020/02/28/11:00:13.507149,11675,0,0,,0,0,30.6730834546,-96.372896555,85.9060273535,"(0.0, 0.672044038772583, 0.0, 0.0, 0.0, 0.0, 0.0, 0.0, 0.0)",0
2020/02/28/11:00:13.527128,11676,0,0,,0,0,30.6730834516,-96.3728965565,85.9045160976,"(0.0, 0.6729827523231506, 0.0, 0.0, 0.0, 0.0, 0.0, 0.0, 0.0)",0
2020/02/28/11:00:13.547185,11677,0,0,,0,0,30.6730834484,-96.3728965575,85.9030183479,"(0.0, 0.6739267110824585, 0.0, 0.0, 0.0, 0.0, 0.0, 0.0, 0.0)",0
2020/02/28/11:00:13.567137,11678,0,0,,0,0,30.6730834457,-96.3728965586,85.9013518738,"(0.0, 0.6746381521224976, 0.0, 0.0, 0.0, 0.0, 0.0, 0.0, 0.0)",0
2020/02/28/11:00:13.587175,11679,0,0,,0,0,30.6730835492,-96.3728965943,85.9324512421,"(0.0, 0.6671907901763916, 0.0, 0.0, 0.0, 0.0, 0.0, 0.0, 0.0)",0
2020/02/28/11:00:13.607240,11680,0,0,,0,0,30.6730835467,-96.3728965963,85.9308680967,"(0.0, 0.6681065559387207, 0.0, 0.0, 0.0, 0.0, 0.0, 0.0, 0.0)",0
2020/02/28/11:00:13.627215,11681,0,0,,0,0,30.6730835455,-96.3728965981,85.9293888058,"(0.0, 0.6690273880958557, 0.0, 0.0, 0.0, 0.0, 0.0, 0.0, 0.0)",0
2020/02/28/11:00:13.647270,11682,0,0,,0,0,30.6730835431,-96.3728966007,85.9279297914,"(0.0, 0.6699535250663757, 0.0, 0.0, 0.0, 0.0, 0.0, 0.0, 0.0)",0
2020/02/28/11:00:13.667196,11683,0,0,,0,0,30.6730835404,-96.3728966012,85.9264488271,"(0.0, 0.6708845496177673, 0.0, 0.0, 0.0, 0.0, 0.0, 0.0, 0.0)",0
2020/02/28/11:00:13.687085,11684,0,0,,0,0,30.6730835385,-96.372896603,85.9249528691,"(0.0, 0.6718209385871887, 0.0, 0.0, 0.0, 0.0, 0.0, 0.0, 0.0)",0
2020/02/28/11:00:13.707101,11685,0,0,,0,0,30.6730835364,-96.3728966046,85.9233669397,"(0.0, 0.6727625727653503, 0.0, 0.0, 0.0, 0.0, 0.0, 0.0, 0.0)",0
2020/02/28/11:00:13.727213,11686,0,0,,0,0,30.6730835347,-96.3728966051,85.9217751966,"(0.0, 0.6737094521522522, 0.0, 0.0, 0.0, 0.0, 0.0, 0.0, 0.0)",0
2020/02/28/11:00:13.747259,11687,0,0,,0,0,30.6730835327,-96.3728966056,85.9202219227,"(0.0, 0.6746616363525391, 0.0, 0.0, 0.0, 0.0, 0.0, 0.0, 0.0)",0
2020/02/28/11:00:13.767234,11688,0,0,,0,0,30.6730835307,-96.3728966066,85.9185348661,"(0.0, 0.67537921667099, 0.0, 0.0, 0.0, 0.0, 0.0, 0.0, 0.0)",0
2020/02/28/11:00:13.787147,11689,0,0,,0,0,30.6730835942,-96.3728965283,85.9486184967,"(0.0, 0.6677494049072266, 0.0, 0.0, 0.0, 0.0, 0.0, 0.0, 0.0)",0
2020/02/28/11:00:13.807073,11690,0,0,,0,0,30.6730835921,-96.3728965289,85.9470831093,"(0.0, 0.6686710715293884, 0.0, 0.0, 0.0, 0.0, 0.0, 0.0, 0.0)",0
2020/02/28/11:00:13.827214,11691,0,0,,0,0,30.6730835906,-96.3728965294,85.9455717609,"(0.0, 0.6695979237556458, 0.0, 0.0, 0.0, 0.0, 0.0, 0.0, 0.0)",0
2020/02/28/11:00:13.847076,11692,0,0,,0,0,30.6730835884,-96.3728965299,85.9440339319,"(0.0, 0.6705299019813538, 0.0, 0.0, 0.0, 0.0, 0.0, 0.0, 0.0)",0
2020/02/28/11:00:13.867324,11693,0,0,,0,0,30.6730835867,-96.3728965308,85.9425035064,"(0.0, 0.671467125415802, 0.0, 0.0, 0.0, 0.0, 0.0, 0.0, 0.0)",0
2020/02/28/11:00:13.887140,11694,0,0,,0,0,30.6730835846,-96.3728965329,85.9408747746,"(0.0, 0.6724095940589905, 0.0, 0.0, 0.0, 0.0, 0.0, 0.0, 0.0)",0
2020/02/28/11:00:13.907202,11695,0,0,,0,0,30.6730835831,-96.372896534,85.9393273072,"(0.0, 0.6733573079109192, 0.0, 0.0, 0.0, 0.0, 0.0, 0.0, 0.0)",0
2020/02/28/11:00:13.927141,11696,0,0,,0,0,30.6730835799,-96.3728965357,85.9377900751,"(0.0, 0.6743103265762329, 0.0, 0.0, 0.0, 0.0, 0.0, 0.0, 0.0)",0
2020/02/28/11:00:13.947145,11697,0,0,,0,0,30.6730835762,-96.3728965384,85.9361534677,"(0.0, 0.6752687096595764, 0.0, 0.0, 0.0, 0.0, 0.0, 0.0, 0.0)",0
2020/02/28/11:00:13.967031,11698,0,0,,0,0,30.6730835709,-96.3728965413,85.9345267138,"(0.0, 0.6759909987449646, 0.0, 0.0, 0.0, 0.0, 0.0, 0.0, 0.0)",0
2020/02/28/11:00:13.987080,11699,0,0,,0,0,30.6730836533,-96.3728964038,85.9635811159,"(0.0, 0.6679900288581848, 0.0, 0.0, 0.0, 0.0, 0.0, 0.0, 0.0)",0
2020/02/28/11:00:14.007071,11700,0,0,,0,0,30.6730836465,-96.3728964062,85.9620081095,"(0.0, 0.6689135432243347, 0.0, 0.0, 0.0, 0.0, 0.0, 0.0, 0.0)",0
2020/02/28/11:00:14.027067,11701,0,0,,0,0,30.6730836395,-96.3728964087,85.9603499028,"(0.0, 0.6698392629623413, 0.0, 0.0, 0.0, 0.0, 0.0, 0.0, 0.0)",0
2020/02/28/11:00:14.047081,11702,0,0,,0,0,30.6730836331,-96.3728964112,85.9586294914,"(0.0, 0.6707728505134583, 0.0, 0.0, 0.0, 0.0, 0.0, 0.0, 0.0)",0
2020/02/28/11:00:14.067083,11703,0,0,,0,0,30.6730836267,-96.3728964134,85.9568985789,"(0.0, 0.6717116832733154, 0.0, 0.0, 0.0, 0.0, 0.0, 0.0, 0.0)",0
2020/02/28/11:00:14.087046,11704,0,0,,0,0,30.6730836203,-96.3728964153,85.9552224824,"(0.0, 0.6726557016372681, 0.0, 0.0, 0.0, 0.0, 0.0, 0.0, 0.0)",0
2020/02/28/11:00:14.107100,11705,0,0,,0,0,30.673083614,-96.3728964178,85.9537121633,"(0.0, 0.6736050844192505, 0.0, 0.0, 0.0, 0.0, 0.0, 0.0, 0.0)",0
2020/02/28/11:00:14.127032,11706,0,0,,0,0,30.6730836059,-96.3728964196,85.952114054,"(0.0, 0.6745597124099731, 0.0, 0.0, 0.0, 0.0, 0.0, 0.0, 0.0)",0
2020/02/28/11:00:14.147067,11707,0,0,,0,0,30.6730835974,-96.3728964225,85.9506647151,"(0.0, 0.6755197048187256, 0.0, 0.0, 0.0, 0.0, 0.0, 0.0, 0.0)",0
2020/02/28/11:00:14.167025,11708,0,0,,0,0,30.6730835875,-96.3728964255,85.9492228046,"(0.0, 0.6764851212501526, 0.0, 0.0, 0.0, 0.0, 0.0, 0.0, 0.0)",0
2020/02/28/11:00:14.186998,11709,0,0,,0,0,30.6730836254,-96.3728963493,85.9800796898,"(0.0, 0.668135941028595, 0.0, 0.0, 0.0, 0.0, 0.0, 0.0, 0.0)",0
2020/02/28/11:00:14.207054,11710,0,0,,0,0,30.6730836141,-96.3728963526,85.9785728611,"(0.0, 0.669059693813324, 0.0, 0.0, 0.0, 0.0, 0.0, 0.0, 0.0)",0
2020/02/28/11:00:14.227005,11711,0,0,,0,0,30.6730836023,-96.3728963546,85.9767959405,"(0.0, 0.6699885725975037, 0.0, 0.0, 0.0, 0.0, 0.0, 0.0, 0.0)",0
2020/02/28/11:00:14.246958,11712,0,0,,0,0,30.6730835905,-96.3728963579,85.9750078649,"(0.0, 0.670922577381134, 0.0, 0.0, 0.0, 0.0, 0.0, 0.0, 0.0)",0
2020/02/28/11:00:14.267011,11713,0,0,,0,0,30.6730835785,-96.3728963609,85.97320536,"(0.0, 0.6718617677688599, 0.0, 0.0, 0.0, 0.0, 0.0, 0.0, 0.0)",0
2020/02/28/11:00:14.286986,11714,0,0,,0,0,30.6730835661,-96.3728963644,85.9714712233,"(0.0, 0.6728062033653259, 0.0, 0.0, 0.0, 0.0, 0.0, 0.0, 0.0)",0
2020/02/28/11:00:14.307150,11715,0,0,,0,0,30.6730835518,-96.3728963679,85.969855248,"(0.0, 0.673755943775177, 0.0, 0.0, 0.0, 0.0, 0.0, 0.0, 0.0)",0
2020/02/28/11:00:14.327040,11716,0,0,,0,0,30.6730835377,-96.3728963722,85.968256106,"(0.0, 0.6747109889984131, 0.0, 0.0, 0.0, 0.0, 0.0, 0.0, 0.0)",0
2020/02/28/11:00:14.347047,11717,0,0,,0,0,30.6730835219,-96.372896377,85.9667764975,"(0.0, 0.6756712794303894, 0.0, 0.0, 0.0, 0.0, 0.0, 0.0, 0.0)",0
2020/02/28/11:00:14.367002,11718,0,0,,0,0,30.673083505,-96.3728963822,85.9652103689,"(0.0, 0.676395058631897, 0.0, 0.0, 0.0, 0.0, 0.0, 0.0, 0.0)",0
2020/02/28/11:00:14.387089,11719,0,0,,0,0,30.6730835798,-96.3728963333,86.000270581,"(0.0, 0.6677643060684204, 0.0, 0.0, 0.0, 0.0, 0.0, 0.0, 0.0)",0
2020/02/28/11:00:14.406949,11720,0,0,,0,0,30.6730835617,-96.3728963389,85.9987518687,"(0.0, 0.6686818599700928, 0.0, 0.0, 0.0, 0.0, 0.0, 0.0, 0.0)",0
2020/02/28/11:00:14.426991,11721,0,0,,0,0,30.6730835429,-96.372896345,85.9971563263,"(0.0, 0.6696045398712158, 0.0, 0.0, 0.0, 0.0, 0.0, 0.0, 0.0)",0
2020/02/28/11:00:14.446951,11722,0,0,,0,0,30.6730835234,-96.3728963512,85.9954906662,"(0.0, 0.6705322861671448, 0.0, 0.0, 0.0, 0.0, 0.0, 0.0, 0.0)",0
2020/02/28/11:00:14.466942,11723,0,0,,0,0,30.6730835031,-96.3728963571,85.993796967,"(0.0, 0.6714652180671692, 0.0, 0.0, 0.0, 0.0, 0.0, 0.0, 0.0)",0
2020/02/28/11:00:14.486917,11724,0,0,,0,0,30.6730834817,-96.3728963633,85.9921149342,"(0.0, 0.6724032759666443, 0.0, 0.0, 0.0, 0.0, 0.0, 0.0, 0.0)",0
2020/02/28/11:00:14.506997,11725,0,0,,0,0,30.6730834587,-96.3728963707,85.9905549437,"(0.0, 0.6733465790748596, 0.0, 0.0, 0.0, 0.0, 0.0, 0.0, 0.0)",0
2020/02/28/11:00:14.527002,11726,0,0,,0,0,30.6730834352,-96.3728963775,85.9888745221,"(0.0, 0.6742950677871704, 0.0, 0.0, 0.0, 0.0, 0.0, 0.0, 0.0)",0
2020/02/28/11:00:14.546831,11727,0,0,,0,0,30.67308341,-96.3728963854,85.9873183062,"(0.0, 0.6752488613128662, 0.0, 0.0, 0.0, 0.0, 0.0, 0.0, 0.0)",0
2020/02/28/11:00:14.566796,11728,0,0,,0,0,30.6730833836,-96.3728963938,85.9857790783,"(0.0, 0.6762079000473022, 0.0, 0.0, 0.0, 0.0, 0.0, 0.0, 0.0)",0
2020/02/28/11:00:14.586880,11729,0,0,,0,0,30.6730834703,-96.3728963721,86.0202001604,"(0.0, 0.6660784482955933, 0.0, 0.0, 0.0, 0.0, 0.0, 0.0, 0.0)",0
2020/02/28/11:00:14.606820,11730,0,0,,0,0,30.6730834422,-96.3728963807,86.0186543783,"(0.0, 0.6669741272926331, 0.0, 0.0, 0.0, 0.0, 0.0, 0.0, 0.0)",0
2020/02/28/11:00:14.626859,11731,0,0,,0,0,30.6730834137,-96.37289639,86.0170895333,"(0.0, 0.6678746938705444, 0.0, 0.0, 0.0, 0.0, 0.0, 0.0, 0.0)",0
2020/02/28/11:00:14.646880,11732,0,0,,0,0,30.6730833833,-96.3728963997,86.0155056965,"(0.0, 0.6687803864479065, 0.0, 0.0, 0.0, 0.0, 0.0, 0.0, 0.0)",0
2020/02/28/11:00:14.666817,11733,0,0,,0,0,30.6730833523,-96.3728964093,86.0139432636,"(0.0, 0.6696906685829163, 0.0, 0.0, 0.0, 0.0, 0.0, 0.0, 0.0)",0
2020/02/28/11:00:14.686858,11734,0,0,,0,0,30.6730833196,-96.3728964204,86.012295838,"(0.0, 0.6706059575080872, 0.0, 0.0, 0.0, 0.0, 0.0, 0.0, 0.0)",0
2020/02/28/11:00:14.706877,11735,0,0,,0,0,30.6730832858,-96.3728964313,86.0106812418,"(0.0, 0.6715263724327087, 0.0, 0.0, 0.0, 0.0, 0.0, 0.0, 0.0)",0
2020/02/28/11:00:14.726878,11736,0,0,,0,0,30.6730832505,-96.3728964431,86.0091134919,"(0.0, 0.6724517941474915, 0.0, 0.0, 0.0, 0.0, 0.0, 0.0, 0.0)",0
2020/02/28/11:00:14.746819,11737,0,0,,0,0,30.6730832138,-96.3728964547,86.0075387066,"(0.0, 0.6733824014663696, 0.0, 0.0, 0.0, 0.0, 0.0, 0.0, 0.0)",0
2020/02/28/11:00:14.766896,11738,0,0,,0,0,30.6730831761,-96.372896467,86.0059275561,"(0.0, 0.6743180751800537, 0.0, 0.0, 0.0, 0.0, 0.0, 0.0, 0.0)",0
2020/02/28/11:00:14.786891,11739,0,0,,0,0,30.6730832797,-96.3728964017,86.0490822518,"(0.0, 0.662067711353302, 0.0, 0.0, 0.0, 0.0, 0.0, 0.0, 0.0)",0
2020/02/28/11:00:14.806837,11740,0,0,,0,0,30.673083241,-96.3728964147,86.0475504281,"(0.0, 0.6629152894020081, 0.0, 0.0, 0.0, 0.0, 0.0, 0.0, 0.0)",0
2020/02/28/11:00:14.826812,11741,0,0,,0,0,30.673083199,-96.3728964273,86.0460428037,"(0.0, 0.6637673377990723, 0.0, 0.0, 0.0, 0.0, 0.0, 0.0, 0.0)",0
2020/02/28/11:00:14.846765,11742,0,0,,0,0,30.6730831567,-96.3728964409,86.04450279,"(0.0, 0.6646239757537842, 0.0, 0.0, 0.0, 0.0, 0.0, 0.0, 0.0)",0
2020/02/28/11:00:14.866933,11743,0,0,,0,0,30.673083113,-96.3728964547,86.0430130378,"(0.0, 0.665485143661499, 0.0, 0.0, 0.0, 0.0, 0.0, 0.0, 0.0)",0
2020/02/28/11:00:14.886792,11744,0,0,,0,0,30.6730830671,-96.3728964687,86.0415286148,"(0.0, 0.6663509607315063, 0.0, 0.0, 0.0, 0.0, 0.0, 0.0, 0.0)",0
2020/02/28/11:00:14.906768,11745,0,0,,0,0,30.6730830199,-96.3728964833,86.039996144,"(0.0, 0.6672214269638062, 0.0, 0.0, 0.0, 0.0, 0.0, 0.0, 0.0)",0
2020/02/28/11:00:14.926793,11746,0,0,,0,0,30.6730829713,-96.3728964981,86.038422337,"(0.0, 0.6680965423583984, 0.0, 0.0, 0.0, 0.0, 0.0, 0.0, 0.0)",0
2020/02/28/11:00:14.946852,11747,0,0,,0,0,30.6730829218,-96.3728965132,86.0369343497,"(0.0, 0.6689764857292175, 0.0, 0.0, 0.0, 0.0, 0.0, 0.0, 0.0)",0
2020/02/28/11:00:14.966787,11748,0,0,,0,0,30.6730828693,-96.3728965288,86.0353677446,"(0.0, 0.6698612570762634, 0.0, 0.0, 0.0, 0.0, 0.0, 0.0, 0.0)",0
2020/02/28/11:00:14.986798,11749,0,0,,0,0,30.6730830227,-96.3728964584,86.0725613684,"(0.0, 0.6579834222793579, 0.0, 0.0, 0.0, 0.0, 0.0, 0.0, 0.0)",0
2020/02/28/11:00:15.006845,11750,0,0,,0,0,30.6730829699,-96.3728964745,86.0710398798,"(0.0, 0.6587858200073242, 0.0, 0.0, 0.0, 0.0, 0.0, 0.0, 0.0)",0
2020/02/28/11:00:15.026819,11751,0,0,,0,0,30.6730829143,-96.3728964907,86.0695168049,"(0.0, 0.6595923900604248, 0.0, 0.0, 0.0, 0.0, 0.0, 0.0, 0.0)",0
2020/02/28/11:00:15.046843,11752,0,0,,0,0,30.6730828573,-96.3728965081,86.0679968661,"(0.0, 0.6604031920433044, 0.0, 0.0, 0.0, 0.0, 0.0, 0.0, 0.0)",0
2020/02/28/11:00:15.066735,11753,0,0,,0,0,30.6730827987,-96.3728965253,86.0664726181,"(0.0, 0.6612182855606079, 0.0, 0.0, 0.0, 0.0, 0.0, 0.0, 0.0)",0
2020/02/28/11:00:15.086735,11754,0,0,,0,0,30.673082738,-96.3728965438,86.0649488053,"(0.0, 0.6620376110076904, 0.0, 0.0, 0.0, 0.0, 0.0, 0.0, 0.0)",0
2020/02/28/11:00:15.106711,11755,0,0,,0,0,30.6730826752,-96.3728965626,86.0633888045,"(0.0, 0.6628612875938416, 0.0, 0.0, 0.0, 0.0, 0.0, 0.0, 0.0)",0
2020/02/28/11:00:15.126794,11756,0,0,,0,0,30.6730826107,-96.3728965816,86.0618647941,"(0.0, 0.663689374923706, 0.0, 0.0, 0.0, 0.0, 0.0, 0.0, 0.0)",0
2020/02/28/11:00:15.146789,11757,0,0,,0,0,30.6730825448,-96.3728966013,86.0603375328,"(0.0, 0.6645218133926392, 0.0, 0.0, 0.0, 0.0, 0.0, 0.0, 0.0)",0
2020/02/28/11:00:15.166774,11758,0,0,,0,0,30.6730824761,-96.3728966218,86.0587725454,"(0.0, 0.6653586626052856, 0.0, 0.0, 0.0, 0.0, 0.0, 0.0, 0.0)",0
2020/02/28/11:00:15.186665,11759,0,0,,0,0,30.6730824055,-96.3728966434,86.0571824681,"(0.0, 0.6659891605377197, 0.0, 0.0, 0.0, 0.0, 0.0, 0.0, 0.0)",0
2020/02/28/11:00:15.206695,11760,0,0,,0,0,30.6730824862,-96.3728967286,86.1005467389,"(0.0, 0.6545444130897522, 0.0, 0.0, 0.0, 0.0, 0.0, 0.0, 0.0)",0
2020/02/28/11:00:15.226709,11761,0,0,,0,0,30.6730824114,-96.3728967521,86.0990095894,"(0.0, 0.6553075909614563, 0.0, 0.0, 0.0, 0.0, 0.0, 0.0, 0.0)",0
2020/02/28/11:00:15.247731,11762,0,0,,0,0,30.6730823347,-96.3728967759,86.0975232006,"(0.0, 0.6560747027397156, 0.0, 0.0, 0.0, 0.0, 0.0, 0.0, 0.0)",0
2020/02/28/11:00:15.267660,11763,0,0,,0,0,30.6730822561,-96.3728968003,86.0959963634,"(0.0, 0.6568458080291748, 0.0, 0.0, 0.0, 0.0, 0.0, 0.0, 0.0)",0
2020/02/28/11:00:15.287847,11764,0,0,,0,0,30.6730821739,-96.3728968253,86.0944333973,"(0.0, 0.6576209664344788, 0.0, 0.0, 0.0, 0.0, 0.0, 0.0, 0.0)",0
2020/02/28/11:00:15.307711,11765,0,0,,0,0,30.6730820902,-96.3728968505,86.0928614472,"(0.0, 0.6584001183509827, 0.0, 0.0, 0.0, 0.0, 0.0, 0.0, 0.0)",0
2020/02/28/11:00:15.327666,11766,0,0,,0,0,30.6730820051,-96.3728968764,86.0912707449,"(0.0, 0.6591834425926208, 0.0, 0.0, 0.0, 0.0, 0.0, 0.0, 0.0)",0
