time,.header.seq,.header.stamp.secs,.header.stamp.nsecs,.header.frame_id,.Time,.UtcTime.year,.UtcTime.month,.UtcTime.day,.UtcTime.hour,.UtcTime.minute,.UtcTime.second,.UtcTime.millisecond,.Week,.GpsFix,.NumSats,.LLA.x,.LLA.y,.LLA.z,.NedVel.x,.NedVel.y,.NedVel.z,.NedAcc.x,.NedAcc.y,.NedAcc.z,.SpeedAcc,.TimeAcc
2020/02/28/11:00:07.306825,11373,1582909207,306742488,vectornav,493224.999652,20,2,28,17,0,7,0,2094,3,16,30.6730848,-96.3728908,86.228,-0.00700000021607,0.00700000021607,-0.0179999992251,1.74139714241,1.92312204838,5.88696575165,0.198400005698,2.99999980413e-09
2020/02/28/11:00:07.325782,11374,1582909207,325711543,vectornav,493224.999652,20,2,28,17,0,7,0,2094,3,16,30.6730848,-96.3728908,86.228,-0.00700000021607,0.00700000021607,-0.0179999992251,1.74139714241,1.92312204838,5.88696575165,0.198400005698,2.99999980413e-09
2020/02/28/11:00:07.346842,11375,1582909207,346735933,vectornav,493224.999652,20,2,28,17,0,7,0,2094,3,16,30.6730848,-96.3728908,86.228,-0.00700000021607,0.00700000021607,-0.0179999992251,1.74139714241,1.92312204838,5.88696575165,0.198400005698,2.99999980413e-09
2020/02/28/11:00:07.366774,11376,1582909207,366701118,vectornav,493225.199652,20,2,28,17,0,7,199,2094,3,16,30.6730848,-96.3728907,86.28,-0.0130000002682,-0.019999999553,-0.0230000000447,1.74598050117,1.92432785034,5.89408969879,0.161600008607,2.99999980413e-09
2020/02/28/11:00:07.386846,11377,1582909207,386728666,vectornav,493225.199652,20,2,28,17,0,7,199,2094,3,16,30.6730848,-96.3728907,86.28,-0.0130000002682,-0.019999999553,-0.0230000000447,1.74598050117,1.92432785034,5.89408969879,0.161600008607,2.99999980413e-09
2020/02/28/11:00:07.406845,11378,1582909207,406724228,vectornav,493225.199652,20,2,28,17,0,7,199,2094,3,16,30.6730848,-96.3728907,86.28,-0.0130000002682,-0.019999999553,-0.0230000000447,1.74598050117,1.92432785034,5.89408969879,0.161600008607,2.99999980413e-09
2020/02/28/11:00:07.426779,11379,1582909207,426682108,vectornav,493225.199652,20,2,28,17,0,7,199,2094,3,16,30.6730848,-96.3728907,86.28,-0.0130000002682,-0.019999999553,-0.0230000000447,1.74598050117,1.92432785034,5.89408969879,0.161600008607,2.99999980413e-09
2020/02/28/11:00:07.446788,11380,1582909207,446678371,vectornav,493225.199652,20,2,28,17,0,7,199,2094,3,16,30.6730848,-96.3728907,86.28,-0.0130000002682,-0.019999999553,-0.0230000000447,1.74598050117,1.92432785034,5.89408969879,0.161600008607,2.99999980413e-09
2020/02/28/11:00:07.466816,11381,1582909207,466700380,vectornav,493225.199652,20,2,28,17,0,7,199,2094,3,16,30.6730848,-96.3728907,86.28,-0.0130000002682,-0.019999999553,-0.0230000000447,1.74598050117,1.92432785034,5.89408969879,0.161600008607,2.99999980413e-09
2020/02/28/11:00:07.486915,11382,1582909207,486756844,vectornav,493225.199652,20,2,28,17,0,7,199,2094,3,16,30.6730848,-96.3728907,86.28,-0.0130000002682,-0.019999999553,-0.0230000000447,1.74598050117,1.92432785034,5.89408969879,0.161600008607,2.99999980413e-09
2020/02/28/11:00:07.506751,11383,1582909207,506654966,vectornav,493225.199652,20,2,28,17,0,7,199,2094,3,16,30.6730848,-96.3728907,86.28,-0.0130000002682,-0.019999999553,-0.0230000000447,1.74598050117,1.92432785034,5.89408969879,0.161600008607,2.99999980413e-09
2020/02/28/11:00:07.526767,11384,1582909207,526701112,vectornav,493225.199652,20,2,28,17,0,7,199,2094,3,16,30.6730848,-96.3728907,86.28,-0.0130000002682,-0.019999999553,-0.0230000000447,1.74598050117,1.92432785034,5.89408969879,0.161600008607,2.99999980413e-09
2020/02/28/11:00:07.546823,11385,1582909207,546705635,vectornav,493225.199652,20,2,28,17,0,7,199,2094,3,16,30.6730848,-96.3728907,86.28,-0.0130000002682,-0.019999999553,-0.0230000000447,1.74598050117,1.92432785034,5.89408969879,0.161600008607,2.99999980413e-09
2020/02/28/11:00:07.566736,11386,1582909207,566663525,vectornav,493225.399652,20,2,28,17,0,7,399,2094,3,16,30.6730849,-96.3728908,86.334,-0.0219999998808,0.0010000000475,-0.0949999988079,1.75101399422,1.92566120625,5.90153551102,0.200800016522,2.99999980413e-09
2020/02/28/11:00:07.586799,11387,1582909207,586668076,vectornav,493225.399652,20,2,28,17,0,7,399,2094,3,16,30.6730849,-96.3728908,86.334,-0.0219999998808,0.0010000000475,-0.0949999988079,1.75101399422,1.92566120625,5.90153551102,0.200800016522,2.99999980413e-09
2020/02/28/11:00:07.606790,11388,1582909207,606679783,vectornav,493225.399652,20,2,28,17,0,7,399,2094,3,16,30.6730849,-96.3728908,86.334,-0.0219999998808,0.0010000000475,-0.0949999988079,1.75101399422,1.92566120625,5.90153551102,0.200800016522,2.99999980413e-09
2020/02/28/11:00:07.626718,11389,1582909207,626625864,vectornav,493225.399652,20,2,28,17,0,7,399,2094,3,16,30.6730849,-96.3728908,86.334,-0.0219999998808,0.0010000000475,-0.0949999988079,1.75101399422,1.92566120625,5.90153551102,0.200800016522,2.99999980413e-09
2020/02/28/11:00:07.646785,11390,1582909207,646677563,vectornav,493225.399652,20,2,28,17,0,7,399,2094,3,16,30.6730849,-96.3728908,86.334,-0.0219999998808,0.0010000000475,-0.0949999988079,1.75101399422,1.92566120625,5.90153551102,0.200800016522,2.99999980413e-09
2020/02/28/11:00:07.666718,11391,1582909207,666639239,vectornav,493225.399652,20,2,28,17,0,7,399,2094,3,16,30.6730849,-96.3728908,86.334,-0.0219999998808,0.0010000000475,-0.0949999988079,1.75101399422,1.92566120625,5.90153551102,0.200800016522,2.99999980413e-09
2020/02/28/11:00:07.686858,11392,1582909207,686681725,vectornav,493225.399652,20,2,28,17,0,7,399,2094,3,16,30.6730849,-96.3728908,86.334,-0.0219999998808,0.0010000000475,-0.0949999988079,1.75101399422,1.92566120625,5.90153551102,0.200800016522,2.99999980413e-09
2020/02/28/11:00:07.706765,11393,1582909207,706667809,vectornav,493225.399652,20,2,28,17,0,7,399,2094,3,16,30.6730849,-96.3728908,86.334,-0.0219999998808,0.0010000000475,-0.0949999988079,1.75101399422,1.92566120625,5.90153551102,0.200800016522,2.99999980413e-09
2020/02/28/11:00:07.726722,11394,1582909207,726639703,vectornav,493225.399652,20,2,28,17,0,7,399,2094,3,16,30.6730849,-96.3728908,86.334,-0.0219999998808,0.0010000000475,-0.0949999988079,1.75101399422,1.92566120625,5.90153551102,0.200800016522,2.99999980413e-09
2020/02/28/11:00:07.746772,11395,1582909207,746631791,vectornav,493225.399652,20,2,28,17,0,7,399,2094,3,16,30.6730849,-96.3728908,86.334,-0.0219999998808,0.0010000000475,-0.0949999988079,1.75101399422,1.92566120625,5.90153551102,0.200800016522,2.99999980413e-09
2020/02/28/11:00:07.766676,11396,1582909207,766558680,vectornav,493225.599652,20,2,28,17,0,7,599,2094,3,16,30.6730849,-96.3728908,86.372,-0.0140000004321,-0.0260000005364,0.0529999993742,1.75573706627,1.92696082592,5.9088344574,0.187200009823,2.99999980413e-09
2020/02/28/11:00:07.786786,11397,1582909207,786669785,vectornav,493225.599652,20,2,28,17,0,7,599,2094,3,16,30.6730849,-96.3728908,86.372,-0.0140000004321,-0.0260000005364,0.0529999993742,1.75573706627,1.92696082592,5.9088344574,0.187200009823,2.99999980413e-09
2020/02/28/11:00:07.806682,11398,1582909207,806567627,vectornav,493225.599652,20,2,28,17,0,7,599,2094,3,16,30.6730849,-96.3728908,86.372,-0.0140000004321,-0.0260000005364,0.0529999993742,1.75573706627,1.92696082592,5.9088344574,0.187200009823,2.99999980413e-09
2020/02/28/11:00:07.826680,11399,1582909207,826584178,vectornav,493225.599652,20,2,28,17,0,7,599,2094,3,16,30.6730849,-96.3728908,86.372,-0.0140000004321,-0.0260000005364,0.0529999993742,1.75573706627,1.92696082592,5.9088344574,0.187200009823,2.99999980413e-09
2020/02/28/11:00:07.846707,11400,1582909207,846597489,vectornav,493225.599652,20,2,28,17,0,7,599,2094,3,16,30.6730849,-96.3728908,86.372,-0.0140000004321,-0.0260000005364,0.0529999993742,1.75573706627,1.92696082592,5.9088344574,0.187200009823,2.99999980413e-09
2020/02/28/11:00:07.866632,11401,1582909207,866565845,vectornav,493225.599652,20,2,28,17,0,7,599,2094,3,16,30.6730849,-96.3728908,86.372,-0.0140000004321,-0.0260000005364,0.0529999993742,1.75573706627,1.92696082592,5.9088344574,0.187200009823,2.99999980413e-09
2020/02/28/11:00:07.886745,11402,1582909207,886590695,vectornav,493225.599652,20,2,28,17,0,7,599,2094,3,16,30.6730849,-96.3728908,86.372,-0.0140000004321,-0.0260000005364,0.0529999993742,1.75573706627,1.92696082592,5.9088344574,0.187200009823,2.99999980413e-09
2020/02/28/11:00:07.906730,11403,1582909207,906584330,vectornav,493225.599652,20,2,28,17,0,7,599,2094,3,16,30.6730849,-96.3728908,86.372,-0.0140000004321,-0.0260000005364,0.0529999993742,1.75573706627,1.92696082592,5.9088344574,0.187200009823,2.99999980413e-09
2020/02/28/11:00:07.926827,11404,1582909207,926556057,vectornav,493225.599652,20,2,28,17,0,7,599,2094,3,16,30.6730849,-96.3728908,86.372,-0.0140000004321,-0.0260000005364,0.0529999993742,1.75573706627,1.92696082592,5.9088344574,0.187200009823,2.99999980413e-09
2020/02/28/11:00:07.946664,11405,1582909207,946556327,vectornav,493225.599652,20,2,28,17,0,7,599,2094,3,16,30.6730849,-96.3728908,86.372,-0.0140000004321,-0.0260000005364,0.0529999993742,1.75573706627,1.92696082592,5.9088344574,0.187200009823,2.99999980413e-09
2020/02/28/11:00:07.966571,11406,1582909207,966501590,vectornav,493225.799652,20,2,28,17,0,7,799,2094,3,16,30.673085,-96.3728908,86.401,0.0010000000475,-0.00300000002608,-0.01600000076,1.75961899757,1.92784357071,5.91512680054,0.172800004482,2.99999980413e-09
2020/02/28/11:00:07.986664,11407,1582909207,986560484,vectornav,493225.799652,20,2,28,17,0,7,799,2094,3,16,30.673085,-96.3728908,86.401,0.0010000000475,-0.00300000002608,-0.01600000076,1.75961899757,1.92784357071,5.91512680054,0.172800004482,2.99999980413e-09
2020/02/28/11:00:08.006703,11408,1582909208,6566452,vectornav,493225.799652,20,2,28,17,0,7,799,2094,3,16,30.673085,-96.3728908,86.401,0.0010000000475,-0.00300000002608,-0.01600000076,1.75961899757,1.92784357071,5.91512680054,0.172800004482,2.99999980413e-09
2020/02/28/11:00:08.026591,11409,1582909208,26501335,vectornav,493225.799652,20,2,28,17,0,7,799,2094,3,16,30.673085,-96.3728908,86.401,0.0010000000475,-0.00300000002608,-0.01600000076,1.75961899757,1.92784357071,5.91512680054,0.172800004482,2.99999980413e-09
2020/02/28/11:00:08.046624,11410,1582909208,46537010,vectornav,493225.799652,20,2,28,17,0,7,799,2094,3,16,30.673085,-96.3728908,86.401,0.0010000000475,-0.00300000002608,-0.01600000076,1.75961899757,1.92784357071,5.91512680054,0.172800004482,2.99999980413e-09
2020/02/28/11:00:08.066633,11411,1582909208,66534712,vectornav,493225.799652,20,2,28,17,0,7,799,2094,3,16,30.673085,-96.3728908,86.401,0.0010000000475,-0.00300000002608,-0.01600000076,1.75961899757,1.92784357071,5.91512680054,0.172800004482,2.99999980413e-09
2020/02/28/11:00:08.086649,11412,1582909208,86535626,vectornav,493225.799652,20,2,28,17,0,7,799,2094,3,16,30.673085,-96.3728908,86.401,0.0010000000475,-0.00300000002608,-0.01600000076,1.75961899757,1.92784357071,5.91512680054,0.172800004482,2.99999980413e-09
2020/02/28/11:00:08.106600,11413,1582909208,106502184,vectornav,493225.799652,20,2,28,17,0,7,799,2094,3,16,30.673085,-96.3728908,86.401,0.0010000000475,-0.00300000002608,-0.01600000076,1.75961899757,1.92784357071,5.91512680054,0.172800004482,2.99999980413e-09
2020/02/28/11:00:08.126532,11414,1582909208,126472519,vectornav,493225.799652,20,2,28,17,0,7,799,2094,3,16,30.673085,-96.3728908,86.401,0.0010000000475,-0.00300000002608,-0.01600000076,1.75961899757,1.92784357071,5.91512680054,0.172800004482,2.99999980413e-09
2020/02/28/11:00:08.146636,11415,1582909208,146520252,vectornav,493225.799652,20,2,28,17,0,7,799,2094,3,16,30.673085,-96.3728908,86.401,0.0010000000475,-0.00300000002608,-0.01600000076,1.75961899757,1.92784357071,5.91512680054,0.172800004482,2.99999980413e-09
2020/02/28/11:00:08.166550,11416,1582909208,166475647,vectornav,493225.799652,20,2,28,17,0,7,799,2094,3,16,30.673085,-96.3728908,86.401,0.0010000000475,-0.00300000002608,-0.01600000076,1.75961899757,1.92784357071,5.91512680054,0.172800004482,2.99999980413e-09
2020/02/28/11:00:08.186643,11417,1582909208,186534375,vectornav,493225.999652,20,2,28,17,0,8,0,2094,3,16,30.6730851,-96.3728908,86.45,0.0240000002086,-0.00899999961257,-0.00999999977648,1.76339042187,1.92864990234,5.92103672028,0.143200010061,2.99999980413e-09
2020/02/28/11:00:08.206573,11418,1582909208,206497750,vectornav,493225.999652,20,2,28,17,0,8,0,2094,3,16,30.6730851,-96.3728908,86.45,0.0240000002086,-0.00899999961257,-0.00999999977648,1.76339042187,1.92864990234,5.92103672028,0.143200010061,2.99999980413e-09
2020/02/28/11:00:08.226665,11419,1582909208,226519422,vectornav,493225.999652,20,2,28,17,0,8,0,2094,3,16,30.6730851,-96.3728908,86.45,0.0240000002086,-0.00899999961257,-0.00999999977648,1.76339042187,1.92864990234,5.92103672028,0.143200010061,2.99999980413e-09
2020/02/28/11:00:08.246669,11420,1582909208,246517908,vectornav,493225.999652,20,2,28,17,0,8,0,2094,3,16,30.6730851,-96.3728908,86.45,0.0240000002086,-0.00899999961257,-0.00999999977648,1.76339042187,1.92864990234,5.92103672028,0.143200010061,2.99999980413e-09
2020/02/28/11:00:08.266643,11421,1582909208,266510927,vectornav,493225.999652,20,2,28,17,0,8,0,2094,3,16,30.6730851,-96.3728908,86.45,0.0240000002086,-0.00899999961257,-0.00999999977648,1.76339042187,1.92864990234,5.92103672028,0.143200010061,2.99999980413e-09
2020/02/28/11:00:08.286604,11422,1582909208,286462398,vectornav,493225.999652,20,2,28,17,0,8,0,2094,3,16,30.6730851,-96.3728908,86.45,0.0240000002086,-0.00899999961257,-0.00999999977648,1.76339042187,1.92864990234,5.92103672028,0.143200010061,2.99999980413e-09
2020/02/28/11:00:08.306564,11423,1582909208,306440142,vectornav,493225.999652,20,2,28,17,0,8,0,2094,3,16,30.6730851,-96.3728908,86.45,0.0240000002086,-0.00899999961257,-0.00999999977648,1.76339042187,1.92864990234,5.92103672028,0.143200010061,2.99999980413e-09
2020/02/28/11:00:08.326571,11424,1582909208,326477770,vectornav,493225.999652,20,2,28,17,0,8,0,2094,3,16,30.6730851,-96.3728908,86.45,0.0240000002086,-0.00899999961257,-0.00999999977648,1.76339042187,1.92864990234,5.92103672028,0.143200010061,2.99999980413e-09
2020/02/28/11:00:08.346666,11425,1582909208,346487364,vectornav,493225.999652,20,2,28,17,0,8,0,2094,3,16,30.6730851,-96.3728908,86.45,0.0240000002086,-0.00899999961257,-0.00999999977648,1.76339042187,1.92864990234,5.92103672028,0.143200010061,2.99999980413e-09
2020/02/28/11:00:08.366567,11426,1582909208,366482628,vectornav,493226.199652,20,2,28,17,0,8,199,2094,3,16,30.6730852,-96.3728907,86.488,0.00700000021607,-0.0219999998808,-0.0649999976158,1.76609301567,1.92871999741,5.92665243149,0.188000008464,2.99999980413e-09
2020/02/28/11:00:08.386606,11427,1582909208,386453184,vectornav,493226.199652,20,2,28,17,0,8,199,2094,3,16,30.6730852,-96.3728907,86.488,0.00700000021607,-0.0219999998808,-0.0649999976158,1.76609301567,1.92871999741,5.92665243149,0.188000008464,2.99999980413e-09
2020/02/28/11:00:08.406557,11428,1582909208,406432235,vectornav,493226.199652,20,2,28,17,0,8,199,2094,3,16,30.6730852,-96.3728907,86.488,0.00700000021607,-0.0219999998808,-0.0649999976158,1.76609301567,1.92871999741,5.92665243149,0.188000008464,2.99999980413e-09
2020/02/28/11:00:08.426589,11429,1582909208,426430851,vectornav,493226.199652,20,2,28,17,0,8,199,2094,3,16,30.6730852,-96.3728907,86.488,0.00700000021607,-0.0219999998808,-0.0649999976158,1.76609301567,1.92871999741,5.92665243149,0.188000008464,2.99999980413e-09
2020/02/28/11:00:08.446527,11430,1582909208,446403433,vectornav,493226.199652,20,2,28,17,0,8,199,2094,3,16,30.6730852,-96.3728907,86.488,0.00700000021607,-0.0219999998808,-0.0649999976158,1.76609301567,1.92871999741,5.92665243149,0.188000008464,2.99999980413e-09
2020/02/28/11:00:08.466517,11431,1582909208,466410950,vectornav,493226.199652,20,2,28,17,0,8,199,2094,3,16,30.6730852,-96.3728907,86.488,0.00700000021607,-0.0219999998808,-0.0649999976158,1.76609301567,1.92871999741,5.92665243149,0.188000008464,2.99999980413e-09
2020/02/28/11:00:08.486512,11432,1582909208,486407347,vectornav,493226.199652,20,2,28,17,0,8,199,2094,3,16,30.6730852,-96.3728907,86.488,0.00700000021607,-0.0219999998808,-0.0649999976158,1.76609301567,1.92871999741,5.92665243149,0.188000008464,2.99999980413e-09
2020/02/28/11:00:08.506500,11433,1582909208,506381537,vectornav,493226.199652,20,2,28,17,0,8,199,2094,3,16,30.6730852,-96.3728907,86.488,0.00700000021607,-0.0219999998808,-0.0649999976158,1.76609301567,1.92871999741,5.92665243149,0.188000008464,2.99999980413e-09
2020/02/28/11:00:08.526503,11434,1582909208,526380455,vectornav,493226.199652,20,2,28,17,0,8,199,2094,3,16,30.6730852,-96.3728907,86.488,0.00700000021607,-0.0219999998808,-0.0649999976158,1.76609301567,1.92871999741,5.92665243149,0.188000008464,2.99999980413e-09
2020/02/28/11:00:08.546466,11435,1582909208,546338432,vectornav,493226.199652,20,2,28,17,0,8,199,2094,3,16,30.6730852,-96.3728907,86.488,0.00700000021607,-0.0219999998808,-0.0649999976158,1.76609301567,1.92871999741,5.92665243149,0.188000008464,2.99999980413e-09
2020/02/28/11:00:08.566436,11436,1582909208,566340448,vectornav,493226.399652,20,2,28,17,0,8,399,2094,3,16,30.6730853,-96.3728906,86.509,0.0250000003725,-0.0010000000475,-0.035000000149,1.76913690567,1.92869102955,5.93221521378,0.168000012636,2.99999980413e-09
2020/02/28/11:00:08.586410,11437,1582909208,586320445,vectornav,493226.399652,20,2,28,17,0,8,399,2094,3,16,30.6730853,-96.3728906,86.509,0.0250000003725,-0.0010000000475,-0.035000000149,1.76913690567,1.92869102955,5.93221521378,0.168000012636,2.99999980413e-09
2020/02/28/11:00:08.606487,11438,1582909208,606364710,vectornav,493226.399652,20,2,28,17,0,8,399,2094,3,16,30.6730853,-96.3728906,86.509,0.0250000003725,-0.0010000000475,-0.035000000149,1.76913690567,1.92869102955,5.93221521378,0.168000012636,2.99999980413e-09
2020/02/28/11:00:08.626436,11439,1582909208,626301834,vectornav,493226.399652,20,2,28,17,0,8,399,2094,3,16,30.6730853,-96.3728906,86.509,0.0250000003725,-0.0010000000475,-0.035000000149,1.76913690567,1.92869102955,5.93221521378,0.168000012636,2.99999980413e-09
2020/02/28/11:00:08.646392,11440,1582909208,646300610,vectornav,493226.399652,20,2,28,17,0,8,399,2094,3,16,30.6730853,-96.3728906,86.509,0.0250000003725,-0.0010000000475,-0.035000000149,1.76913690567,1.92869102955,5.93221521378,0.168000012636,2.99999980413e-09
2020/02/28/11:00:08.666410,11441,1582909208,666321627,vectornav,493226.399652,20,2,28,17,0,8,399,2094,3,16,30.6730853,-96.3728906,86.509,0.0250000003725,-0.0010000000475,-0.035000000149,1.76913690567,1.92869102955,5.93221521378,0.168000012636,2.99999980413e-09
2020/02/28/11:00:08.686433,11442,1582909208,686331993,vectornav,493226.399652,20,2,28,17,0,8,399,2094,3,16,30.6730853,-96.3728906,86.509,0.0250000003725,-0.0010000000475,-0.035000000149,1.76913690567,1.92869102955,5.93221521378,0.168000012636,2.99999980413e-09
2020/02/28/11:00:08.706391,11443,1582909208,706311941,vectornav,493226.399652,20,2,28,17,0,8,399,2094,3,16,30.6730853,-96.3728906,86.509,0.0250000003725,-0.0010000000475,-0.035000000149,1.76913690567,1.92869102955,5.93221521378,0.168000012636,2.99999980413e-09
2020/02/28/11:00:08.726417,11444,1582909208,726307845,vectornav,493226.399652,20,2,28,17,0,8,399,2094,3,16,30.6730853,-96.3728906,86.509,0.0250000003725,-0.0010000000475,-0.035000000149,1.76913690567,1.92869102955,5.93221521378,0.168000012636,2.99999980413e-09
2020/02/28/11:00:08.746423,11445,1582909208,746304081,vectornav,493226.399652,20,2,28,17,0,8,399,2094,3,16,30.6730853,-96.3728906,86.509,0.0250000003725,-0.0010000000475,-0.035000000149,1.76913690567,1.92869102955,5.93221521378,0.168000012636,2.99999980413e-09
2020/02/28/11:00:08.766379,11446,1582909208,766284822,vectornav,493226.599652,20,2,28,17,0,8,599,2094,3,16,30.6730854,-96.3728905,86.556,0.0250000003725,-0.0140000004321,-0.0250000003725,1.77218413353,1.92874217033,5.93794822693,0.160000011325,2.99999980413e-09
2020/02/28/11:00:08.786458,11447,1582909208,786266032,vectornav,493226.599652,20,2,28,17,0,8,599,2094,3,16,30.6730854,-96.3728905,86.556,0.0250000003725,-0.0140000004321,-0.0250000003725,1.77218413353,1.92874217033,5.93794822693,0.160000011325,2.99999980413e-09
2020/02/28/11:00:08.806392,11448,1582909208,806274601,vectornav,493226.599652,20,2,28,17,0,8,599,2094,3,16,30.6730854,-96.3728905,86.556,0.0250000003725,-0.0140000004321,-0.0250000003725,1.77218413353,1.92874217033,5.93794822693,0.160000011325,2.99999980413e-09
2020/02/28/11:00:08.826454,11449,1582909208,826305670,vectornav,493226.599652,20,2,28,17,0,8,599,2094,3,16,30.6730854,-96.3728905,86.556,0.0250000003725,-0.0140000004321,-0.0250000003725,1.77218413353,1.92874217033,5.93794822693,0.160000011325,2.99999980413e-09
2020/02/28/11:00:08.846471,11450,1582909208,846329943,vectornav,493226.599652,20,2,28,17,0,8,599,2094,3,16,30.6730854,-96.3728905,86.556,0.0250000003725,-0.0140000004321,-0.0250000003725,1.77218413353,1.92874217033,5.93794822693,0.160000011325,2.99999980413e-09
2020/02/28/11:00:08.866389,11451,1582909208,866298152,vectornav,493226.599652,20,2,28,17,0,8,599,2094,3,16,30.6730854,-96.3728905,86.556,0.0250000003725,-0.0140000004321,-0.0250000003725,1.77218413353,1.92874217033,5.93794822693,0.160000011325,2.99999980413e-09
2020/02/28/11:00:08.886364,11452,1582909208,886247864,vectornav,493226.599652,20,2,28,17,0,8,599,2094,3,16,30.6730854,-96.3728905,86.556,0.0250000003725,-0.0140000004321,-0.0250000003725,1.77218413353,1.92874217033,5.93794822693,0.160000011325,2.99999980413e-09
2020/02/28/11:00:08.906361,11453,1582909208,906284995,vectornav,493226.599652,20,2,28,17,0,8,599,2094,3,16,30.6730854,-96.3728905,86.556,0.0250000003725,-0.0140000004321,-0.0250000003725,1.77218413353,1.92874217033,5.93794822693,0.160000011325,2.99999980413e-09
2020/02/28/11:00:08.926405,11454,1582909208,926287010,vectornav,493226.599652,20,2,28,17,0,8,599,2094,3,16,30.6730854,-96.3728905,86.556,0.0250000003725,-0.0140000004321,-0.0250000003725,1.77218413353,1.92874217033,5.93794822693,0.160000011325,2.99999980413e-09
2020/02/28/11:00:08.946378,11455,1582909208,946279242,vectornav,493226.599652,20,2,28,17,0,8,599,2094,3,16,30.6730854,-96.3728905,86.556,0.0250000003725,-0.0140000004321,-0.0250000003725,1.77218413353,1.92874217033,5.93794822693,0.160000011325,2.99999980413e-09
2020/02/28/11:00:08.966412,11456,1582909208,966294570,vectornav,493226.799652,20,2,28,17,0,8,799,2094,3,16,30.6730854,-96.3728904,86.6,0.00499999988824,-0.00899999961257,-0.00999999977648,1.77561855316,1.92910766602,5.94374847412,0.168800011277,2.99999980413e-09
2020/02/28/11:00:08.986416,11457,1582909208,986284929,vectornav,493226.799652,20,2,28,17,0,8,799,2094,3,16,30.6730854,-96.3728904,86.6,0.00499999988824,-0.00899999961257,-0.00999999977648,1.77561855316,1.92910766602,5.94374847412,0.168800011277,2.99999980413e-09
2020/02/28/11:00:09.006348,11458,1582909209,6255906,vectornav,493226.799652,20,2,28,17,0,8,799,2094,3,16,30.6730854,-96.3728904,86.6,0.00499999988824,-0.00899999961257,-0.00999999977648,1.77561855316,1.92910766602,5.94374847412,0.168800011277,2.99999980413e-09
2020/02/28/11:00:09.026375,11459,1582909209,26254821,vectornav,493226.799652,20,2,28,17,0,8,799,2094,3,16,30.6730854,-96.3728904,86.6,0.00499999988824,-0.00899999961257,-0.00999999977648,1.77561855316,1.92910766602,5.94374847412,0.168800011277,2.99999980413e-09
2020/02/28/11:00:09.046355,11460,1582909209,46212764,vectornav,493226.799652,20,2,28,17,0,8,799,2094,3,16,30.6730854,-96.3728904,86.6,0.00499999988824,-0.00899999961257,-0.00999999977648,1.77561855316,1.92910766602,5.94374847412,0.168800011277,2.99999980413e-09
2020/02/28/11:00:09.066306,11461,1582909209,66237722,vectornav,493226.799652,20,2,28,17,0,8,799,2094,3,16,30.6730854,-96.3728904,86.6,0.00499999988824,-0.00899999961257,-0.00999999977648,1.77561855316,1.92910766602,5.94374847412,0.168800011277,2.99999980413e-09
2020/02/28/11:00:09.086458,11462,1582909209,86278332,vectornav,493226.799652,20,2,28,17,0,8,799,2094,3,16,30.6730854,-96.3728904,86.6,0.00499999988824,-0.00899999961257,-0.00999999977648,1.77561855316,1.92910766602,5.94374847412,0.168800011277,2.99999980413e-09
2020/02/28/11:00:09.106349,11463,1582909209,106246137,vectornav,493226.799652,20,2,28,17,0,8,799,2094,3,16,30.6730854,-96.3728904,86.6,0.00499999988824,-0.00899999961257,-0.00999999977648,1.77561855316,1.92910766602,5.94374847412,0.168800011277,2.99999980413e-09
2020/02/28/11:00:09.126402,11464,1582909209,126249017,vectornav,493226.799652,20,2,28,17,0,8,799,2094,3,16,30.6730854,-96.3728904,86.6,0.00499999988824,-0.00899999961257,-0.00999999977648,1.77561855316,1.92910766602,5.94374847412,0.168800011277,2.99999980413e-09
2020/02/28/11:00:09.146348,11465,1582909209,146252866,vectornav,493226.799652,20,2,28,17,0,8,799,2094,3,16,30.6730854,-96.3728904,86.6,0.00499999988824,-0.00899999961257,-0.00999999977648,1.77561855316,1.92910766602,5.94374847412,0.168800011277,2.99999980413e-09
2020/02/28/11:00:09.166275,11466,1582909209,166203391,vectornav,493226.799652,20,2,28,17,0,8,799,2094,3,16,30.6730854,-96.3728904,86.6,0.00499999988824,-0.00899999961257,-0.00999999977648,1.77561855316,1.92910766602,5.94374847412,0.168800011277,2.99999980413e-09
2020/02/28/11:00:09.186325,11467,1582909209,186208128,vectornav,493226.999652,20,2,28,17,0,9,0,2094,3,16,30.6730855,-96.3728903,86.663,0.0250000003725,-0.0010000000475,0.00800000037998,1.77818441391,1.92855978012,5.94044113159,0.140000015497,2.99999980413e-09
2020/02/28/11:00:09.206273,11468,1582909209,206177485,vectornav,493226.999652,20,2,28,17,0,9,0,2094,3,16,30.6730855,-96.3728903,86.663,0.0250000003725,-0.0010000000475,0.00800000037998,1.77818441391,1.92855978012,5.94044113159,0.140000015497,2.99999980413e-09
2020/02/28/11:00:09.226277,11469,1582909209,226168579,vectornav,493226.999652,20,2,28,17,0,9,0,2094,3,16,30.6730855,-96.3728903,86.663,0.0250000003725,-0.0010000000475,0.00800000037998,1.77818441391,1.92855978012,5.94044113159,0.140000015497,2.99999980413e-09
2020/02/28/11:00:09.246334,11470,1582909209,246168656,vectornav,493226.999652,20,2,28,17,0,9,0,2094,3,16,30.6730855,-96.3728903,86.663,0.0250000003725,-0.0010000000475,0.00800000037998,1.77818441391,1.92855978012,5.94044113159,0.140000015497,2.99999980413e-09
2020/02/28/11:00:09.266283,11471,1582909209,266172270,vectornav,493226.999652,20,2,28,17,0,9,0,2094,3,16,30.6730855,-96.3728903,86.663,0.0250000003725,-0.0010000000475,0.00800000037998,1.77818441391,1.92855978012,5.94044113159,0.140000015497,2.99999980413e-09
2020/02/28/11:00:09.286337,11472,1582909209,286212913,vectornav,493226.999652,20,2,28,17,0,9,0,2094,3,16,30.6730855,-96.3728903,86.663,0.0250000003725,-0.0010000000475,0.00800000037998,1.77818441391,1.92855978012,5.94044113159,0.140000015497,2.99999980413e-09
2020/02/28/11:00:09.306325,11473,1582909209,306165294,vectornav,493226.999652,20,2,28,17,0,9,0,2094,3,16,30.6730855,-96.3728903,86.663,0.0250000003725,-0.0010000000475,0.00800000037998,1.77818441391,1.92855978012,5.94044113159,0.140000015497,2.99999980413e-09
2020/02/28/11:00:09.326326,11474,1582909209,326185436,vectornav,493226.999652,20,2,28,17,0,9,0,2094,3,16,30.6730855,-96.3728903,86.663,0.0250000003725,-0.0010000000475,0.00800000037998,1.77818441391,1.92855978012,5.94044113159,0.140000015497,2.99999980413e-09
2020/02/28/11:00:09.346410,11475,1582909209,346208217,vectornav,493226.999652,20,2,28,17,0,9,0,2094,3,16,30.6730855,-96.3728903,86.663,0.0250000003725,-0.0010000000475,0.00800000037998,1.77818441391,1.92855978012,5.94044113159,0.140000015497,2.99999980413e-09
2020/02/28/11:00:09.366211,11476,1582909209,366150153,vectornav,493227.199652,20,2,28,17,0,9,199,2094,3,16,30.6730856,-96.3728902,86.727,0.0250000003725,0.00499999988824,0.035000000149,1.78064739704,1.92752742767,5.93761014938,0.180000007153,2.99999980413e-09
2020/02/28/11:00:09.386274,11477,1582909209,386149050,vectornav,493227.199652,20,2,28,17,0,9,199,2094,3,16,30.6730856,-96.3728902,86.727,0.0250000003725,0.00499999988824,0.035000000149,1.78064739704,1.92752742767,5.93761014938,0.180000007153,2.99999980413e-09
2020/02/28/11:00:09.406238,11478,1582909209,406102156,vectornav,493227.199652,20,2,28,17,0,9,199,2094,3,16,30.6730856,-96.3728902,86.727,0.0250000003725,0.00499999988824,0.035000000149,1.78064739704,1.92752742767,5.93761014938,0.180000007153,2.99999980413e-09
2020/02/28/11:00:09.426292,11479,1582909209,426160031,vectornav,493227.199652,20,2,28,17,0,9,199,2094,3,16,30.6730856,-96.3728902,86.727,0.0250000003725,0.00499999988824,0.035000000149,1.78064739704,1.92752742767,5.93761014938,0.180000007153,2.99999980413e-09
2020/02/28/11:00:09.446238,11480,1582909209,446115028,vectornav,493227.199652,20,2,28,17,0,9,199,2094,3,16,30.6730856,-96.3728902,86.727,0.0250000003725,0.00499999988824,0.035000000149,1.78064739704,1.92752742767,5.93761014938,0.180000007153,2.99999980413e-09
2020/02/28/11:00:09.466166,11481,1582909209,466082199,vectornav,493227.199652,20,2,28,17,0,9,199,2094,3,16,30.6730856,-96.3728902,86.727,0.0250000003725,0.00499999988824,0.035000000149,1.78064739704,1.92752742767,5.93761014938,0.180000007153,2.99999980413e-09
2020/02/28/11:00:09.486337,11482,1582909209,486143629,vectornav,493227.199652,20,2,28,17,0,9,199,2094,3,16,30.6730856,-96.3728902,86.727,0.0250000003725,0.00499999988824,0.035000000149,1.78064739704,1.92752742767,5.93761014938,0.180000007153,2.99999980413e-09
2020/02/28/11:00:09.506193,11483,1582909209,506099336,vectornav,493227.199652,20,2,28,17,0,9,199,2094,3,16,30.6730856,-96.3728902,86.727,0.0250000003725,0.00499999988824,0.035000000149,1.78064739704,1.92752742767,5.93761014938,0.180000007153,2.99999980413e-09
2020/02/28/11:00:09.526330,11484,1582909209,526178015,vectornav,493227.199652,20,2,28,17,0,9,199,2094,3,16,30.6730856,-96.3728902,86.727,0.0250000003725,0.00499999988824,0.035000000149,1.78064739704,1.92752742767,5.93761014938,0.180000007153,2.99999980413e-09
2020/02/28/11:00:09.546199,11485,1582909209,546091909,vectornav,493227.199652,20,2,28,17,0,9,199,2094,3,16,30.6730856,-96.3728902,86.727,0.0250000003725,0.00499999988824,0.035000000149,1.78064739704,1.92752742767,5.93761014938,0.180000007153,2.99999980413e-09
2020/02/28/11:00:09.566238,11486,1582909209,566118149,vectornav,493227.399652,20,2,28,17,0,9,399,2094,3,16,30.6730857,-96.3728902,86.793,0.0280000008643,-0.0010000000475,0.0219999998808,1.78346848488,1.92708897591,5.93528556824,0.166400000453,2.99999980413e-09
2020/02/28/11:00:09.586207,11487,1582909209,586093868,vectornav,493227.399652,20,2,28,17,0,9,399,2094,3,16,30.6730857,-96.3728902,86.793,0.0280000008643,-0.0010000000475,0.0219999998808,1.78346848488,1.92708897591,5.93528556824,0.166400000453,2.99999980413e-09
2020/02/28/11:00:09.606197,11488,1582909209,606089434,vectornav,493227.399652,20,2,28,17,0,9,399,2094,3,16,30.6730857,-96.3728902,86.793,0.0280000008643,-0.0010000000475,0.0219999998808,1.78346848488,1.92708897591,5.93528556824,0.166400000453,2.99999980413e-09
2020/02/28/11:00:09.626232,11489,1582909209,626102671,vectornav,493227.399652,20,2,28,17,0,9,399,2094,3,16,30.6730857,-96.3728902,86.793,0.0280000008643,-0.0010000000475,0.0219999998808,1.78346848488,1.92708897591,5.93528556824,0.166400000453,2.99999980413e-09
2020/02/28/11:00:09.646226,11490,1582909209,646084648,vectornav,493227.399652,20,2,28,17,0,9,399,2094,3,16,30.6730857,-96.3728902,86.793,0.0280000008643,-0.0010000000475,0.0219999998808,1.78346848488,1.92708897591,5.93528556824,0.166400000453,2.99999980413e-09
2020/02/28/11:00:09.666179,11491,1582909209,666096012,vectornav,493227.399652,20,2,28,17,0,9,399,2094,3,16,30.6730857,-96.3728902,86.793,0.0280000008643,-0.0010000000475,0.0219999998808,1.78346848488,1.92708897591,5.93528556824,0.166400000453,2.99999980413e-09
2020/02/28/11:00:09.686192,11492,1582909209,686077529,vectornav,493227.399652,20,2,28,17,0,9,399,2094,3,16,30.6730857,-96.3728902,86.793,0.0280000008643,-0.0010000000475,0.0219999998808,1.78346848488,1.92708897591,5.93528556824,0.166400000453,2.99999980413e-09
2020/02/28/11:00:09.706135,11493,1582909209,706058258,vectornav,493227.399652,20,2,28,17,0,9,399,2094,3,16,30.6730857,-96.3728902,86.793,0.0280000008643,-0.0010000000475,0.0219999998808,1.78346848488,1.92708897591,5.93528556824,0.166400000453,2.99999980413e-09
2020/02/28/11:00:09.726128,11494,1582909209,726033075,vectornav,493227.399652,20,2,28,17,0,9,399,2094,3,16,30.6730857,-96.3728902,86.793,0.0280000008643,-0.0010000000475,0.0219999998808,1.78346848488,1.92708897591,5.93528556824,0.166400000453,2.99999980413e-09
2020/02/28/11:00:09.746174,11495,1582909209,746045315,vectornav,493227.399652,20,2,28,17,0,9,399,2094,3,16,30.6730857,-96.3728902,86.793,0.0280000008643,-0.0010000000475,0.0219999998808,1.78346848488,1.92708897591,5.93528556824,0.166400000453,2.99999980413e-09
2020/02/28/11:00:09.766157,11496,1582909209,766086173,vectornav,493227.599652,20,2,28,17,0,9,599,2094,3,16,30.6730857,-96.3728901,86.846,0.0230000000447,-0.00300000002608,0.0729999989271,1.78658246994,1.92697429657,5.93348360062,0.196000009775,2.99999980413e-09
2020/02/28/11:00:09.786189,11497,1582909209,786063076,vectornav,493227.599652,20,2,28,17,0,9,599,2094,3,16,30.6730857,-96.3728901,86.846,0.0230000000447,-0.00300000002608,0.0729999989271,1.78658246994,1.92697429657,5.93348360062,0.196000009775,2.99999980413e-09
2020/02/28/11:00:09.806119,11498,1582909209,806037312,vectornav,493227.599652,20,2,28,17,0,9,599,2094,3,16,30.6730857,-96.3728901,86.846,0.0230000000447,-0.00300000002608,0.0729999989271,1.78658246994,1.92697429657,5.93348360062,0.196000009775,2.99999980413e-09
2020/02/28/11:00:09.826133,11499,1582909209,826045798,vectornav,493227.599652,20,2,28,17,0,9,599,2094,3,16,30.6730857,-96.3728901,86.846,0.0230000000447,-0.00300000002608,0.0729999989271,1.78658246994,1.92697429657,5.93348360062,0.196000009775,2.99999980413e-09
2020/02/28/11:00:09.846150,11500,1582909209,846033619,vectornav,493227.599652,20,2,28,17,0,9,599,2094,3,16,30.6730857,-96.3728901,86.846,0.0230000000447,-0.00300000002608,0.0729999989271,1.78658246994,1.92697429657,5.93348360062,0.196000009775,2.99999980413e-09
2020/02/28/11:00:09.866087,11501,1582909209,866023025,vectornav,493227.599652,20,2,28,17,0,9,599,2094,3,16,30.6730857,-96.3728901,86.846,0.0230000000447,-0.00300000002608,0.0729999989271,1.78658246994,1.92697429657,5.93348360062,0.196000009775,2.99999980413e-09
2020/02/28/11:00:09.886185,11502,1582909209,886043996,vectornav,493227.599652,20,2,28,17,0,9,599,2094,3,16,30.6730857,-96.3728901,86.846,0.0230000000447,-0.00300000002608,0.0729999989271,1.78658246994,1.92697429657,5.93348360062,0.196000009775,2.99999980413e-09
2020/02/28/11:00:09.906093,11503,1582909209,906008974,vectornav,493227.599652,20,2,28,17,0,9,599,2094,3,16,30.6730857,-96.3728901,86.846,0.0230000000447,-0.00300000002608,0.0729999989271,1.78658246994,1.92697429657,5.93348360062,0.196000009775,2.99999980413e-09
2020/02/28/11:00:09.926145,11504,1582909209,925987582,vectornav,493227.599652,20,2,28,17,0,9,599,2094,3,16,30.6730857,-96.3728901,86.846,0.0230000000447,-0.00300000002608,0.0729999989271,1.78658246994,1.92697429657,5.93348360062,0.196000009775,2.99999980413e-09
2020/02/28/11:00:09.947175,11505,1582909209,947016614,vectornav,493227.599652,20,2,28,17,0,9,599,2094,3,16,30.6730857,-96.3728901,86.846,0.0230000000447,-0.00300000002608,0.0729999989271,1.78658246994,1.92697429657,5.93348360062,0.196000009775,2.99999980413e-09
2020/02/28/11:00:09.966078,11506,1582909209,966011742,vectornav,493227.799652,20,2,28,17,0,9,799,2094,3,16,30.6730858,-96.3728901,86.896,-0.0209999997169,0.0230000000447,0.00800000037998,1.78954601288,1.92696833611,5.9311132431,0.148800000548,2.99999980413e-09
2020/02/28/11:00:09.986180,11507,1582909209,986045089,vectornav,493227.799652,20,2,28,17,0,9,799,2094,3,16,30.6730858,-96.3728901,86.896,-0.0209999997169,0.0230000000447,0.00800000037998,1.78954601288,1.92696833611,5.9311132431,0.148800000548,2.99999980413e-09
2020/02/28/11:00:10.006189,11508,1582909210,6044771,vectornav,493227.799652,20,2,28,17,0,9,799,2094,3,16,30.6730858,-96.3728901,86.896,-0.0209999997169,0.0230000000447,0.00800000037998,1.78954601288,1.92696833611,5.9311132431,0.148800000548,2.99999980413e-09
2020/02/28/11:00:10.026214,11509,1582909210,26039954,vectornav,493227.799652,20,2,28,17,0,9,799,2094,3,16,30.6730858,-96.3728901,86.896,-0.0209999997169,0.0230000000447,0.00800000037998,1.78954601288,1.92696833611,5.9311132431,0.148800000548,2.99999980413e-09
2020/02/28/11:00:10.046180,11510,1582909210,46052011,vectornav,493227.799652,20,2,28,17,0,9,799,2094,3,16,30.6730858,-96.3728901,86.896,-0.0209999997169,0.0230000000447,0.00800000037998,1.78954601288,1.92696833611,5.9311132431,0.148800000548,2.99999980413e-09
2020/02/28/11:00:10.066043,11511,1582909210,65952976,vectornav,493227.799652,20,2,28,17,0,9,799,2094,3,16,30.6730858,-96.3728901,86.896,-0.0209999997169,0.0230000000447,0.00800000037998,1.78954601288,1.92696833611,5.9311132431,0.148800000548,2.99999980413e-09
2020/02/28/11:00:10.087188,11512,1582909210,87041688,vectornav,493227.799652,20,2,28,17,0,9,799,2094,3,16,30.6730858,-96.3728901,86.896,-0.0209999997169,0.0230000000447,0.00800000037998,1.78954601288,1.92696833611,5.9311132431,0.148800000548,2.99999980413e-09
2020/02/28/11:00:10.106066,11513,1582909210,105995012,vectornav,493227.799652,20,2,28,17,0,9,799,2094,3,16,30.6730858,-96.3728901,86.896,-0.0209999997169,0.0230000000447,0.00800000037998,1.78954601288,1.92696833611,5.9311132431,0.148800000548,2.99999980413e-09
2020/02/28/11:00:10.127152,11514,1582909210,126992237,vectornav,493227.799652,20,2,28,17,0,9,799,2094,3,16,30.6730858,-96.3728901,86.896,-0.0209999997169,0.0230000000447,0.00800000037998,1.78954601288,1.92696833611,5.9311132431,0.148800000548,2.99999980413e-09
2020/02/28/11:00:10.147075,11515,1582909210,146954170,vectornav,493227.799652,20,2,28,17,0,9,799,2094,3,16,30.6730858,-96.3728901,86.896,-0.0209999997169,0.0230000000447,0.00800000037998,1.78954601288,1.92696833611,5.9311132431,0.148800000548,2.99999980413e-09
2020/02/28/11:00:10.167030,11516,1582909210,166963836,vectornav,493227.799652,20,2,28,17,0,9,799,2094,3,16,30.6730858,-96.3728901,86.896,-0.0209999997169,0.0230000000447,0.00800000037998,1.78954601288,1.92696833611,5.9311132431,0.148800000548,2.99999980413e-09
2020/02/28/11:00:10.187181,11517,1582909210,186993793,vectornav,493227.999651,20,2,28,17,0,10,0,2094,3,16,30.6730858,-96.3728901,86.973,0.0140000004321,-0.01600000076,-0.0140000004321,1.79249501228,1.92702126503,5.92890357971,0.152800008655,2.99999980413e-09
2020/02/28/11:00:10.207111,11518,1582909210,206946694,vectornav,493227.999651,20,2,28,17,0,10,0,2094,3,16,30.6730858,-96.3728901,86.973,0.0140000004321,-0.01600000076,-0.0140000004321,1.79249501228,1.92702126503,5.92890357971,0.152800008655,2.99999980413e-09
2020/02/28/11:00:10.227086,11519,1582909210,226946385,vectornav,493227.999651,20,2,28,17,0,10,0,2094,3,16,30.6730858,-96.3728901,86.973,0.0140000004321,-0.01600000076,-0.0140000004321,1.79249501228,1.92702126503,5.92890357971,0.152800008655,2.99999980413e-09
2020/02/28/11:00:10.247035,11520,1582909210,246910432,vectornav,493227.999651,20,2,28,17,0,10,0,2094,3,16,30.6730858,-96.3728901,86.973,0.0140000004321,-0.01600000076,-0.0140000004321,1.79249501228,1.92702126503,5.92890357971,0.152800008655,2.99999980413e-09
2020/02/28/11:00:10.267030,11521,1582909210,266924758,vectornav,493227.999651,20,2,28,17,0,10,0,2094,3,16,30.6730858,-96.3728901,86.973,0.0140000004321,-0.01600000076,-0.0140000004321,1.79249501228,1.92702126503,5.92890357971,0.152800008655,2.99999980413e-09
2020/02/28/11:00:10.287018,11522,1582909210,286926547,vectornav,493227.999651,20,2,28,17,0,10,0,2094,3,16,30.6730858,-96.3728901,86.973,0.0140000004321,-0.01600000076,-0.0140000004321,1.79249501228,1.92702126503,5.92890357971,0.152800008655,2.99999980413e-09
2020/02/28/11:00:10.306995,11523,1582909210,306934215,vectornav,493227.999651,20,2,28,17,0,10,0,2094,3,16,30.6730858,-96.3728901,86.973,0.0140000004321,-0.01600000076,-0.0140000004321,1.79249501228,1.92702126503,5.92890357971,0.152800008655,2.99999980413e-09
2020/02/28/11:00:10.327061,11524,1582909210,326896162,vectornav,493227.999651,20,2,28,17,0,10,0,2094,3,16,30.6730858,-96.3728901,86.973,0.0140000004321,-0.01600000076,-0.0140000004321,1.79249501228,1.92702126503,5.92890357971,0.152800008655,2.99999980413e-09
2020/02/28/11:00:10.347084,11525,1582909210,346928443,vectornav,493227.999651,20,2,28,17,0,10,0,2094,3,16,30.6730858,-96.3728901,86.973,0.0140000004321,-0.01600000076,-0.0140000004321,1.79249501228,1.92702126503,5.92890357971,0.152800008655,2.99999980413e-09
2020/02/28/11:00:10.367035,11526,1582909210,366959935,vectornav,493228.199651,20,2,28,17,0,10,199,2094,3,16,30.6730859,-96.3728901,87.031,0.00400000018999,-0.0120000001043,0.0250000003725,1.79510915279,1.92693722248,5.92643928528,0.196800008416,2.99999980413e-09
2020/02/28/11:00:10.387019,11527,1582909210,386949561,vectornav,493228.199651,20,2,28,17,0,10,199,2094,3,16,30.6730859,-96.3728901,87.031,0.00400000018999,-0.0120000001043,0.0250000003725,1.79510915279,1.92693722248,5.92643928528,0.196800008416,2.99999980413e-09
2020/02/28/11:00:10.406997,11528,1582909210,406934708,vectornav,493228.199651,20,2,28,17,0,10,199,2094,3,16,30.6730859,-96.3728901,87.031,0.00400000018999,-0.0120000001043,0.0250000003725,1.79510915279,1.92693722248,5.92643928528,0.196800008416,2.99999980413e-09
2020/02/28/11:00:10.427096,11529,1582909210,426957800,vectornav,493228.199651,20,2,28,17,0,10,199,2094,3,16,30.6730859,-96.3728901,87.031,0.00400000018999,-0.0120000001043,0.0250000003725,1.79510915279,1.92693722248,5.92643928528,0.196800008416,2.99999980413e-09
2020/02/28/11:00:10.446979,11530,1582909210,446839557,vectornav,493228.199651,20,2,28,17,0,10,199,2094,3,16,30.6730859,-96.3728901,87.031,0.00400000018999,-0.0120000001043,0.0250000003725,1.79510915279,1.92693722248,5.92643928528,0.196800008416,2.99999980413e-09
2020/02/28/11:00:10.466935,11531,1582909210,466840067,vectornav,493228.199651,20,2,28,17,0,10,199,2094,3,16,30.6730859,-96.3728901,87.031,0.00400000018999,-0.0120000001043,0.0250000003725,1.79510915279,1.92693722248,5.92643928528,0.196800008416,2.99999980413e-09
2020/02/28/11:00:10.486953,11532,1582909210,486838078,vectornav,493228.199651,20,2,28,17,0,10,199,2094,3,16,30.6730859,-96.3728901,87.031,0.00400000018999,-0.0120000001043,0.0250000003725,1.79510915279,1.92693722248,5.92643928528,0.196800008416,2.99999980413e-09
2020/02/28/11:00:10.506908,11533,1582909210,506837623,vectornav,493228.199651,20,2,28,17,0,10,199,2094,3,16,30.6730859,-96.3728901,87.031,0.00400000018999,-0.0120000001043,0.0250000003725,1.79510915279,1.92693722248,5.92643928528,0.196800008416,2.99999980413e-09
2020/02/28/11:00:10.526966,11534,1582909210,526844901,vectornav,493228.199651,20,2,28,17,0,10,199,2094,3,16,30.6730859,-96.3728901,87.031,0.00400000018999,-0.0120000001043,0.0250000003725,1.79510915279,1.92693722248,5.92643928528,0.196800008416,2.99999980413e-09
2020/02/28/11:00:10.546991,11535,1582909210,546872826,vectornav,493228.199651,20,2,28,17,0,10,199,2094,3,16,30.6730859,-96.3728901,87.031,0.00400000018999,-0.0120000001043,0.0250000003725,1.79510915279,1.92693722248,5.92643928528,0.196800008416,2.99999980413e-09
2020/02/28/11:00:10.566948,11536,1582909210,566845089,vectornav,493228.399651,20,2,28,17,0,10,399,2094,3,16,30.6730859,-96.37289,87.091,0.0130000002682,0.00999999977648,0.0289999991655,1.7978143692,1.92695081234,5.92507457733,0.178400009871,2.99999980413e-09
2020/02/28/11:00:10.586964,11537,1582909210,586857330,vectornav,493228.399651,20,2,28,17,0,10,399,2094,3,16,30.6730859,-96.37289,87.091,0.0130000002682,0.00999999977648,0.0289999991655,1.7978143692,1.92695081234,5.92507457733,0.178400009871,2.99999980413e-09
2020/02/28/11:00:10.606887,11538,1582909210,606822641,vectornav,493228.399651,20,2,28,17,0,10,399,2094,3,16,30.6730859,-96.37289,87.091,0.0130000002682,0.00999999977648,0.0289999991655,1.7978143692,1.92695081234,5.92507457733,0.178400009871,2.99999980413e-09
2020/02/28/11:00:10.626981,11539,1582909210,626830108,vectornav,493228.399651,20,2,28,17,0,10,399,2094,3,16,30.6730859,-96.37289,87.091,0.0130000002682,0.00999999977648,0.0289999991655,1.7978143692,1.92695081234,5.92507457733,0.178400009871,2.99999980413e-09
2020/02/28/11:00:10.646879,11540,1582909210,646776115,vectornav,493228.399651,20,2,28,17,0,10,399,2094,3,16,30.6730859,-96.37289,87.091,0.0130000002682,0.00999999977648,0.0289999991655,1.7978143692,1.92695081234,5.92507457733,0.178400009871,2.99999980413e-09
2020/02/28/11:00:10.666959,11541,1582909210,666833907,vectornav,493228.399651,20,2,28,17,0,10,399,2094,3,16,30.6730859,-96.37289,87.091,0.0130000002682,0.00999999977648,0.0289999991655,1.7978143692,1.92695081234,5.92507457733,0.178400009871,2.99999980413e-09
2020/02/28/11:00:10.686905,11542,1582909210,686810634,vectornav,493228.399651,20,2,28,17,0,10,399,2094,3,16,30.6730859,-96.37289,87.091,0.0130000002682,0.00999999977648,0.0289999991655,1.7978143692,1.92695081234,5.92507457733,0.178400009871,2.99999980413e-09
2020/02/28/11:00:10.706938,11543,1582909210,706816409,vectornav,493228.399651,20,2,28,17,0,10,399,2094,3,16,30.6730859,-96.37289,87.091,0.0130000002682,0.00999999977648,0.0289999991655,1.7978143692,1.92695081234,5.92507457733,0.178400009871,2.99999980413e-09
2020/02/28/11:00:10.726886,11544,1582909210,726787777,vectornav,493228.399651,20,2,28,17,0,10,399,2094,3,16,30.6730859,-96.37289,87.091,0.0130000002682,0.00999999977648,0.0289999991655,1.7978143692,1.92695081234,5.92507457733,0.178400009871,2.99999980413e-09
2020/02/28/11:00:10.746909,11545,1582909210,746764485,vectornav,493228.399651,20,2,28,17,0,10,399,2094,3,16,30.6730859,-96.37289,87.091,0.0130000002682,0.00999999977648,0.0289999991655,1.7978143692,1.92695081234,5.92507457733,0.178400009871,2.99999980413e-09
2020/02/28/11:00:10.766843,11546,1582909210,766767274,vectornav,493228.599651,20,2,28,17,0,10,599,2094,3,16,30.6730859,-96.3728899,87.16,0.00600000005215,-0.0010000000475,0.019999999553,1.80011892319,1.92643797398,5.92353248596,0.191200003028,2.99999980413e-09
2020/02/28/11:00:10.786861,11547,1582909210,786744620,vectornav,493228.599651,20,2,28,17,0,10,599,2094,3,16,30.6730859,-96.3728899,87.16,0.00600000005215,-0.0010000000475,0.019999999553,1.80011892319,1.92643797398,5.92353248596,0.191200003028,2.99999980413e-09
2020/02/28/11:00:10.806883,11548,1582909210,806814851,vectornav,493228.599651,20,2,28,17,0,10,599,2094,3,16,30.6730859,-96.3728899,87.16,0.00600000005215,-0.0010000000475,0.019999999553,1.80011892319,1.92643797398,5.92353248596,0.191200003028,2.99999980413e-09
2020/02/28/11:00:10.826858,11549,1582909210,826732018,vectornav,493228.599651,20,2,28,17,0,10,599,2094,3,16,30.6730859,-96.3728899,87.16,0.00600000005215,-0.0010000000475,0.019999999553,1.80011892319,1.92643797398,5.92353248596,0.191200003028,2.99999980413e-09
2020/02/28/11:00:10.846928,11550,1582909210,846825814,vectornav,493228.599651,20,2,28,17,0,10,599,2094,3,16,30.6730859,-96.3728899,87.16,0.00600000005215,-0.0010000000475,0.019999999553,1.80011892319,1.92643797398,5.92353248596,0.191200003028,2.99999980413e-09
2020/02/28/11:00:10.866817,11551,1582909210,866749151,vectornav,493228.599651,20,2,28,17,0,10,599,2094,3,16,30.6730859,-96.3728899,87.16,0.00600000005215,-0.0010000000475,0.019999999553,1.80011892319,1.92643797398,5.92353248596,0.191200003028,2.99999980413e-09
2020/02/28/11:00:10.886883,11552,1582909210,886757663,vectornav,493228.599651,20,2,28,17,0,10,599,2094,3,16,30.6730859,-96.3728899,87.16,0.00600000005215,-0.0010000000475,0.019999999553,1.80011892319,1.92643797398,5.92353248596,0.191200003028,2.99999980413e-09
2020/02/28/11:00:10.906817,11553,1582909210,906725562,vectornav,493228.599651,20,2,28,17,0,10,599,2094,3,16,30.6730859,-96.3728899,87.16,0.00600000005215,-0.0010000000475,0.019999999553,1.80011892319,1.92643797398,5.92353248596,0.191200003028,2.99999980413e-09
2020/02/28/11:00:10.926833,11554,1582909210,926738920,vectornav,493228.599651,20,2,28,17,0,10,599,2094,3,16,30.6730859,-96.3728899,87.16,0.00600000005215,-0.0010000000475,0.019999999553,1.80011892319,1.92643797398,5.92353248596,0.191200003028,2.99999980413e-09
2020/02/28/11:00:10.946854,11555,1582909210,946741252,vectornav,493228.599651,20,2,28,17,0,10,599,2094,3,16,30.6730859,-96.3728899,87.16,0.00600000005215,-0.0010000000475,0.019999999553,1.80011892319,1.92643797398,5.92353248596,0.191200003028,2.99999980413e-09
2020/02/28/11:00:10.966839,11556,1582909210,966739988,vectornav,493228.799651,20,2,28,17,0,10,799,2094,3,16,30.6730859,-96.3728898,87.231,0.0170000009239,-0.00899999961257,0.00700000021607,1.80297160149,1.92692780495,5.9233045578,0.163200005889,2.99999980413e-09
2020/02/28/11:00:10.986916,11557,1582909210,986793179,vectornav,493228.799651,20,2,28,17,0,10,799,2094,3,16,30.6730859,-96.3728898,87.231,0.0170000009239,-0.00899999961257,0.00700000021607,1.80297160149,1.92692780495,5.9233045578,0.163200005889,2.99999980413e-09
2020/02/28/11:00:11.006759,11558,1582909211,6688367,vectornav,493228.799651,20,2,28,17,0,10,799,2094,3,16,30.6730859,-96.3728898,87.231,0.0170000009239,-0.00899999961257,0.00700000021607,1.80297160149,1.92692780495,5.9233045578,0.163200005889,2.99999980413e-09
2020/02/28/11:00:11.026794,11559,1582909211,26692953,vectornav,493228.799651,20,2,28,17,0,10,799,2094,3,16,30.6730859,-96.3728898,87.231,0.0170000009239,-0.00899999961257,0.00700000021607,1.80297160149,1.92692780495,5.9233045578,0.163200005889,2.99999980413e-09
2020/02/28/11:00:11.046847,11560,1582909211,46727067,vectornav,493228.799651,20,2,28,17,0,10,799,2094,3,16,30.6730859,-96.3728898,87.231,0.0170000009239,-0.00899999961257,0.00700000021607,1.80297160149,1.92692780495,5.9233045578,0.163200005889,2.99999980413e-09
2020/02/28/11:00:11.066778,11561,1582909211,66681478,vectornav,493228.799651,20,2,28,17,0,10,799,2094,3,16,30.6730859,-96.3728898,87.231,0.0170000009239,-0.00899999961257,0.00700000021607,1.80297160149,1.92692780495,5.9233045578,0.163200005889,2.99999980413e-09
2020/02/28/11:00:11.086810,11562,1582909211,86697525,vectornav,493228.799651,20,2,28,17,0,10,799,2094,3,16,30.6730859,-96.3728898,87.231,0.0170000009239,-0.00899999961257,0.00700000021607,1.80297160149,1.92692780495,5.9233045578,0.163200005889,2.99999980413e-09
2020/02/28/11:00:11.106834,11563,1582909211,106734305,vectornav,493228.799651,20,2,28,17,0,10,799,2094,3,16,30.6730859,-96.3728898,87.231,0.0170000009239,-0.00899999961257,0.00700000021607,1.80297160149,1.92692780495,5.9233045578,0.163200005889,2.99999980413e-09
2020/02/28/11:00:11.126805,11564,1582909211,126704488,vectornav,493228.799651,20,2,28,17,0,10,799,2094,3,16,30.6730859,-96.3728898,87.231,0.0170000009239,-0.00899999961257,0.00700000021607,1.80297160149,1.92692780495,5.9233045578,0.163200005889,2.99999980413e-09
2020/02/28/11:00:11.146843,11565,1582909211,146682748,vectornav,493228.799651,20,2,28,17,0,10,799,2094,3,16,30.6730859,-96.3728898,87.231,0.0170000009239,-0.00899999961257,0.00700000021607,1.80297160149,1.92692780495,5.9233045578,0.163200005889,2.99999980413e-09
2020/02/28/11:00:11.166730,11566,1582909211,166628490,vectornav,493228.799651,20,2,28,17,0,10,799,2094,3,16,30.6730859,-96.3728898,87.231,0.0170000009239,-0.00899999961257,0.00700000021607,1.80297160149,1.92692780495,5.9233045578,0.163200005889,2.99999980413e-09
2020/02/28/11:00:11.186815,11567,1582909211,186665659,vectornav,493228.999651,20,2,28,17,0,11,0,2094,3,16,30.673086,-96.3728897,87.303,0.0240000002086,0.00499999988824,0.0170000009239,1.80598974228,1.92759871483,5.92467880249,0.154400005937,2.99999980413e-09
2020/02/28/11:00:11.206679,11568,1582909211,206609647,vectornav,493228.999651,20,2,28,17,0,11,0,2094,3,16,30.673086,-96.3728897,87.303,0.0240000002086,0.00499999988824,0.0170000009239,1.80598974228,1.92759871483,5.92467880249,0.154400005937,2.99999980413e-09
2020/02/28/11:00:11.226794,11569,1582909211,226636603,vectornav,493228.999651,20,2,28,17,0,11,0,2094,3,16,30.673086,-96.3728897,87.303,0.0240000002086,0.00499999988824,0.0170000009239,1.80598974228,1.92759871483,5.92467880249,0.154400005937,2.99999980413e-09
2020/02/28/11:00:11.246712,11570,1582909211,246613337,vectornav,493228.999651,20,2,28,17,0,11,0,2094,3,16,30.673086,-96.3728897,87.303,0.0240000002086,0.00499999988824,0.0170000009239,1.80598974228,1.92759871483,5.92467880249,0.154400005937,2.99999980413e-09
2020/02/28/11:00:11.266706,11571,1582909211,266611291,vectornav,493228.999651,20,2,28,17,0,11,0,2094,3,16,30.673086,-96.3728897,87.303,0.0240000002086,0.00499999988824,0.0170000009239,1.80598974228,1.92759871483,5.92467880249,0.154400005937,2.99999980413e-09
2020/02/28/11:00:11.286741,11572,1582909211,286649078,vectornav,493228.999651,20,2,28,17,0,11,0,2094,3,16,30.673086,-96.3728897,87.303,0.0240000002086,0.00499999988824,0.0170000009239,1.80598974228,1.92759871483,5.92467880249,0.154400005937,2.99999980413e-09
2020/02/28/11:00:11.306687,11573,1582909211,306621306,vectornav,493228.999651,20,2,28,17,0,11,0,2094,3,16,30.673086,-96.3728897,87.303,0.0240000002086,0.00499999988824,0.0170000009239,1.80598974228,1.92759871483,5.92467880249,0.154400005937,2.99999980413e-09
2020/02/28/11:00:11.326783,11574,1582909211,326662956,vectornav,493228.999651,20,2,28,17,0,11,0,2094,3,16,30.673086,-96.3728897,87.303,0.0240000002086,0.00499999988824,0.0170000009239,1.80598974228,1.92759871483,5.92467880249,0.154400005937,2.99999980413e-09
2020/02/28/11:00:11.346778,11575,1582909211,346653643,vectornav,493228.999651,20,2,28,17,0,11,0,2094,3,16,30.673086,-96.3728897,87.303,0.0240000002086,0.00499999988824,0.0170000009239,1.80598974228,1.92759871483,5.92467880249,0.154400005937,2.99999980413e-09
2020/02/28/11:00:11.366736,11576,1582909211,366628160,vectornav,493229.199651,20,2,28,17,0,11,199,2094,3,16,30.673086,-96.3728896,87.362,-0.0170000009239,0.00400000018999,0.00999999977648,1.80901575089,1.92833161354,5.92648410797,0.136800006032,2.99999980413e-09
2020/02/28/11:00:11.386693,11577,1582909211,386599362,vectornav,493229.199651,20,2,28,17,0,11,199,2094,3,16,30.673086,-96.3728896,87.362,-0.0170000009239,0.00400000018999,0.00999999977648,1.80901575089,1.92833161354,5.92648410797,0.136800006032,2.99999980413e-09
2020/02/28/11:00:11.406722,11578,1582909211,406645140,vectornav,493229.199651,20,2,28,17,0,11,199,2094,3,16,30.673086,-96.3728896,87.362,-0.0170000009239,0.00400000018999,0.00999999977648,1.80901575089,1.92833161354,5.92648410797,0.136800006032,2.99999980413e-09
2020/02/28/11:00:11.426678,11579,1582909211,426556455,vectornav,493229.199651,20,2,28,17,0,11,199,2094,3,16,30.673086,-96.3728896,87.362,-0.0170000009239,0.00400000018999,0.00999999977648,1.80901575089,1.92833161354,5.92648410797,0.136800006032,2.99999980413e-09
2020/02/28/11:00:11.446658,11580,1582909211,446562226,vectornav,493229.199651,20,2,28,17,0,11,199,2094,3,16,30.673086,-96.3728896,87.362,-0.0170000009239,0.00400000018999,0.00999999977648,1.80901575089,1.92833161354,5.92648410797,0.136800006032,2.99999980413e-09
2020/02/28/11:00:11.466601,11581,1582909211,466540477,vectornav,493229.199651,20,2,28,17,0,11,199,2094,3,16,30.673086,-96.3728896,87.362,-0.0170000009239,0.00400000018999,0.00999999977648,1.80901575089,1.92833161354,5.92648410797,0.136800006032,2.99999980413e-09
2020/02/28/11:00:11.486695,11582,1582909211,486536986,vectornav,493229.199651,20,2,28,17,0,11,199,2094,3,16,30.673086,-96.3728896,87.362,-0.0170000009239,0.00400000018999,0.00999999977648,1.80901575089,1.92833161354,5.92648410797,0.136800006032,2.99999980413e-09
2020/02/28/11:00:11.506633,11583,1582909211,506547385,vectornav,493229.199651,20,2,28,17,0,11,199,2094,3,16,30.673086,-96.3728896,87.362,-0.0170000009239,0.00400000018999,0.00999999977648,1.80901575089,1.92833161354,5.92648410797,0.136800006032,2.99999980413e-09
2020/02/28/11:00:11.526635,11584,1582909211,526525498,vectornav,493229.199651,20,2,28,17,0,11,199,2094,3,16,30.673086,-96.3728896,87.362,-0.0170000009239,0.00400000018999,0.00999999977648,1.80901575089,1.92833161354,5.92648410797,0.136800006032,2.99999980413e-09
2020/02/28/11:00:11.546652,11585,1582909211,546524138,vectornav,493229.199651,20,2,28,17,0,11,199,2094,3,16,30.673086,-96.3728896,87.362,-0.0170000009239,0.00400000018999,0.00999999977648,1.80901575089,1.92833161354,5.92648410797,0.136800006032,2.99999980413e-09
2020/02/28/11:00:11.566621,11586,1582909211,566495103,vectornav,493229.399651,20,2,28,17,0,11,399,2094,3,16,30.673086,-96.3728896,87.432,0.00499999988824,-0.00800000037998,-0.0579999983311,1.81165838242,1.92882943153,5.92740249634,0.187200009823,2.99999980413e-09
2020/02/28/11:00:11.586638,11587,1582909211,586498210,vectornav,493229.399651,20,2,28,17,0,11,399,2094,3,16,30.673086,-96.3728896,87.432,0.00499999988824,-0.00800000037998,-0.0579999983311,1.81165838242,1.92882943153,5.92740249634,0.187200009823,2.99999980413e-09
2020/02/28/11:00:11.606633,11588,1582909211,606530470,vectornav,493229.399651,20,2,28,17,0,11,399,2094,3,16,30.673086,-96.3728896,87.432,0.00499999988824,-0.00800000037998,-0.0579999983311,1.81165838242,1.92882943153,5.92740249634,0.187200009823,2.99999980413e-09
2020/02/28/11:00:11.626653,11589,1582909211,626509980,vectornav,493229.399651,20,2,28,17,0,11,399,2094,3,16,30.673086,-96.3728896,87.432,0.00499999988824,-0.00800000037998,-0.0579999983311,1.81165838242,1.92882943153,5.92740249634,0.187200009823,2.99999980413e-09
2020/02/28/11:00:11.646629,11590,1582909211,646504797,vectornav,493229.399651,20,2,28,17,0,11,399,2094,3,16,30.673086,-96.3728896,87.432,0.00499999988824,-0.00800000037998,-0.0579999983311,1.81165838242,1.92882943153,5.92740249634,0.187200009823,2.99999980413e-09
2020/02/28/11:00:11.666612,11591,1582909211,666519220,vectornav,493229.399651,20,2,28,17,0,11,399,2094,3,16,30.673086,-96.3728896,87.432,0.00499999988824,-0.00800000037998,-0.0579999983311,1.81165838242,1.92882943153,5.92740249634,0.187200009823,2.99999980413e-09
2020/02/28/11:00:11.686700,11592,1582909211,686540711,vectornav,493229.399651,20,2,28,17,0,11,399,2094,3,16,30.673086,-96.3728896,87.432,0.00499999988824,-0.00800000037998,-0.0579999983311,1.81165838242,1.92882943153,5.92740249634,0.187200009823,2.99999980413e-09
2020/02/28/11:00:11.706586,11593,1582909211,706512010,vectornav,493229.399651,20,2,28,17,0,11,399,2094,3,16,30.673086,-96.3728896,87.432,0.00499999988824,-0.00800000037998,-0.0579999983311,1.81165838242,1.92882943153,5.92740249634,0.187200009823,2.99999980413e-09
2020/02/28/11:00:11.726616,11594,1582909211,726513125,vectornav,493229.399651,20,2,28,17,0,11,399,2094,3,16,30.673086,-96.3728896,87.432,0.00499999988824,-0.00800000037998,-0.0579999983311,1.81165838242,1.92882943153,5.92740249634,0.187200009823,2.99999980413e-09
2020/02/28/11:00:11.746598,11595,1582909211,746518312,vectornav,493229.399651,20,2,28,17,0,11,399,2094,3,16,30.673086,-96.3728896,87.432,0.00499999988824,-0.00800000037998,-0.0579999983311,1.81165838242,1.92882943153,5.92740249634,0.187200009823,2.99999980413e-09
2020/02/28/11:00:11.766600,11596,1582909211,766499872,vectornav,493229.599651,20,2,28,17,0,11,599,2094,3,16,30.6730859,-96.3728895,87.511,-0.0170000009239,-0.019999999553,-0.097999997437,1.81417751312,1.92890775204,5.9287648201,0.189600020647,2.99999980413e-09
2020/02/28/11:00:11.786649,11597,1582909211,786494374,vectornav,493229.599651,20,2,28,17,0,11,599,2094,3,16,30.6730859,-96.3728895,87.511,-0.0170000009239,-0.019999999553,-0.097999997437,1.81417751312,1.92890775204,5.9287648201,0.189600020647,2.99999980413e-09
2020/02/28/11:00:11.806564,11598,1582909211,806473596,vectornav,493229.599651,20,2,28,17,0,11,599,2094,3,16,30.6730859,-96.3728895,87.511,-0.0170000009239,-0.019999999553,-0.097999997437,1.81417751312,1.92890775204,5.9287648201,0.189600020647,2.99999980413e-09
2020/02/28/11:00:11.826536,11599,1582909211,826429797,vectornav,493229.599651,20,2,28,17,0,11,599,2094,3,16,30.6730859,-96.3728895,87.511,-0.0170000009239,-0.019999999553,-0.097999997437,1.81417751312,1.92890775204,5.9287648201,0.189600020647,2.99999980413e-09
2020/02/28/11:00:11.846615,11600,1582909211,846487909,vectornav,493229.599651,20,2,28,17,0,11,599,2094,3,16,30.6730859,-96.3728895,87.511,-0.0170000009239,-0.019999999553,-0.097999997437,1.81417751312,1.92890775204,5.9287648201,0.189600020647,2.99999980413e-09
