time,.header.seq,.header.stamp.secs,.header.stamp.nsecs,.header.frame_id,.Time,.Week,.Status,.RPY.x,.RPY.y,.RPY.z,.LLA.x,.LLA.y,.LLA.z,.NedVel.x,.NedVel.y,.NedVel.z,.YawUncertainty,.PitchUncertainty,.RollUncertainty,.PosUncertainty,.VelUncertainty,.SyncInTime,.SyncInCount
2020/02/28/11:00:07.347015,11375,1582909207,346921451,vectornav,1266944425.29,2094,33542,-1.57448160648,-0.633726716042,-163.423049927,30.6730807132,-96.3728974905,85.3986209123,-0.00825768336654,0.000308804214001,0.114940568805,1.10344302654,0.0859440639615,0.0858140662313,0.678157866001,0.100850515068,1582908092.53,0
2020/02/28/11:00:07.366873,11376,1582909207,366805582,vectornav,1266944425.31,2094,33542,-1.57507050037,-0.633514285088,-163.422943115,30.6730807116,-96.3728974911,85.3963759465,-0.00836273282766,0.000190600752831,0.115066662431,1.10362672806,0.0860429853201,0.0859130173922,0.67890304327,0.10110681504,1582908092.53,0
2020/02/28/11:00:07.386917,11377,1582909207,386852962,vectornav,1266944425.33,2094,33542,-1.57602369785,-0.633559703827,-163.42199707,30.6730807878,-96.3728975142,85.4264165313,-0.00858223810792,-0.00191919133067,0.110459446907,1.10392975807,0.0846868827939,0.0845547765493,0.669699966908,0.0974627509713,1582908092.53,0
2020/02/28/11:00:07.406905,11378,1582909207,406813709,vectornav,1266944425.35,2094,774,-1.57586026192,-0.63327652216,-163.421768188,30.6730807856,-96.3728975148,85.4242116379,-0.0086847692728,-0.00231014331803,0.110398694873,1.10417509079,0.0848180130124,0.084686294198,0.670642495155,0.097799308598,1582908092.53,0
2020/02/28/11:00:07.426851,11379,1582909207,426774697,vectornav,1266944425.37,2094,774,-1.57588362694,-0.633294701576,-163.421813965,30.6730807847,-96.3728975157,85.421998719,-0.00897619500756,-0.0027464623563,0.110645636916,1.10442054272,0.084949247539,0.0848175510764,0.671589851379,0.0981364250183,1582908092.53,0
2020/02/28/11:00:07.446849,11380,1582909207,446768214,vectornav,1266944425.39,2094,33542,-1.57641339302,-0.633288681507,-163.421585083,30.673080783,-96.372897516,85.4197859966,-0.00913927704096,-0.00314403930679,0.110604479909,1.10466611385,0.0850805789232,0.0849496498704,0.672542154789,0.0984743013978,1582908092.53,0
2020/02/28/11:00:07.466903,11381,1582909207,466789456,vectornav,1266944425.41,2094,33542,-1.57585203648,-0.634525299072,-163.421005249,30.6730807812,-96.3728975166,85.4175866598,-0.00916637852788,-0.00336802983657,0.110632993281,1.1049118042,0.0852119773626,0.0850809514523,0.673499405384,0.098812520504,1582908092.53,0
2020/02/28/11:00:07.486965,11382,1582909207,486844955,vectornav,1266944425.43,2094,33542,-1.57519805431,-0.634177029133,-163.420562744,30.6730807796,-96.3728975177,85.4153650776,-0.0091288946569,-0.00349545059726,0.111024230719,1.10515737534,0.085343465209,0.0852124243975,0.674461603165,0.099151365459,1582908092.53,0
2020/02/28/11:00:07.506818,11383,1582909207,506740819,vectornav,1266944425.45,2094,4870,-1.57469928265,-0.634102165699,-163.420852661,30.6730807773,-96.3728975187,85.4132125368,-0.00930934399366,-0.00379960238934,0.111368089914,1.10540294647,0.0854750350118,0.0853445380926,0.675428748131,0.0994905605912,1582908092.53,0
2020/02/28/11:00:07.526891,11384,1582909207,526790410,vectornav,1266944425.47,2094,4870,-1.57530272007,-0.634124040604,-163.420806885,30.6730807756,-96.3728975195,85.4109358984,-0.00950842350721,-0.00365456286818,0.111601270735,1.10564863682,0.0856066867709,0.0854763314128,0.676401019096,0.0998302251101,1582908092.53,0
2020/02/28/11:00:07.546906,11385,1582909207,546802529,vectornav,1266944425.49,2094,56070,-1.57446277142,-0.634307384491,-163.420074463,30.6730807747,-96.3728975208,85.408768563,-0.00963507592678,-0.00365852098912,0.112061351538,1.10589444637,0.0857383832335,0.0856081545353,0.677378296852,0.100170686841,1582908092.53,0
2020/02/28/11:00:07.566832,11386,1582909207,566756240,vectornav,1266944425.51,2094,56070,-1.57358622551,-0.633839488029,-163.419586182,30.6730807725,-96.3728975217,85.4064491272,-0.00981106981635,-0.00371830537915,0.112357348204,1.10614001751,0.0858701840043,0.0857404097915,0.678360641003,0.100511573255,1582908092.53,0
2020/02/28/11:00:07.586861,11387,1582909207,586757947,vectornav,1266944425.53,2094,56070,-1.57320463657,-0.634132683277,-163.418914795,30.6730808464,-96.3728974901,85.4366430522,-0.0100021734834,-0.00329555012286,0.108100369573,1.10638332367,0.0850088000298,0.0848775207996,0.670543909073,0.0981404259801,1582908092.53,0
2020/02/28/11:00:07.606865,11388,1582909207,606769781,vectornav,1266944425.55,2094,27398,-1.57263767719,-0.634184777737,-163.418670654,30.6730808451,-96.3728974911,85.4344302677,-0.0104019232094,-0.00341097498313,0.108294740319,1.10662913322,0.0851401612163,0.0850093066692,0.671493589878,0.0984785184264,1582908092.53,0
2020/02/28/11:00:07.626827,11389,1582909207,626713488,vectornav,1266944425.57,2094,27398,-1.57262885571,-0.634921312332,-163.418502808,30.673080843,-96.3728974922,85.4322472702,-0.0106330364943,-0.00338085042313,0.108499243855,1.10687494278,0.0852716490626,0.085140734911,0.672448217869,0.0988172143698,1582908092.53,0
2020/02/28/11:00:07.646833,11390,1582909207,646776183,vectornav,1266944425.59,2094,27398,-1.57208144665,-0.635134994984,-163.418212891,30.673080841,-96.372897493,85.4300771218,-0.01062977314,-0.00310587789863,0.108348160982,1.10712134838,0.0854031965137,0.0852728486061,0.673407793045,0.0991566702724,1582908092.53,0
2020/02/28/11:00:07.666868,11391,1582909207,666806451,vectornav,1266944425.61,2094,51974,-1.57223939896,-0.635198533535,-163.417495728,30.6730808396,-96.3728974937,85.4279838509,-0.0109227336943,-0.0033116787672,0.1081950441,1.10736727715,0.0855347663164,0.0854043513536,0.674372375011,0.0994968116283,1582908092.53,0
2020/02/28/11:00:07.686870,11392,1582909207,686781104,vectornav,1266944425.63,2094,51974,-1.57286584377,-0.635516643524,-163.4168396,30.6730808372,-96.3728974946,85.425737433,-0.0110106281936,-0.00318742403761,0.108508095145,1.10761332512,0.0856664553285,0.0855364874005,0.675342023373,0.0998373404145,1582908092.53,0
2020/02/28/11:00:07.706841,11393,1582909207,706771788,vectornav,1266944425.65,2094,31494,-1.57286691666,-0.635394215584,-163.416259766,30.6730808349,-96.3728974954,85.4236808587,-0.0112006925046,-0.00320312473923,0.108590602875,1.10785937309,0.0857982411981,0.0856682211161,0.676316738129,0.100178360939,1582908092.53,0
2020/02/28/11:00:07.726856,11394,1582909207,726750686,vectornav,1266944425.67,2094,31494,-1.57271850109,-0.635338544846,-163.41619873,30.673080833,-96.3728974962,85.4213938774,-0.011546716094,-0.0030749081634,0.108470574021,1.10810565948,0.0859301015735,0.0858002007008,0.677296578884,0.100520022213,1582908092.53,0
2020/02/28/11:00:07.746781,11395,1582909207,746725884,vectornav,1266944425.69,2094,31494,-1.57311272621,-0.635820329189,-163.416137695,30.673080831,-96.3728974961,85.4193024464,-0.011784452945,-0.00280704535544,0.108962610364,1.1083521843,0.0860620811582,0.0859326198697,0.678281545639,0.100862197578,1582908092.53,0
2020/02/28/11:00:07.766721,11396,1582909207,766656786,vectornav,1266944425.71,2094,45830,-1.5734449625,-0.636648178101,-163.415786743,30.6730808287,-96.3728974978,85.417045371,-0.0121417418122,-0.00286466255784,0.109059549868,1.1085985899,0.0861941277981,0.0860650241375,0.679271638393,0.10120472312,1582908092.53,0
2020/02/28/11:00:07.786895,11397,1582909207,786818422,vectornav,1266944425.73,2094,45830,-1.57348644733,-0.637144505978,-163.415588379,30.6730809144,-96.3728975178,85.4343972286,-0.0119325779378,-0.00455261440948,0.10695078969,1.10884165764,0.0851522311568,0.0850216597319,0.670962512493,0.0983979180455,1582908092.53,0
2020/02/28/11:00:07.806720,11398,1582909207,806657992,vectornav,1266944425.75,2094,29446,-1.5741802454,-0.637863278389,-163.415252686,30.6730809122,-96.3728975194,85.432229656,-0.0121817030013,-0.00461585586891,0.107611685991,1.10908794403,0.0852836668491,0.0851526781917,0.671914041042,0.0987368375063,1582908092.53,0
2020/02/28/11:00:07.826746,11399,1582909207,826672469,vectornav,1266944425.77,2094,29446,-1.57461440563,-0.637719810009,-163.415039062,30.6730809105,-96.3728975196,85.4300884632,-0.0122206620872,-0.00461519183591,0.107819363475,1.10933458805,0.0854152441025,0.0852849707007,0.672870516777,0.0990759655833,1582908092.53,0
2020/02/28/11:00:07.846774,11400,1582909207,846690830,vectornav,1266944425.79,2094,29446,-1.57431256771,-0.637908518314,-163.415496826,30.6730809082,-96.37289752,85.4279837619,-0.0122612044215,-0.00476422952488,0.10801653564,1.10958147049,0.0855468958616,0.0854165628552,0.673831999302,0.099415935576,1582908092.53,0
2020/02/28/11:00:07.866730,11401,1582909207,866664162,vectornav,1266944425.81,2094,39686,-1.57463717461,-0.637531042099,-163.414978027,30.673080906,-96.3728975216,85.4257570251,-0.0122777558863,-0.00510170916095,0.108102470636,1.1098279953,0.0856786370277,0.0855485573411,0.674798488617,0.0997567921877,1582908092.53,0
2020/02/28/11:00:07.886840,11402,1582909207,886718700,vectornav,1266944425.83,2094,39686,-1.57451379299,-0.637689769268,-163.415374756,30.6730809035,-96.3728975226,85.423582225,-0.0126347988844,-0.00534520484507,0.108235523105,1.11007452011,0.0858104079962,0.0856806263328,0.675770103931,0.100097775459,1582908092.53,0
2020/02/28/11:00:07.906734,11403,1582909207,906673715,vectornav,1266944425.85,2094,39686,-1.57393467426,-0.63874232769,-163.414550781,30.6730809014,-96.3728975242,85.4214235027,-0.0127859599888,-0.00560272345319,0.108553692698,1.11032116413,0.0859422981739,0.0858126059175,0.676746785641,0.10043951869,1582908092.53,0
2020/02/28/11:00:07.926820,11404,1582909207,926680396,vectornav,1266944425.87,2094,774,-1.57447302341,-0.63861232996,-163.413879395,30.6730808985,-96.3728975252,85.4192588603,-0.0129726156592,-0.00561517756432,0.108776763082,1.11056804657,0.0860742628574,0.0859447568655,0.677728593349,0.100781857967,1582908092.53,0
2020/02/28/11:00:07.946725,11405,1582909207,946650549,vectornav,1266944425.89,2094,774,-1.57488703728,-0.639179825783,-163.4140625,30.6730808966,-96.3728975266,85.4170711143,-0.0132759399712,-0.00572106800973,0.108966946602,1.11081457138,0.0862063243985,0.0860772132874,0.678715586662,0.101124823093,1582908092.53,0
2020/02/28/11:00:07.966660,11406,1582909207,966598040,vectornav,1266944425.91,2094,33542,-1.57467460632,-0.639713168144,-163.413391113,30.6730808946,-96.3728975278,85.4149548293,-0.0134254433215,-0.00584553554654,0.109234258533,1.11106169224,0.0863384380937,0.0862091630697,0.679707765579,0.101468287408,1582908092.53,0
2020/02/28/11:00:07.986770,11407,1582909207,986706197,vectornav,1266944425.93,2094,33542,-1.57494282722,-0.639985203743,-163.413208008,30.6730810088,-96.372897501,85.442738071,-0.0116713568568,-0.00569161120802,0.105638325214,1.11130571365,0.0850907117128,0.0849596560001,0.670815169811,0.0981492400169,1582908092.53,0
2020/02/28/11:00:08.006786,11408,1582909208,6665837,vectornav,1266944425.95,2094,33542,-1.57476246357,-0.639883875847,-163.413848877,30.6730810064,-96.3728975024,85.4406711358,-0.0118560828269,-0.00552498316392,0.105808094144,1.11155247688,0.0852221548557,0.0850912556052,0.671761751175,0.0984877943993,1582908092.53,0
2020/02/28/11:00:08.026668,11409,1582909208,26599278,vectornav,1266944425.97,2094,774,-1.57407557964,-0.639926552773,-163.413772583,30.673081005,-96.3728975046,85.4385430939,-0.0120912268758,-0.00561966840178,0.106335073709,1.11179959774,0.0853537246585,0.0852229967713,0.672713339329,0.0988271161914,1582908092.53,0
2020/02/28/11:00:08.046693,11410,1582909208,46624305,vectornav,1266944425.99,2094,774,-1.57438659668,-0.639894485474,-163.413040161,30.6730810018,-96.3728975055,85.4364155425,-0.0122392252088,-0.00574283162132,0.106530353427,1.11204659939,0.0854853242636,0.0853549987078,0.673669874668,0.0991668626666,1582908092.53,0
2020/02/28/11:00:08.066685,11411,1582909208,66623423,vectornav,1266944426.01,2094,774,-1.57426643372,-0.639833688736,-163.413040161,30.6730810003,-96.3728975075,85.4342569991,-0.0123813971877,-0.00581814907491,0.106878250837,1.11229372025,0.0856169611216,0.0854865089059,0.674631476402,0.0995072424412,1582908092.53,0
2020/02/28/11:00:08.086708,11412,1582909208,86634298,vectornav,1266944426.03,2094,33542,-1.57433533669,-0.639878809452,-163.412902832,30.6730809981,-96.3728975082,85.4320766652,-0.012332379818,-0.00581631902605,0.107348173857,1.11254096031,0.0857487544417,0.085618853569,0.675598084927,0.0998479127884,1582908092.53,0
2020/02/28/11:00:08.106647,11413,1582909208,106591651,vectornav,1266944426.05,2094,33542,-1.57506895065,-0.639539420605,-163.412094116,30.6730809958,-96.3728975097,85.4299272621,-0.0127586200833,-0.00605109985918,0.107531100512,1.11278831959,0.0858806371689,0.0857509970665,0.676569759846,0.100189447403,1582908092.53,0
2020/02/28/11:00:08.126641,11414,1582909208,126569574,vectornav,1266944426.07,2094,774,-1.57451021671,-0.639008581638,-163.411468506,30.6730809928,-96.372897511,85.4278705326,-0.0132181607187,-0.00601182505488,0.107932075858,1.11303567886,0.086012609303,0.0858832299709,0.677546560764,0.10053153336,1582908092.53,0
2020/02/28/11:00:08.146714,11415,1582909208,146612188,vectornav,1266944426.09,2094,774,-1.57369995117,-0.63859462738,-163.412216187,30.6730809908,-96.3728975129,85.4256264421,-0.0135124251246,-0.00599643867463,0.108337260783,1.11328279972,0.0861446261406,0.0860151052475,0.678528487682,0.100874051452,1582908092.53,0
2020/02/28/11:00:08.166658,11416,1582909208,166573987,vectornav,1266944426.11,2094,774,-1.57411289215,-0.638296246529,-163.412109375,30.6730809883,-96.3728975134,85.4234548832,-0.0138093084097,-0.00594682432711,0.108455993235,1.11353063583,0.0862767398357,0.0861476436257,0.6795155406,0.101217418909,1582908092.53,0
2020/02/28/11:00:08.186707,11417,1582909208,186623312,vectornav,1266944426.13,2094,33542,-1.57414340973,-0.638409078121,-163.412567139,30.673081175,-96.3728975002,85.4572519972,-0.00856710597873,-0.00599161628634,0.103374056518,1.1137740612,0.0844983607531,0.0843663141131,0.669020354748,0.0965213850141,1582908092.53,0
2020/02/28/11:00:08.206662,11418,1582909208,206591508,vectornav,1266944426.15,2094,33542,-1.57388901711,-0.638927638531,-163.412307739,30.6730811727,-96.3728975022,85.4551511016,-0.0087365321815,-0.00599976722151,0.103737980127,1.11402153969,0.0846294537187,0.0844977274537,0.669943094254,0.096857458353,1582908092.53,0
2020/02/28/11:00:08.226688,11419,1582909208,226618511,vectornav,1266944426.17,2094,33542,-1.57448339462,-0.638841986656,-163.412155151,30.6730811714,-96.3728975032,85.4530648965,-0.00907275080681,-0.00594562664628,0.103827543557,1.11426925659,0.084760658443,0.0846293196082,0.670870602131,0.0971945822239,1582908092.53,0
2020/02/28/11:00:08.246679,11420,1582909208,246613734,vectornav,1266944426.19,2094,774,-1.57421517372,-0.639206409454,-163.411987305,30.6730811694,-96.3728975043,85.4510041818,-0.00916539132595,-0.00589946098626,0.103873863816,1.11451673508,0.0848919153214,0.0847607031465,0.671802997589,0.0975316539407,1582908092.53,0
2020/02/28/11:00:08.266753,11421,1582909208,266646115,vectornav,1266944426.21,2094,774,-1.5735887289,-0.639065146446,-163.411453247,30.6730811682,-96.3728975053,85.4489911258,-0.00933462753892,-0.0060468968004,0.104477092624,1.11476457119,0.0850232765079,0.0848920717835,0.672740221024,0.0978693440557,1582908092.53,0
2020/02/28/11:00:08.286613,11422,1582909208,286551833,vectornav,1266944426.23,2094,33542,-1.57429087162,-0.639176309109,-163.411529541,30.6730811659,-96.3728975071,85.4468461456,-0.00980060175061,-0.00611397065222,0.10474036634,1.1150124073,0.0851547420025,0.085023753345,0.673682272434,0.0982079580426,1582908092.53,0
2020/02/28/11:00:08.306650,11423,1582909208,306576286,vectornav,1266944426.25,2094,33542,-1.5745652914,-0.639716267586,-163.411636353,30.6730811646,-96.3728975084,85.44472468,-0.0101290941238,-0.00586203951389,0.105122342706,1.11526012421,0.08528624475,0.0851554274559,0.67462927103,0.0985467433929,1582908092.53,0
2020/02/28/11:00:08.326663,11424,1582909208,326572734,vectornav,1266944426.27,2094,33542,-1.57464933395,-0.64002853632,-163.411346436,30.6730811628,-96.3728975097,85.4426181901,-0.0104832202196,-0.00571368681267,0.105465754867,1.11550784111,0.0854178443551,0.0852874219418,0.675581157207,0.0988860428333,1582908092.53,0
2020/02/28/11:00:08.346676,11425,1582909208,346574446,vectornav,1266944426.29,2094,15110,-1.5747897625,-0.64020639658,-163.411300659,30.6730811604,-96.3728975112,85.4405275357,-0.0108107104897,-0.00544576440006,0.105875842273,1.1157554388,0.085549518466,0.0854191705585,0.676538169384,0.0992263555527,1582908092.53,0
2020/02/28/11:00:08.366663,11426,1582909208,366592411,vectornav,1266944426.31,2094,15110,-1.5756162405,-0.640096008778,-163.411514282,30.6730812749,-96.3728975138,85.4715306784,-0.00917764008045,-0.00677527021617,0.101799353957,1.11600089073,0.0845986157656,0.0844671055675,0.668547749519,0.0966305360198,1582908092.53,0
2020/02/28/11:00:08.386615,11427,1582909208,386551446,vectornav,1266944426.33,2094,49926,-1.57531607151,-0.640821516514,-163.411102295,30.6730812724,-96.3728975152,85.4694484125,-0.00977750867605,-0.00664085708559,0.102119669318,1.11624884605,0.0847297906876,0.0845983549953,0.669469416142,0.0969672724605,1582908092.53,0
2020/02/28/11:00:08.406594,11428,1582909208,406522946,vectornav,1266944426.35,2094,49926,-1.5753620863,-0.641471505165,-163.410919189,30.6730812708,-96.3728975165,85.4673963664,-0.00998283550143,-0.0066485805437,0.102472990751,1.11649692059,0.0848610624671,0.0847296863794,0.67039591074,0.0973048582673,1582908092.53,0
2020/02/28/11:00:08.426613,11429,1582909208,426520493,vectornav,1266944426.37,2094,49926,-1.57614672184,-0.641026079655,-163.410644531,30.6730812693,-96.3728975179,85.4653394683,-0.0101939961314,-0.00680283084512,0.102561585605,1.11674499512,0.0849923714995,0.0848615467548,0.67132717371,0.0976427868009,1582908092.53,0
2020/02/28/11:00:08.446552,11430,1582909208,446493283,vectornav,1266944426.39,2094,15110,-1.57639408112,-0.640930175781,-163.410095215,30.6730812669,-96.3728975188,85.463319941,-0.010778196156,-0.00674566207454,0.102946206927,1.11699306965,0.0851237922907,0.0849929451942,0.672263383865,0.0979810655117,1582908092.53,0
2020/02/28/11:00:08.466612,11431,1582909208,466498531,vectornav,1266944426.41,2094,15110,-1.5768930912,-0.640735447407,-163.410614014,30.673081265,-96.3728975204,85.4613296685,-0.0109840668738,-0.00690076267347,0.10319442302,1.1172413826,0.0852553397417,0.0851247385144,0.673204421997,0.0983204990625,1582908092.53,0
2020/02/28/11:00:08.486566,11432,1582909208,486499814,vectornav,1266944426.43,2094,15110,-1.57700014114,-0.640801072121,-163.41003418,30.6730812636,-96.372897522,85.4591731187,-0.0110452398658,-0.00711448583752,0.103419661522,1.11748981476,0.0853869691491,0.085256382823,0.674150407314,0.0986600145698,1582908092.53,0
2020/02/28/11:00:08.506599,11433,1582909208,506495674,vectornav,1266944426.45,2094,54022,-1.57655251026,-0.64064514637,-163.410049438,30.6730812611,-96.3728975231,85.4570862597,-0.0110372193158,-0.00722447130829,0.10379357636,1.11773812771,0.0855186656117,0.0853884592652,0.675101339817,0.0990001186728,1582908092.53,0
2020/02/28/11:00:08.526551,11434,1582909208,526484060,vectornav,1266944426.47,2094,54022,-1.57625758648,-0.641041576862,-163.409622192,30.6730812589,-96.3728975243,85.4550333876,-0.0112546943128,-0.00735249463469,0.104333892465,1.11798644066,0.085650421679,0.0855204835534,0.67605727911,0.0993409901857,1582908092.53,0
2020/02/28/11:00:08.546538,11435,1582909208,546441041,vectornav,1266944426.49,2094,15110,-1.57576644421,-0.640823245049,-163.409347534,30.6730812569,-96.3728975259,85.452928434,-0.0111753083766,-0.00721557624638,0.10474652797,1.11823499203,0.0857822522521,0.0856524705887,0.677018165588,0.0996819511056,1582908092.53,0
2020/02/28/11:00:08.566542,11436,1582909208,566446073,vectornav,1266944426.51,2094,15110,-1.57450556755,-0.640618860722,-163.408966064,30.6730814123,-96.372897488,85.484161299,-0.00707815587521,-0.00645243842155,0.100592084229,1.11841738224,0.0845153331757,0.0843835696578,0.677742183208,0.0999381765723,1582908092.53,0
2020/02/28/11:00:08.586492,11437,1582909208,586422222,vectornav,1266944426.53,2094,15110,-1.57393610477,-0.640958547592,-163.408798218,30.6730814114,-96.3728974891,85.4823173058,-0.00723098218441,-0.00704159308225,0.100874528289,1.11872792244,0.0846792832017,0.084547445178,0.669152379036,0.0967165231705,1582908092.53,0
2020/02/28/11:00:08.606617,11438,1582909208,606494342,vectornav,1266944426.55,2094,60166,-1.57302391529,-0.641742885113,-163.408493042,30.6730814102,-96.3728974902,85.4804086587,-0.00748718157411,-0.00721225328743,0.101217336953,1.11897659302,0.0848105549812,0.084679223597,0.670073390007,0.0970537364483,1582908092.53,0
2020/02/28/11:00:08.626560,11439,1582909208,626457205,vectornav,1266944426.57,2094,60166,-1.57132983208,-0.641614735126,-163.408859253,30.6730814085,-96.3728974921,85.4783042322,-0.00767219439149,-0.00725119747221,0.101587362587,1.11922514439,0.0849419310689,0.0848109051585,0.670999407768,0.0973916053772,1582908092.53,0
2020/02/28/11:00:08.646491,11440,1582909208,646403175,vectornav,1266944426.59,2094,60166,-1.57138872147,-0.64160823822,-163.408859253,30.6730814073,-96.3728974936,85.4762720306,-0.0080365203321,-0.00731524918228,0.101881377399,1.11947369576,0.08507335186,0.0849422812462,0.671930015087,0.0977300405502,1582908092.53,0
2020/02/28/11:00:08.666525,11441,1582909208,666415948,vectornav,1266944426.61,2094,29446,-1.57041299343,-0.641228020191,-163.409332275,30.6730814063,-96.3728974944,85.4743044608,-0.00835521146655,-0.00729854218662,0.101764783263,1.11972236633,0.0852048546076,0.0850741490722,0.672865629196,0.098069190979,1582908092.53,0
2020/02/28/11:00:08.686522,11442,1582909208,686421495,vectornav,1266944426.63,2094,29446,-1.56839966774,-0.64110326767,-163.408813477,30.6730814045,-96.3728974957,85.4721422583,-0.00864944979548,-0.00714244227856,0.102003678679,1.11997103691,0.0853364318609,0.0852058902383,0.673806071281,0.0984088927507,1582908092.53,0
2020/02/28/11:00:08.706490,11443,1582909208,706403723,vectornav,1266944426.65,2094,39686,-1.56787180901,-0.641220629215,-163.408416748,30.6730814035,-96.3728974971,85.4701189939,-0.00885075703263,-0.00705444673076,0.102455049753,1.1202198267,0.0854680985212,0.085337460041,0.674751520157,0.0987492874265,1582908092.53,0
2020/02/28/11:00:08.726476,11444,1582909208,726400915,vectornav,1266944426.67,2094,39686,-1.56711244583,-0.641204535961,-163.408599854,30.6730814011,-96.3728974981,85.4681352602,-0.00912852212787,-0.00717371003702,0.102776445448,1.12046873569,0.0855998620391,0.0854694694281,0.675701856613,0.0990897193551,1582908092.53,0
2020/02/28/11:00:08.746499,11445,1582909208,746400217,vectornav,1266944426.69,2094,39686,-1.56668531895,-0.641386687756,-163.408401489,30.6730813999,-96.372897499,85.4660589056,-0.00935599952936,-0.00702035101131,0.103275895119,1.12071740627,0.0857316330075,0.0856017246842,0.676657259464,0.0994308814406,1582908092.53,0
2020/02/28/11:00:08.766433,11446,1582909208,766372581,vectornav,1266944426.71,2094,774,-1.56655716896,-0.641747713089,-163.40776062,30.6730813983,-96.3728975009,85.4639626343,-0.00948859006166,-0.00706463726237,0.103700697422,1.12090408802,0.0858305618167,0.0857006236911,0.677377104759,0.0996872857213,1582908092.53,0
2020/02/28/11:00:08.786465,11447,1582909208,786360613,vectornav,1266944426.73,2094,774,-1.56659984589,-0.6415604949,-163.407424927,30.673081554,-96.3728974888,85.4960587879,-0.00524833425879,-0.00732786860317,0.0993790850043,1.12121272087,0.0845160856843,0.0843841582537,0.668467581272,0.0961737036705,1582908092.53,0
2020/02/28/11:00:08.806432,11448,1582909208,806363541,vectornav,1266944426.75,2094,774,-1.56687855721,-0.642469525337,-163.406906128,30.6730815532,-96.3728974897,85.4941741885,-0.00523517280817,-0.00723943393677,0.0997401252389,1.12146186829,0.0846472978592,0.0845153927803,0.669379174709,0.0965105816722,1582908092.53,0
2020/02/28/11:00:08.826465,11449,1582909208,826402937,vectornav,1266944426.77,2094,33542,-1.56674683094,-0.641889214516,-163.406433105,30.6730815518,-96.3728974917,85.4920876918,-0.00568886846304,-0.00714752543718,0.099808037281,1.12171113491,0.0847785547376,0.0846471115947,0.670295596123,0.0968481227756,1582908092.53,0
2020/02/28/11:00:08.846551,11450,1582909208,846430055,vectornav,1266944426.79,2094,33542,-1.5661700964,-0.641473352909,-163.405639648,30.6730815508,-96.3728974923,85.4900880529,-0.00601534172893,-0.00694208778441,0.0999439656734,1.12196016312,0.0849098488688,0.0847784429789,0.671216845512,0.0971861183643,1582908092.53,0
2020/02/28/11:00:08.866477,11451,1582909208,866400969,vectornav,1266944426.81,2094,774,-1.5658210516,-0.640864312649,-163.405303955,30.6730815503,-96.3728974942,85.4881099554,-0.00627886503935,-0.00665003294125,0.100346952677,1.12220919132,0.0850412249565,0.0849098488688,0.672142863274,0.0975245907903,1582908092.53,0
2020/02/28/11:00:08.886451,11452,1582909208,886335038,vectornav,1266944426.83,2094,774,-1.56691467762,-0.640880346298,-163.40574646,30.6730815487,-96.3728974953,85.4860675774,-0.006381906569,-0.0065504219383,0.100425995886,1.12245833874,0.0851727128029,0.0850416794419,0.673073768616,0.0978637859225,1582908092.53,0
2020/02/28/11:00:08.906466,11453,1582909208,906372367,vectornav,1266944426.85,2094,774,-1.56723487377,-0.641053617001,-163.406051636,30.6730815472,-96.3728974969,85.4840989938,-0.00644043087959,-0.00646735727787,0.100349374115,1.12270748615,0.085304312408,0.0851737856865,0.674009561539,0.0982036665082,1582908092.53,0
2020/02/28/11:00:08.926445,11454,1582909208,926376868,vectornav,1266944426.87,2094,33542,-1.56658089161,-0.641280889511,-163.405685425,30.6730815469,-96.3728974974,85.4821150021,-0.00688303634524,-0.00644291564822,0.100674778223,1.1229569912,0.0854360088706,0.0853053927422,0.674950301647,0.098543792963,1582908092.53,0
2020/02/28/11:00:08.946475,11455,1582909208,946412132,vectornav,1266944426.89,2094,33542,-1.56694233418,-0.641727805138,-163.404983521,30.6730815454,-96.3728974991,85.4800472178,-0.00711683928967,-0.00663187820464,0.100747063756,1.12320637703,0.0855677425861,0.0854371711612,0.675895929337,0.0988848283887,1582908092.53,0
2020/02/28/11:00:08.966550,11456,1582909208,966454094,vectornav,1266944426.91,2094,774,-1.56663274765,-0.641085207462,-163.404678345,30.6730816531,-96.3728974747,85.5084921486,-0.00563413277268,-0.00682031922042,0.0973885953426,1.12345278263,0.0843881443143,0.0842558145523,0.667306065559,0.0957162231207,1582908092.53,0
2020/02/28/11:00:08.986487,11457,1582909208,986372094,vectornav,1266944426.93,2094,774,-1.56667613983,-0.64078181982,-163.404418945,30.6730816519,-96.3728974762,85.506554643,-0.00586568564177,-0.00668519362807,0.0981118232012,1.12370240688,0.0845192298293,0.0843874588609,0.668209195137,0.0960525274277,1582908092.53,0
2020/02/28/11:00:09.006428,11458,1582909209,6351008,vectornav,1266944426.95,2094,774,-1.56751215458,-0.641024589539,-163.403808594,30.6730816513,-96.3728974775,85.5046702601,-0.00584300979972,-0.00710340123624,0.0989617705345,1.09261310101,0.0846504345536,0.0845183804631,0.669117033482,0.0963891521096,1582908092.53,0
2020/02/28/11:00:09.026440,11459,1582909209,26347627,vectornav,1266944426.97,2094,33542,-1.56760895252,-0.640624940395,-163.403778076,30.6730816503,-96.3728974785,85.5026952844,-0.0063202008605,-0.00719773862511,0.0990936160088,1.09285581112,0.0847816988826,0.0846501812339,0.670026957989,0.0967265143991,1582908092.53,0
2020/02/28/11:00:09.046387,11460,1582909209,46311012,vectornav,1266944426.99,2094,33542,-1.56775259972,-0.639750659466,-163.403762817,30.6730816487,-96.3728974805,85.5006807291,-0.00674767419696,-0.00702442321926,0.0992325022817,1.09309887886,0.0849130302668,0.0847813561559,0.670944273472,0.0970647782087,1582908092.53,0
2020/02/28/11:00:09.066406,11461,1582909209,66337438,vectornav,1266944427.01,2094,33542,-1.56903839111,-0.639609992504,-163.403579712,30.6730816479,-96.3728974812,85.4987134236,-0.00713636726141,-0.00680826604366,0.0993807539344,1.09334170818,0.0850444734097,0.0849131792784,0.671866416931,0.0974034965038,1582908092.53,0
2020/02/28/11:00:09.086469,11462,1582909209,86372154,vectornav,1266944427.03,2094,774,-1.5691075325,-0.639172375202,-163.40512085,30.6730816463,-96.3728974824,85.4966359299,-0.00757675990462,-0.00677892146632,0.0993365943432,1.09358477592,0.0851759985089,0.0850449725986,0.672793447971,0.097743280232,1582908092.53,0
2020/02/28/11:00:09.106426,11463,1582909209,106349854,vectornav,1266944427.05,2094,774,-1.56899404526,-0.639747321606,-163.405517578,30.6730816451,-96.3728974838,85.4947493195,-0.00797174498439,-0.00693815480918,0.0994600057602,1.09382796288,0.0853076204658,0.0851767063141,0.673725306988,0.0980832204223,1582908092.53,0
2020/02/28/11:00:09.126442,11464,1582909209,126345376,vectornav,1266944427.07,2094,33542,-1.5698299408,-0.639791548252,-163.404937744,30.6730816435,-96.3728974853,85.4926803818,-0.00835431739688,-0.00715601351112,0.0995143353939,1.09407114983,0.0854393020272,0.0853085741401,0.67466211319,0.0984240397811,1582908092.53,0
2020/02/28/11:00:09.146478,11465,1582909209,146357522,vectornav,1266944427.09,2094,33542,-1.56970834732,-0.640219330788,-163.404968262,30.6730816421,-96.3728974861,85.4906739581,-0.00848406180739,-0.00738529954106,0.100049048662,1.09431409836,0.0855710655451,0.0854404568672,0.675603866577,0.0987650081515,1582908092.53,0
2020/02/28/11:00:09.166391,11466,1582909209,166325862,vectornav,1266944427.11,2094,33542,-1.56925296783,-0.641141355038,-163.405044556,30.6730816402,-96.3728974874,85.4886520456,-0.00870169699192,-0.00755234435201,0.100766144693,1.09455740452,0.0857029110193,0.0855725705624,0.67655056715,0.0991059392691,1582908092.53,0
2020/02/28/11:00:09.186450,11467,1582909209,186310943,vectornav,1266944427.13,2094,774,-1.56881165504,-0.641233026981,-163.405395508,30.6730818071,-96.3728974405,85.5209856522,-0.0039486028254,-0.00665909051895,0.0969586446881,1.09479677677,0.0840047597885,0.0838717445731,0.666383087635,0.0945861488581,1582908092.53,0
2020/02/28/11:00:09.206346,11468,1582909209,206272331,vectornav,1266944427.15,2094,774,-1.56942129135,-0.641688644886,-163.404418945,30.6730818062,-96.3728974422,85.5191260765,-0.00421887263656,-0.00703518139198,0.0977192223072,1.09504008293,0.0841356292367,0.0840027928352,0.66726899147,0.0949209555984,1582908092.53,0
2020/02/28/11:00:09.226388,11469,1582909209,226256477,vectornav,1266944427.17,2094,774,-1.56954503059,-0.641528308392,-163.404067993,30.673081806,-96.3728974436,85.5171751009,-0.00452388823032,-0.007060370408,0.0979237779975,1.09528338909,0.0842666104436,0.0841341093183,0.668159544468,0.0952561050653,1582908092.53,0
2020/02/28/11:00:09.246334,11470,1582909209,246263163,vectornav,1266944427.19,2094,33542,-1.56967186928,-0.641620278358,-163.403594971,30.6730818052,-96.372897444,85.5151623518,-0.00477401912212,-0.00708927866071,0.0981079041958,1.09552693367,0.0843976587057,0.084265395999,0.669054746628,0.0955925732851,1582908092.53,0
2020/02/28/11:00:09.266390,11471,1582909209,266321572,vectornav,1266944427.21,2094,33542,-1.56824910641,-0.641568303108,-163.402984619,30.6730818041,-96.372897446,85.5131332058,-0.00518022477627,-0.00719882873818,0.0981575474143,1.09577059746,0.084528811276,0.0843965709209,0.66995459795,0.0959294065833,1582908092.53,0
2020/02/28/11:00:09.286435,11472,1582909209,286317918,vectornav,1266944427.23,2094,774,-1.56769061089,-0.640988111496,-163.402267456,30.6730818036,-96.3728974466,85.5112050993,-0.00540021434426,-0.00728409690782,0.0978684052825,1.09601414204,0.0846600458026,0.0845279842615,0.670859158039,0.0962671488523,1582908092.53,0
2020/02/28/11:00:09.306396,11473,1582909209,306267652,vectornav,1266944427.25,2094,774,-1.56765890121,-0.640540838242,-163.40246582,30.6730818026,-96.3728974478,85.5092779679,-0.00558632612228,-0.0072092670016,0.0978375151753,1.09625804424,0.0847913622856,0.0846592783928,0.671768426895,0.0966052934527,1582908092.53,0
2020/02/28/11:00:09.326371,11474,1582909209,326289925,vectornav,1266944427.27,2094,774,-1.56658518314,-0.640439271927,-163.401947021,30.6730818012,-96.37289745,85.5072593309,-0.00544818863273,-0.00709547428414,0.0977684110403,1.09650170803,0.0849227532744,0.0847909152508,0.672682523727,0.0969439595938,1582908092.53,0
2020/02/28/11:00:09.346420,11475,1582909209,346304365,vectornav,1266944427.29,2094,33542,-1.56568586826,-0.640450775623,-163.401885986,30.6730818007,-96.3728974504,85.5053313244,-0.00539550185204,-0.00728897470981,0.097590662539,1.09674549103,0.0850542485714,0.0849227532744,0.673601388931,0.0972832739353,1582908092.53,0
2020/02/28/11:00:09.366311,11476,1582909209,366241515,vectornav,1266944427.31,2094,33542,-1.56539213657,-0.640923917294,-163.402328491,30.6730817995,-96.3728974522,85.503338108,-0.00520455464721,-0.00724393688142,0.0977319702506,1.09698939323,0.0851857885718,0.0850547477603,0.674525082111,0.0976232588291,1582908092.53,0
2020/02/28/11:00:09.386379,11477,1582909209,386240691,vectornav,1266944427.33,2094,774,-1.56525492668,-0.640717625618,-163.402328491,30.6730819301,-96.3728973988,85.5264670855,-0.00221371650696,-0.00603586900979,0.0951640829444,1.09723031521,0.0842321589589,0.0840994045138,0.666559696198,0.0950091481209,1582908092.53,0
2020/02/28/11:00:09.406284,11478,1582909209,406201078,vectornav,1266944427.35,2094,774,-1.56432330608,-0.641179144382,-163.402450562,30.6730819302,-96.3728974003,85.524515096,-0.00220891088247,-0.00601973058656,0.0956182777882,1.09747421741,0.0843632146716,0.0842305496335,0.667448341846,0.0953454002738,1582908092.53,0
2020/02/28/11:00:09.426387,11479,1582909209,426285328,vectornav,1266944427.37,2094,774,-1.5640951395,-0.640970170498,-163.402450562,30.67308193,-96.3728974015,85.5225996432,-0.00215182453394,-0.00607655476779,0.0960153266788,1.09771823883,0.0844943746924,0.0843620970845,0.668341636658,0.0956824123859,1582908092.53,0
2020/02/28/11:00:09.446280,11480,1582909209,446209294,vectornav,1266944427.39,2094,33542,-1.56359255314,-0.641791880131,-163.401870728,30.6730819298,-96.3728974033,85.5207371161,-0.00237268954515,-0.00660593807697,0.0965410917997,1.09796237946,0.0846255943179,0.0844934657216,0.669239759445,0.0960195958614,1582908092.53,0
2020/02/28/11:00:09.466304,11481,1582909209,466184744,vectornav,1266944427.41,2094,33542,-1.56252729893,-0.641468882561,-163.401428223,30.673081929,-96.3728974041,85.5187363494,-0.00249493122101,-0.00692806718871,0.0975417420268,1.09820616245,0.0847568809986,0.0846248045564,0.670142531395,0.0963569879532,1582908092.53,0
2020/02/28/11:00:09.486346,11482,1582909209,486257113,vectornav,1266944427.43,2094,774,-1.56267619133,-0.641848623753,-163.400726318,30.6730819289,-96.3728974052,85.5167829862,-0.00271094590425,-0.00725135952234,0.0983408465981,1.09845030308,0.0848882719874,0.0847563967109,0.671050012112,0.0966952219605,1582908092.53,0
2020/02/28/11:00:09.506304,11483,1582909209,506204340,vectornav,1266944427.45,2094,774,-1.56202185154,-0.641021549702,-163.400512695,30.6730819283,-96.3728974061,85.5148381001,-0.00264404341578,-0.00708969496191,0.0988700166345,1.09869432449,0.0850197151303,0.0848881974816,0.671962320805,0.0970336794853,1582908092.53,0
2020/02/28/11:00:09.526383,11484,1582909209,526276678,vectornav,1266944427.47,2094,774,-1.56057536602,-0.640652477741,-163.400283813,30.6730819276,-96.372897408,85.5128221948,-0.0028508529067,-0.00667757540941,0.0991770774126,1.09893858433,0.0851512476802,0.0850200802088,0.672879457474,0.0973735079169,1582908092.53,0
2020/02/28/11:00:09.546310,11485,1582909209,546192916,vectornav,1266944427.49,2094,33542,-1.55968272686,-0.640741288662,-163.399383545,30.6730819275,-96.372897409,85.5108584282,-0.00289215520024,-0.00640144199133,0.0993018001318,1.09918272495,0.085282869637,0.085151463747,0.673801422119,0.0977140441537,1582908092.53,0
2020/02/28/11:00:09.566312,11486,1582909209,566213237,vectornav,1266944427.51,2094,33542,-1.55858826637,-0.639985859394,-163.398971558,30.6730819267,-96.3728974109,85.5089119348,-0.00315848737955,-0.00591851538047,0.0988475233316,1.09936606884,0.0853816568851,0.0852504745126,0.674496114254,0.0979695394635,1582908092.53,0
2020/02/28/11:00:09.586323,11487,1582909209,586253462,vectornav,1266944427.53,2094,31494,-1.55802595615,-0.63928681612,-163.399597168,30.6730820654,-96.3728973667,85.5356975896,0.000407915562391,-0.00475089158863,0.0958420038223,1.09966862202,0.0842581912875,0.0841251686215,0.666225552559,0.0949410200119,1582908092.53,0
2020/02/28/11:00:09.606303,11488,1582909209,606218663,vectornav,1266944427.55,2094,31494,-1.55839717388,-0.638248324394,-163.400146484,30.6730820651,-96.3728973673,85.5337887785,0.000370785593987,-0.00392982084304,0.0958684235811,1.09991312027,0.0843893140554,0.0842565968633,0.667110919952,0.0952781811357,1582908092.53,0
2020/02/28/11:00:09.626310,11489,1582909209,626212587,vectornav,1266944427.57,2094,31494,-1.56006598473,-0.638336539268,-163.400680542,30.6730820654,-96.3728973682,85.5318633571,0.000229422003031,-0.0033680559136,0.0953714549541,1.10015797615,0.0845204740763,0.084388166666,0.668000876904,0.0956159606576,1582908092.53,0
2020/02/28/11:00:09.646285,11490,1582909209,646172522,vectornav,1266944427.59,2094,37638,-1.56184136868,-0.638522624969,-163.401550293,30.6730820657,-96.3728973688,85.5299722709,0.000483270734549,-0.0028632460162,0.0954778641462,1.10040223598,0.0846517384052,0.0845196992159,0.668895542622,0.0959539413452,1582908092.53,0
2020/02/28/11:00:09.666271,11491,1582909209,666191610,vectornav,1266944427.61,2094,37638,-1.56336653233,-0.639178216457,-163.401992798,30.6730820657,-96.3728973696,85.5280387281,0.00070121511817,-0.00249767955393,0.0957366228104,1.10064661503,0.0847830548882,0.0846510976553,0.669795036316,0.0962925553322,1582908092.53,0
2020/02/28/11:00:09.686235,11492,1582909209,686167763,vectornav,1266944427.63,2094,6918,-1.56605684757,-0.639473795891,-163.40296936,30.6730820658,-96.3728973703,85.5261234101,0.000595986843109,-0.00255908537656,0.0963664203882,1.10089123249,0.0849144309759,0.084782704711,0.670699238777,0.0966313481331,1582908092.53,0
2020/02/28/11:00:09.706238,11493,1582909209,706171017,vectornav,1266944427.65,2094,6918,-1.56832659245,-0.638970255852,-163.402938843,30.6730820656,-96.372897371,85.5241774488,0.000265687704086,-0.00267823319882,0.0968741998076,1.10113608837,0.0850459635258,0.0849146544933,0.67160820961,0.0969704315066,1582908092.53,0
2020/02/28/11:00:09.726232,11494,1582909209,726127982,vectornav,1266944427.67,2094,6918,-1.57093071938,-0.639892339706,-163.402572632,30.6730820653,-96.3728973718,85.5222511467,-0.000126574188471,-0.00274129211903,0.0974094867706,1.10138070583,0.0851775482297,0.0850462466478,0.672522008419,0.0973102971911,1582908092.53,0
2020/02/28/11:00:09.746202,11495,1582909209,746138455,vectornav,1266944427.69,2094,56070,-1.57398760319,-0.640532016754,-163.401351929,30.6730820653,-96.3728973726,85.5202958238,-0.000407878309488,-0.00293283071369,0.0980997979641,1.1016254425,0.0853091850877,0.085177898407,0.673440635204,0.097650706768,1582908092.53,0
2020/02/28/11:00:09.766239,11496,1582909209,766180003,vectornav,1266944427.71,2094,56070,-1.57603907585,-0.640753209591,-163.400817871,30.6730820652,-96.372897373,85.518227401,-0.00100522115827,-0.00344820972532,0.0984730422497,1.10180914402,0.0854079797864,0.085277043283,0.674132764339,0.097906395793,1582908092.53,0
2020/02/28/11:00:09.786265,11497,1582909209,786161252,vectornav,1266944427.73,2094,56070,-1.5786126852,-0.640502691269,-163.399902344,30.6730821784,-96.3728973427,85.5382859381,0.000532973557711,-0.00348195293918,0.0968940854073,1.10211312771,0.0846185460687,0.0844862982631,0.66687053442,0.0957502126694,1582908092.53,0
2020/02/28/11:00:09.806222,11498,1582909209,806145303,vectornav,1266944427.75,2094,25350,-1.58017885685,-0.640824854374,-163.398986816,30.673082179,-96.3728973435,85.5363122548,-7.52806663513e-05,-0.0038005290553,0.096753321588,1.1023581028,0.0847498700023,0.0846179574728,0.667764306068,0.0960888266563,1582908092.53,0
2020/02/28/11:00:09.826214,11499,1582909209,826148327,vectornav,1266944427.77,2094,25350,-1.58214950562,-0.641130208969,-163.398025513,30.6730821786,-96.3728973442,85.5343795044,-0.00045495480299,-0.00421633990481,0.0967563763261,1.1026031971,0.0848812684417,0.0847494676709,0.668662786484,0.096428386867,1582908092.53,0
2020/02/28/11:00:09.846206,11500,1582909209,846126788,vectornav,1266944427.79,2094,35590,-1.58417916298,-0.641605496407,-163.397583008,30.6730821784,-96.372897345,85.5324627262,-0.000757850706577,-0.00460109207779,0.0972712635994,1.1028482914,0.0850127562881,0.0848812013865,0.669566094875,0.0967681854963,1582908092.53,0
2020/02/28/11:00:09.866176,11501,1582909209,866110455,vectornav,1266944427.81,2094,35590,-1.585293293,-0.641380012035,-163.397735596,30.6730821791,-96.3728973456,85.5305088092,-0.000963218510151,-0.00511266756803,0.0974286273122,1.10309326649,0.0851443186402,0.0850129127502,0.670474469662,0.0971082299948,1582908092.53,0
2020/02/28/11:00:09.886282,11502,1582909209,886167620,vectornav,1266944427.83,2094,35590,-1.58530533314,-0.641560673714,-163.397384644,30.6730821785,-96.3728973473,85.5286589829,-0.0014987103641,-0.00592050747946,0.0977204144001,1.10333859921,0.0852759480476,0.0851447954774,0.671387195587,0.0974490568042,1582908092.53,0
2020/02/28/11:00:09.906222,11503,1582909209,906156686,vectornav,1266944427.85,2094,2822,-1.58500409126,-0.641277253628,-163.397872925,30.6730821778,-96.3728973486,85.5266049329,-0.0015199445188,-0.00658466760069,0.0979986637831,1.1035835743,0.0854077190161,0.0852769985795,0.672305047512,0.0977906510234,1582908092.53,0
2020/02/28/11:00:09.926204,11504,1582909209,926081114,vectornav,1266944427.87,2094,2822,-1.58465743065,-0.64113676548,-163.398620605,30.673082178,-96.3728973493,85.524713177,-0.00157294422388,-0.00732566509396,0.0979893952608,1.1038287878,0.0855394974351,0.0854086726904,0.673227727413,0.0981324762106,1582908092.53,0
2020/02/28/11:00:09.947175,11505,1582909209,947108174,vectornav,1266944427.89,2094,2822,-1.58263540268,-0.640571415424,-163.399703979,30.6730821772,-96.3728973515,85.5226870992,-0.00200443714857,-0.008106184192,0.0982900336385,1.10407423973,0.0856713950634,0.085540689528,0.6741553545,0.0984751805663,1582908092.53,0
2020/02/28/11:00:09.966153,11506,1582909209,966099339,vectornav,1266944427.91,2094,58118,-1.58045554161,-0.64059150219,-163.399429321,30.6730821774,-96.3728973532,85.5205768042,-0.00231036171317,-0.00856260489672,0.0986314415932,1.10425817966,0.0857703834772,0.0856397747993,0.674854397774,0.0987323820591,1582908092.53,0
2020/02/28/11:00:09.986232,11507,1582909209,986155196,vectornav,1266944427.93,2094,58118,-1.57781112194,-0.640558958054,-163.399505615,30.673082214,-96.3728972517,85.553871315,-0.00428261235356,-0.00548246037215,0.0944719612598,1.10456097126,0.0842856317759,0.0841530635953,0.665659964085,0.0948218181729,1582908092.53,0
2020/02/28/11:00:10.006243,11508,1582909210,6148181,vectornav,1266944427.95,2094,774,-1.57489657402,-0.640923917294,-163.398773193,30.6730822132,-96.3728972529,85.5519779216,-0.004290048033,-0.00575017370284,0.0948563665152,1.10480666161,0.0844167545438,0.0842847302556,0.666539788246,0.09515915066,1582908092.53,0
2020/02/28/11:00:10.026306,11509,1582909210,26178321,vectornav,1266944427.97,2094,774,-1.57233643532,-0.640219926834,-163.397964478,30.6730822125,-96.3728972541,85.5500873966,-0.00469829887152,-0.00590151362121,0.0947919785976,1.10505223274,0.0845479890704,0.0844159945846,0.667424201965,0.0954973176122,1582908092.53,0
2020/02/28/11:00:10.046318,11510,1582909210,46170262,vectornav,1266944427.99,2094,774,-1.5691845417,-0.640134811401,-163.397384644,30.6730822115,-96.3728972553,85.5481869753,-0.00502921268344,-0.00567612145096,0.0947254151106,1.10529780388,0.08467926085,0.0845472663641,0.668313324451,0.0958359390497,1582908092.53,0
2020/02/28/11:00:10.066164,11511,1582909210,66049545,vectornav,1266944428.01,2094,33542,-1.565787673,-0.640241801739,-163.397598267,30.6730822109,-96.3728972564,85.546295394,-0.00511484220624,-0.00492767710239,0.0947380885482,1.10554337502,0.0848106518388,0.084678851068,0.669207155704,0.0961749926209,1582908092.53,0
2020/02/28/11:00:10.087237,11512,1582909210,87142810,vectornav,1266944428.03,2094,33542,-1.56401360035,-0.639566659927,-163.397140503,30.67308221,-96.3728972576,85.5443914554,-0.00508416071534,-0.00417472561821,0.0951116234064,1.10578918457,0.0849420800805,0.0848106145859,0.670105814934,0.0965146049857,1582908092.53,0
2020/02/28/11:00:10.106194,11513,1582909210,106094126,vectornav,1266944428.05,2094,33542,-1.56127488613,-0.639683008194,-163.397018433,30.6730822083,-96.3728972584,85.5425330269,-0.00521014630795,-0.00363094685599,0.0951606929302,1.10603475571,0.0850736349821,0.0849423483014,0.671009242535,0.0968546569347,1582908092.53,0
2020/02/28/11:00:10.127186,11514,1582909210,127101403,vectornav,1266944428.07,2094,774,-1.55962717533,-0.640098154545,-163.396972656,30.6730822079,-96.3728972589,85.5405682374,-0.00516052916646,-0.0027383887209,0.0954949706793,1.10628020763,0.0852051973343,0.0850741118193,0.671917438507,0.097195468843,1582908092.53,0
2020/02/28/11:00:10.147130,11515,1582909210,147057856,vectornav,1266944428.09,2094,774,-1.55883920193,-0.639964997768,-163.39692688,30.6730822068,-96.3728972595,85.5386559836,-0.00500874593854,-0.00231814244762,0.096019513905,1.10652637482,0.0853369161487,0.0852059945464,0.67283052206,0.0975364297628,1582908092.53,0
2020/02/28/11:00:10.167105,11516,1582909210,167053422,vectornav,1266944428.11,2094,33542,-1.55880820751,-0.640132188797,-163.397079468,30.6730822056,-96.3728972604,85.5367829797,-0.0051961094141,-0.0018113926053,0.0963785350323,1.10677206516,0.0854686647654,0.085338011384,0.67374843359,0.0978782251477,1582908092.53,0
2020/02/28/11:00:10.187221,11517,1582909210,187117466,vectornav,1266944428.13,2094,33542,-1.5587515831,-0.639970242977,-163.397354126,30.6730823248,-96.3728972545,85.5727412629,-0.0026125870645,-0.0022964742966,0.0919912606478,1.10701501369,0.0840940028429,0.0839613601565,0.664716541767,0.0942214131355,1582908092.53,0
2020/02/28/11:00:10.207123,11518,1582909210,207033511,vectornav,1266944428.15,2094,33542,-1.56020021439,-0.640015900135,-163.39755249,30.6730823241,-96.3728972556,85.5708856572,-0.0026728361845,-0.00219267653301,0.0925688445568,1.10726106167,0.0842250362039,0.0840923860669,0.665586292744,0.0945583283901,1582908092.53,0
2020/02/28/11:00:10.227184,11519,1582909210,227114010,vectornav,1266944428.17,2094,774,-1.56213402748,-0.639697015285,-163.396987915,30.6730823234,-96.372897256,85.5690337816,-0.00290924310684,-0.00217406637967,0.0926959961653,1.10750722885,0.08435613662,0.0842236354947,0.666460692883,0.0948953330517,1582908092.53,0
2020/02/28/11:00:10.247106,11520,1582909210,247015886,vectornav,1266944428.19,2094,774,-1.56270289421,-0.640043020248,-163.396591187,30.6730823234,-96.3728972561,85.5672191047,-0.00316459685564,-0.00219815783203,0.0929198712111,1.10775315762,0.0844872817397,0.0843547657132,0.667339682579,0.0952332168818,1582908092.53,0
2020/02/28/11:00:10.267112,11521,1582909210,267031620,vectornav,1266944428.21,2094,774,-1.56390428543,-0.63989675045,-163.396087646,30.6730823226,-96.3728972573,85.5653361737,-0.0035082064569,-0.00241894600913,0.0932016223669,1.10799920559,0.0846185311675,0.0844864696264,0.668223321438,0.0955717563629,1582908092.53,0
2020/02/28/11:00:10.287100,11522,1582909210,287023051,vectornav,1266944428.23,2094,49926,-1.56458282471,-0.639560937881,-163.39553833,30.6730823217,-96.3728972575,85.5634646677,-0.00363082811236,-0.00262007815763,0.0932733416557,1.10824561119,0.0847498476505,0.0846181586385,0.669111669064,0.0959106236696,1582908092.53,0
2020/02/28/11:00:10.307079,11523,1582909210,307021615,vectornav,1266944428.25,2094,49926,-1.56454217434,-0.63991189003,-163.394515991,30.6730823215,-96.3728972582,85.5616639665,-0.00401918962598,-0.00301093840972,0.093304015696,1.10849177837,0.0848812609911,0.0847493261099,0.670004844666,0.0962503179908,1582908092.53,0
2020/02/28/11:00:10.327061,11524,1582909210,326984613,vectornav,1266944428.27,2094,31494,-1.56590521336,-0.640479624271,-163.394332886,30.67308232,-96.3728972581,85.5597657675,-0.004469987005,-0.00348204886541,0.0936011075974,1.10873842239,0.085012793541,0.0848813280463,0.670902729034,0.0965904518962,1582908092.53,0
2020/02/28/11:00:10.347098,11525,1582909210,347029961,vectornav,1266944428.29,2094,31494,-1.56676363945,-0.640572011471,-163.394119263,30.6730823197,-96.3728972591,85.5578791817,-0.00517420470715,-0.00384185230359,0.0940117835999,1.1089849472,0.0851443707943,0.0850133225322,0.671805381775,0.0969310030341,1582908092.53,0
2020/02/28/11:00:10.367157,11526,1582909210,367077247,vectornav,1266944428.31,2094,31494,-1.56723594666,-0.641200900078,-163.394378662,30.6730823187,-96.3728972597,85.55599699,-0.00575406849384,-0.00431843288243,0.0941153839231,1.10923135281,0.0852760225534,0.085144802928,0.672712802887,0.0972721874714,1582908092.53,0
2020/02/28/11:00:10.387105,11527,1582909210,387044051,vectornav,1266944428.33,2094,39686,-1.5674571991,-0.641198933125,-163.394775391,30.6730824069,-96.3728972423,85.5825106326,-0.00500886142254,-0.0050867209211,0.0921097919345,1.1094751358,0.0844888985157,0.0843568593264,0.665374040604,0.0951228514314,1582908092.53,0
2020/02/28/11:00:10.407101,11528,1582909210,407031201,vectornav,1266944428.35,2094,39686,-1.56768131256,-0.640986740589,-163.394241333,30.6730824065,-96.3728972439,85.5806245895,-0.00549153238535,-0.00517601147294,0.0920114666224,1.1097215414,0.0846201553941,0.0844881981611,0.666253328323,0.0954614132643,1582908092.53,0
2020/02/28/11:00:10.427107,11529,1582909210,427046325,vectornav,1266944428.37,2094,39686,-1.56741225719,-0.640412688255,-163.394104004,30.6730824052,-96.3728972451,85.5787766952,-0.00582598894835,-0.00513211824,0.0924946963787,1.10996818542,0.0847515314817,0.0846197456121,0.667137265205,0.0958006829023,1582908092.53,0
2020/02/28/11:00:10.447024,11530,1582909210,446936968,vectornav,1266944428.39,2094,774,-1.56725788116,-0.64010989666,-163.394012451,30.6730824043,-96.3728972463,85.5769185486,-0.0061290115118,-0.00532026868314,0.092894077301,1.11021494865,0.0848829448223,0.0847514644265,0.668025970459,0.0961404368281,1582908092.53,0
2020/02/28/11:00:10.467040,11531,1582909210,466938615,vectornav,1266944428.41,2094,774,-1.56679499149,-0.640167057514,-163.394638062,30.6730824033,-96.3728972475,85.5750640923,-0.0062930546701,-0.00569445081055,0.0928055346012,1.11046159267,0.0850144550204,0.0848830342293,0.668919444084,0.0964808836579,1582908092.53,0
2020/02/28/11:00:10.487029,11532,1582909210,486938769,vectornav,1266944428.43,2094,33542,-1.5653373003,-0.639002680779,-163.39503479,30.6730824019,-96.3728972492,85.5732887641,-0.00668788701296,-0.00614125747234,0.0928437262774,1.1107083559,0.0851460322738,0.0850148499012,0.669817745686,0.0968220680952,1582908092.53,0
2020/02/28/11:00:10.506996,11533,1582909210,506924384,vectornav,1266944428.45,2094,33542,-1.56541228294,-0.638817191124,-163.39503479,30.673082401,-96.37289725,85.5713445315,-0.00658964365721,-0.00649078097194,0.093033157289,1.11095499992,0.0852776989341,0.0851468145847,0.670720875263,0.0971635729074,1582908092.53,0
2020/02/28/11:00:10.527027,11534,1582909210,526934421,vectornav,1266944428.47,2094,33542,-1.56460416317,-0.638699650764,-163.395187378,30.6730823997,-96.372897251,85.5694668869,-0.00647009536624,-0.0067379809916,0.0932536497712,1.11120223999,0.0854094624519,0.0852787271142,0.671628832817,0.0975054949522,1582908092.53,0
2020/02/28/11:00:10.547082,11535,1582909210,547021349,vectornav,1266944428.49,2094,774,-1.56526219845,-0.639288544655,-163.394256592,30.6730823989,-96.3728972522,85.5676434305,-0.00656584277749,-0.00690807402134,0.0940265133977,1.11144924164,0.0855413153768,0.0854108333588,0.672541677952,0.0978483483195,1582908092.53,0
2020/02/28/11:00:10.566983,11536,1582909210,566931949,vectornav,1266944428.51,2094,774,-1.56488490105,-0.640053570271,-163.393493652,30.6730823969,-96.3728972537,85.5656042246,-0.00690392032266,-0.00695433001965,0.0941919758916,1.11163461208,0.0856402665377,0.0855101048946,0.673229515553,0.0981050655246,1582908092.53,0
2020/02/28/11:00:10.587053,11537,1582909210,586984283,vectornav,1266944428.53,2094,33542,-1.56387066841,-0.64070892334,-163.393096924,30.6730825068,-96.3728971939,85.5939553049,-0.00509826466441,-0.00534299854189,0.0915200188756,1.11194050312,0.0846409425139,0.0845088809729,0.665502250195,0.0954506397247,1582908092.53,0
2020/02/28/11:00:10.606981,11538,1582909210,606917936,vectornav,1266944428.55,2094,33542,-1.56270349026,-0.641083598137,-163.392547607,30.6730825062,-96.3728971949,85.5921320505,-0.00555946677923,-0.00517741683871,0.0916359573603,1.11218774319,0.084772311151,0.0846406295896,0.666384220123,0.0957903563976,1582908092.53,0
2020/02/28/11:00:10.626996,11539,1582909210,626921549,vectornav,1266944428.57,2094,33542,-1.56279730797,-0.641099989414,-163.391662598,30.6730825051,-96.3728971961,85.5903963417,-0.00597988814116,-0.00492370408028,0.0912645980716,1.11243450642,0.0849037393928,0.08477216959,0.667270958424,0.0961311012506,1582908092.53,0
2020/02/28/11:00:10.646944,11540,1582909210,646865978,vectornav,1266944428.59,2094,774,-1.56138885021,-0.640687346458,-163.39213562,30.6730825041,-96.3728971969,85.5884909109,-0.00644690915942,-0.0048639215529,0.0910694822669,1.1126819849,0.0850352495909,0.0849040225148,0.6681625247,0.0964718163013,1582908092.53,0
2020/02/28/11:00:10.667080,11541,1582909210,666973565,vectornav,1266944428.61,2094,774,-1.56003117561,-0.639615654945,-163.391967773,30.6730825025,-96.3728971984,85.5866443446,-0.00656936317682,-0.00488706957549,0.0914041176438,1.11292922497,0.0851668268442,0.0850353837013,0.669058859348,0.0968133211136,1582908092.53,0
2020/02/28/11:00:10.686995,11542,1582909210,686899526,vectornav,1266944428.63,2094,774,-1.56099319458,-0.638704180717,-163.392578125,30.673082501,-96.3728971994,85.584915481,-0.00664163380861,-0.00478180218488,0.0916909202933,1.11317670345,0.0852985605597,0.0851675271988,0.669960021973,0.0971553176641,1582908092.53,0
2020/02/28/11:00:10.706953,11543,1582909210,706903896,vectornav,1266944428.65,2094,33542,-1.56093764305,-0.638917922974,-163.393203735,30.6730825003,-96.3728971998,85.5830048607,-0.00667794793844,-0.00458613503724,0.0922533646226,1.11342430115,0.0854303091764,0.0852997004986,0.670866072178,0.0974973067641,1582908092.53,0
2020/02/28/11:00:10.726997,11544,1582909210,726879502,vectornav,1266944428.67,2094,33542,-1.5613963604,-0.639093399048,-163.393722534,30.6730824992,-96.3728972011,85.5811477534,-0.00652206689119,-0.00468491949141,0.0929074436426,1.11367177963,0.0855621546507,0.0854316204786,0.671776950359,0.0978394970298,1582908092.53,0
2020/02/28/11:00:10.746961,11545,1582909210,746853684,vectornav,1266944428.69,2094,774,-1.56267154217,-0.639866650105,-163.394195557,30.673082498,-96.3728972024,85.5792772109,-0.006607465446,-0.004870376084,0.0939385518432,1.1139190197,0.0856940448284,0.0855637863278,0.672692775726,0.0981824994087,1582908092.53,0
2020/02/28/11:00:10.766927,11546,1582909210,766861673,vectornav,1266944428.71,2094,774,-1.56291055679,-0.64012080431,-163.394180298,30.6730824956,-96.372897204,85.5773254905,-0.00665002316236,-0.00502925086766,0.0943236351013,1.11410462856,0.0857930332422,0.0856629312038,0.673382878304,0.0984401702881,1582908092.53,0
2020/02/28/11:00:10.786943,11547,1582909210,786840614,vectornav,1266944428.73,2094,774,-1.56212770939,-0.639959156513,-163.394348145,30.6730825903,-96.3728971652,85.6064355976,-0.00510117411613,-0.00483366381377,0.091796182096,1.11441123486,0.084913417697,0.0847820863128,0.666020095348,0.0961046814919,1582908092.53,0
2020/02/28/11:00:10.807038,11548,1582909210,806938157,vectornav,1266944428.75,2094,33542,-1.56189346313,-0.639768183231,-163.393554688,30.6730825903,-96.3728971667,85.6046076904,-0.00510171055794,-0.0053370129317,0.0919705033302,1.11465883255,0.0850449353456,0.0849137306213,0.666909456253,0.0964457988739,1582908092.53,0
2020/02/28/11:00:10.826913,11549,1582909210,826823477,vectornav,1266944428.77,2094,33542,-1.56126499176,-0.639664173126,-163.393447876,30.6730825893,-96.3728971678,85.6028314671,-0.00501562282443,-0.00585803203285,0.091964840889,1.11490666866,0.0851765424013,0.0850454643369,0.667803585529,0.0967872664332,1582908092.53,0
2020/02/28/11:00:10.846979,11550,1582909210,846919741,vectornav,1266944428.79,2094,33542,-1.56103360653,-0.639427661896,-163.393203735,30.6730825882,-96.3728971687,85.6008902651,-0.0053220205009,-0.00604717386886,0.0918554440141,1.11515462399,0.0853082388639,0.0851773396134,0.668702542782,0.0971297100186,1582908092.53,0
2020/02/28/11:00:10.866971,11551,1582909210,866895913,vectornav,1266944428.81,2094,774,-1.56112551689,-0.639771163464,-163.393081665,30.6730825869,-96.3728971702,85.5990805843,-0.00562477111816,-0.00613791216165,0.0917449519038,1.11540222168,0.0854399874806,0.0853093788028,0.669606387615,0.0974726453424,1582908092.53,0
2020/02/28/11:00:10.886959,11552,1582909210,886847696,vectornav,1266944428.83,2094,774,-1.55960822105,-0.639971256256,-163.39263916,30.6730825864,-96.3728971709,85.5972285521,-0.00573261082172,-0.00607863627374,0.0915616452694,1.11564981937,0.0855718106031,0.0854416266084,0.670515120029,0.0978158712387,1582908092.53,0
2020/02/28/11:00:10.906911,11553,1582909210,906812587,vectornav,1266944428.85,2094,33542,-1.55830132961,-0.640000283718,-163.391342163,30.6730825855,-96.3728971719,85.5954089509,-0.00601524859667,-0.00606530997902,0.0920034348965,1.11589765549,0.0857037603855,0.0855737179518,0.671428859234,0.0981595590711,1582908092.53,0
2020/02/28/11:00:10.926924,11554,1582909210,926826439,vectornav,1266944428.87,2094,33542,-1.55922651291,-0.639353454113,-163.390594482,30.6730825842,-96.3728971728,85.5935621354,-0.00652557238936,-0.00567785650492,0.0924787968397,1.11614584923,0.0858357772231,0.0857057273388,0.672347545624,0.0985038876534,1582908092.53,0
2020/02/28/11:00:10.946936,11555,1582909210,946833125,vectornav,1266944428.89,2094,33542,-1.55881655216,-0.63973814249,-163.390975952,30.6730825827,-96.3728971745,85.591689922,-0.00694002583623,-0.00559185538441,0.0923677682877,1.11639344692,0.0859678313136,0.0858379676938,0.673271179199,0.0988485962152,1582908092.53,0
2020/02/28/11:00:10.966922,11556,1582909210,966847345,vectornav,1266944428.91,2094,774,-1.55805158615,-0.639868974686,-163.390853882,30.6730825816,-96.3728971755,85.5898314733,-0.00723218917847,-0.00537391752005,0.0931676924229,1.11664175987,0.086100012064,0.085970453918,0.674200117588,0.0991937890649,1582908092.53,0
2020/02/28/11:00:10.986994,11557,1582909210,986888364,vectornav,1266944428.93,2094,774,-1.55794239044,-0.639716386795,-163.390853882,30.6730827002,-96.3728971477,85.6242599219,-0.00449466332793,-0.00516359880567,0.0900799036026,1.11688649654,0.08478654176,0.0846552476287,0.665553689003,0.0957828313112,1582908092.53,0
2020/02/28/11:00:11.006831,11558,1582909211,6776823,vectornav,1266944428.95,2094,33542,-1.5578815937,-0.638932049274,-163.390991211,30.6730826995,-96.3728971495,85.6224184874,-0.00452018156648,-0.00505101680756,0.0906351357698,1.11713457108,0.0849179625511,0.0847863852978,0.666438043118,0.0961228534579,1582908092.53,0
2020/02/28/11:00:11.026846,11559,1582909211,26783927,vectornav,1266944428.97,2094,33542,-1.55742847919,-0.638628602028,-163.391571045,30.6730826985,-96.3728971512,85.6206645195,-0.00455734878778,-0.00519916182384,0.0911665856838,1.11738300323,0.0850494876504,0.084918178618,0.667327105999,0.0964634865522,1582908092.53,0
2020/02/28/11:00:11.046944,11560,1582909211,46852281,vectornav,1266944428.99,2094,33542,-1.55813419819,-0.638527333736,-163.391616821,30.6730826972,-96.3728971518,85.6188627855,-0.00473966822028,-0.00522816786543,0.0915075838566,1.11763131618,0.0851810872555,0.0850499644876,0.668221056461,0.0968049019575,1582908092.53,0
