time,.header.seq,.header.stamp.secs,.header.stamp.nsecs,.header.frame_id,.current,.position
2020/02/28/11:32:47.601547,14864,1582911167,601438589,pacmod,0.134,2.248
2020/02/28/11:32:47.635761,14865,1582911167,635679752,pacmod,0.067,2.248
2020/02/28/11:32:47.668598,14866,1582911167,668529013,pacmod,0.252,2.248
2020/02/28/11:32:47.701191,14867,1582911167,701104807,pacmod,0.063,2.248
2020/02/28/11:32:47.734867,14868,1582911167,734822573,pacmod,0.131,2.248
2020/02/28/11:32:47.768837,14869,1582911167,768791692,pacmod,0.062,2.248
2020/02/28/11:32:47.801421,14870,1582911167,801365121,pacmod,0.063,2.248
2020/02/28/11:32:47.835756,14871,1582911167,835674974,pacmod,-0.063,2.248
2020/02/28/11:32:47.868228,14872,1582911167,868145141,pacmod,0.138,2.248
2020/02/28/11:32:47.902077,14873,1582911167,902030309,pacmod,0.195,2.248
2020/02/28/11:32:47.934971,14874,1582911167,934920167,pacmod,-0.057,2.248
2020/02/28/11:32:47.968842,14875,1582911167,968799046,pacmod,0.202,2.248
2020/02/28/11:32:48.002214,14876,1582911168,2171147,pacmod,0.062,2.248
2020/02/28/11:32:48.035745,14877,1582911168,35692795,pacmod,0.067,2.248
2020/02/28/11:32:48.069127,14878,1582911168,69044898,pacmod,0.064,2.248
2020/02/28/11:32:48.101981,14879,1582911168,101865808,pacmod,0.133,2.248
2020/02/28/11:32:48.136626,14880,1582911168,136564430,pacmod,0.193,2.248
2020/02/28/11:32:48.169575,14881,1582911168,169524647,pacmod,0.004,2.248
2020/02/28/11:32:48.203536,14882,1582911168,203464441,pacmod,0.127,2.248
2020/02/28/11:32:48.235818,14883,1582911168,235761183,pacmod,0.318,2.248
2020/02/28/11:32:48.270487,14884,1582911168,270433137,pacmod,0.191,2.248
2020/02/28/11:32:48.301886,14885,1582911168,301828810,pacmod,0.133,2.248
2020/02/28/11:32:48.335719,14886,1582911168,335660150,pacmod,0.0,2.248
2020/02/28/11:32:48.368728,14887,1582911168,368686727,pacmod,0.072,2.248
2020/02/28/11:32:48.402511,14888,1582911168,402423161,pacmod,0.197,2.248
2020/02/28/11:32:48.435496,14889,1582911168,435380008,pacmod,0.068,2.248
2020/02/28/11:32:48.469034,14890,1582911168,468982719,pacmod,0.129,2.248
2020/02/28/11:32:48.502827,14891,1582911168,502747262,pacmod,0.066,2.248
2020/02/28/11:32:48.536305,14892,1582911168,536200230,pacmod,-0.056,2.248
2020/02/28/11:32:48.569001,14893,1582911168,568906272,pacmod,0.131,2.248
2020/02/28/11:32:48.602212,14894,1582911168,602110073,pacmod,0.128,2.248
2020/02/28/11:32:48.635938,14895,1582911168,635863444,pacmod,0.073,2.248
2020/02/28/11:32:48.669022,14896,1582911168,668968893,pacmod,0.069,2.248
2020/02/28/11:32:48.703611,14897,1582911168,703514085,pacmod,0.446,2.248
2020/02/28/11:32:48.736408,14898,1582911168,736326658,pacmod,0.195,2.248
2020/02/28/11:32:48.768983,14899,1582911168,768935948,pacmod,0.252,2.248
2020/02/28/11:32:48.802771,14900,1582911168,802688729,pacmod,0.062,2.248
2020/02/28/11:32:48.836640,14901,1582911168,836591049,pacmod,0.126,2.248
2020/02/28/11:32:48.870455,14902,1582911168,870373818,pacmod,0.006,2.248
2020/02/28/11:32:48.903006,14903,1582911168,902919389,pacmod,-0.058,2.248
2020/02/28/11:32:48.936800,14904,1582911168,936732976,pacmod,0.066,2.248
2020/02/28/11:32:48.969480,14905,1582911168,969408981,pacmod,-0.007,2.248
2020/02/28/11:32:49.003794,14906,1582911169,3666500,pacmod,0.003,2.248
2020/02/28/11:32:49.036815,14907,1582911169,36764131,pacmod,0.0,2.248
2020/02/28/11:32:49.069246,14908,1582911169,69187091,pacmod,0.059,2.248
2020/02/28/11:32:49.103180,14909,1582911169,103122820,pacmod,0.067,2.248
2020/02/28/11:32:49.135928,14910,1582911169,135870504,pacmod,0.003,2.248
2020/02/28/11:32:49.169785,14911,1582911169,169735932,pacmod,0.068,2.248
2020/02/28/11:32:49.202725,14912,1582911169,202648953,pacmod,0.072,2.248
2020/02/28/11:32:49.236804,14913,1582911169,236734016,pacmod,0.255,2.248
2020/02/28/11:32:49.270675,14914,1582911169,270595420,pacmod,0.002,2.248
2020/02/28/11:32:49.303335,14915,1582911169,303275630,pacmod,0.003,2.248
2020/02/28/11:32:49.336477,14916,1582911169,336417784,pacmod,0.064,2.248
2020/02/28/11:32:49.370128,14917,1582911169,370037473,pacmod,0.003,2.248
2020/02/28/11:32:49.403708,14918,1582911169,403671558,pacmod,0.194,2.248
2020/02/28/11:32:49.436741,14919,1582911169,436695654,pacmod,0.127,2.248
2020/02/28/11:32:49.470788,14920,1582911169,470744439,pacmod,0.131,2.248
2020/02/28/11:32:49.504372,14921,1582911169,504331777,pacmod,0.131,2.248
2020/02/28/11:32:49.537221,14922,1582911169,537172577,pacmod,0.003,2.248
2020/02/28/11:32:49.570726,14923,1582911169,570677055,pacmod,0.256,2.248
2020/02/28/11:32:49.604936,14924,1582911169,604875859,pacmod,0.005,2.248
2020/02/28/11:32:49.637980,14925,1582911169,637918350,pacmod,0.064,2.248
2020/02/28/11:32:49.671006,14926,1582911169,670943874,pacmod,0.128,2.248
2020/02/28/11:32:49.703725,14927,1582911169,703649761,pacmod,0.07,2.248
2020/02/28/11:32:49.738154,14928,1582911169,738084138,pacmod,0.006,2.248
2020/02/28/11:32:49.771394,14929,1582911169,771314713,pacmod,0.07,2.248
2020/02/28/11:32:49.805139,14930,1582911169,805073492,pacmod,0.0,2.248
2020/02/28/11:32:49.839144,14931,1582911169,839044211,pacmod,0.003,2.248
2020/02/28/11:32:49.870889,14932,1582911169,870803104,pacmod,0.327,2.248
2020/02/28/11:32:49.904420,14933,1582911169,904351972,pacmod,-0.056,2.248
2020/02/28/11:32:49.938344,14934,1582911169,938251358,pacmod,0.256,2.248
2020/02/28/11:32:49.970882,14935,1582911169,970811456,pacmod,0.191,2.248
2020/02/28/11:32:50.006599,14936,1582911170,6472690,pacmod,0.126,2.248
2020/02/28/11:32:50.037357,14937,1582911170,37304321,pacmod,0.13,2.248
2020/02/28/11:32:50.072806,14938,1582911170,72641019,pacmod,0.0,2.248
2020/02/28/11:32:50.104600,14939,1582911170,104502567,pacmod,-0.424,2.248
2020/02/28/11:32:50.138608,14940,1582911170,138519700,pacmod,0.055,2.248
2020/02/28/11:32:50.171717,14941,1582911170,171621039,pacmod,0.24,2.249
2020/02/28/11:32:50.205829,14942,1582911170,205784265,pacmod,0.361,2.249
2020/02/28/11:32:50.238737,14943,1582911170,238659695,pacmod,0.559,2.25
2020/02/28/11:32:50.272465,14944,1582911170,272397196,pacmod,0.6,2.255
2020/02/28/11:32:50.305810,14945,1582911170,305760578,pacmod,0.553,2.256
2020/02/28/11:32:50.339058,14946,1582911170,338966496,pacmod,0.81,2.256
2020/02/28/11:32:50.372459,14947,1582911170,372323025,pacmod,0.843,2.257
2020/02/28/11:32:50.405306,14948,1582911170,405257444,pacmod,0.952,2.259
2020/02/28/11:32:50.438486,14949,1582911170,438411385,pacmod,1.267,2.262
2020/02/28/11:32:50.472567,14950,1582911170,472517383,pacmod,1.022,2.265
2020/02/28/11:32:50.506033,14951,1582911170,505904369,pacmod,0.955,2.265
2020/02/28/11:32:50.538928,14952,1582911170,538875908,pacmod,0.771,2.265
2020/02/28/11:32:50.573088,14953,1582911170,572965803,pacmod,0.557,2.265
2020/02/28/11:32:50.606070,14954,1582911170,605964565,pacmod,1.073,2.266
2020/02/28/11:32:50.639750,14955,1582911170,639700456,pacmod,1.16,2.267
2020/02/28/11:32:50.673091,14956,1582911170,672999223,pacmod,1.014,2.267
2020/02/28/11:32:50.706828,14957,1582911170,706754442,pacmod,0.617,2.267
2020/02/28/11:32:50.739670,14958,1582911170,739578072,pacmod,0.282,2.266
2020/02/28/11:32:50.773707,14959,1582911170,773645076,pacmod,0.745,2.266
2020/02/28/11:32:50.807731,14960,1582911170,807679953,pacmod,1.044,2.267
2020/02/28/11:32:50.840611,14961,1582911170,840540434,pacmod,1.167,2.268
2020/02/28/11:32:50.873120,14962,1582911170,873070965,pacmod,0.914,2.268
2020/02/28/11:32:50.907613,14963,1582911170,907533946,pacmod,0.509,2.268
2020/02/28/11:32:50.940644,14964,1582911170,940598197,pacmod,0.509,2.267
2020/02/28/11:32:50.973804,14965,1582911170,973754466,pacmod,0.749,2.267
2020/02/28/11:32:51.006981,14966,1582911171,6900294,pacmod,0.983,2.268
2020/02/28/11:32:51.040525,14967,1582911171,40476214,pacmod,1.168,2.268
2020/02/28/11:32:51.074186,14968,1582911171,74134367,pacmod,1.1,2.268
2020/02/28/11:32:51.107735,14969,1582911171,107642790,pacmod,0.932,2.268
2020/02/28/11:32:51.141144,14970,1582911171,141059951,pacmod,1.226,2.268
2020/02/28/11:32:51.174796,14971,1582911171,174734557,pacmod,1.404,2.269
2020/02/28/11:32:51.207641,14972,1582911171,207589143,pacmod,1.294,2.27
2020/02/28/11:32:51.241352,14973,1582911171,241283336,pacmod,1.175,2.272
2020/02/28/11:32:51.275126,14974,1582911171,275045167,pacmod,1.316,2.274
2020/02/28/11:32:51.307911,14975,1582911171,307864534,pacmod,1.282,2.275
2020/02/28/11:32:51.341965,14976,1582911171,341892542,pacmod,1.099,2.275
2020/02/28/11:32:51.375362,14977,1582911171,375304640,pacmod,1.189,2.276
2020/02/28/11:32:51.408864,14978,1582911171,408791260,pacmod,0.941,2.276
2020/02/28/11:32:51.440732,14979,1582911171,440663596,pacmod,1.236,2.276
2020/02/28/11:32:51.473580,14980,1582911171,473499965,pacmod,1.213,2.276
2020/02/28/11:32:51.507269,14981,1582911171,507225878,pacmod,1.066,2.278
2020/02/28/11:32:51.541217,14982,1582911171,541115047,pacmod,1.109,2.279
2020/02/28/11:32:51.574983,14983,1582911171,574938972,pacmod,1.352,2.28
2020/02/28/11:32:51.607799,14984,1582911171,607751167,pacmod,1.372,2.283
2020/02/28/11:32:51.641624,14985,1582911171,641559102,pacmod,1.383,2.287
2020/02/28/11:32:51.674358,14986,1582911171,674263662,pacmod,1.232,2.29
2020/02/28/11:32:51.708198,14987,1582911171,708140867,pacmod,1.344,2.296
2020/02/28/11:32:51.741378,14988,1582911171,741331982,pacmod,1.477,2.302
2020/02/28/11:32:51.775065,14989,1582911171,775017986,pacmod,1.359,2.309
2020/02/28/11:32:51.807709,14990,1582911171,807653828,pacmod,1.298,2.315
2020/02/28/11:32:51.841816,14991,1582911171,841687418,pacmod,1.151,2.32
2020/02/28/11:32:51.874635,14992,1582911171,874588182,pacmod,1.126,2.326
2020/02/28/11:32:51.908050,14993,1582911171,907975032,pacmod,1.137,2.33
2020/02/28/11:32:51.942098,14994,1582911171,942048455,pacmod,1.242,2.332
2020/02/28/11:32:51.975560,14995,1582911171,975407273,pacmod,1.009,2.333
2020/02/28/11:32:52.008923,14996,1582911172,8796967,pacmod,0.76,2.333
2020/02/28/11:32:52.042007,14997,1582911172,41912438,pacmod,0.761,2.333
2020/02/28/11:32:52.075705,14998,1582911172,75654161,pacmod,0.64,2.333
2020/02/28/11:32:52.108502,14999,1582911172,108379197,pacmod,1.002,2.333
2020/02/28/11:32:52.141817,15000,1582911172,141722884,pacmod,1.002,2.333
2020/02/28/11:32:52.175715,15001,1582911172,175626045,pacmod,1.002,2.333
2020/02/28/11:32:52.208229,15002,1582911172,208179526,pacmod,0.759,2.333
2020/02/28/11:32:52.242521,15003,1582911172,242479426,pacmod,0.822,2.333
2020/02/28/11:32:52.274951,15004,1582911172,274899035,pacmod,0.761,2.333
2020/02/28/11:32:52.308796,15005,1582911172,308745133,pacmod,0.821,2.333
2020/02/28/11:32:52.341666,15006,1582911172,341589296,pacmod,0.995,2.333
2020/02/28/11:32:52.375596,15007,1582911172,375531882,pacmod,0.881,2.333
2020/02/28/11:32:52.408267,15008,1582911172,408185443,pacmod,0.943,2.333
2020/02/28/11:32:52.442175,15009,1582911172,442095626,pacmod,0.697,2.333
2020/02/28/11:32:52.475127,15010,1582911172,475068913,pacmod,0.881,2.333
2020/02/28/11:32:52.508922,15011,1582911172,508842383,pacmod,1.002,2.333
2020/02/28/11:32:52.542701,15012,1582911172,542643415,pacmod,0.642,2.333
2020/02/28/11:32:52.575714,15013,1582911172,575669666,pacmod,0.82,2.333
2020/02/28/11:32:52.609538,15014,1582911172,609482664,pacmod,0.822,2.333
2020/02/28/11:32:52.643123,15015,1582911172,643037918,pacmod,0.875,2.333
2020/02/28/11:32:52.675503,15016,1582911172,675452556,pacmod,0.699,2.333
2020/02/28/11:32:52.710305,15017,1582911172,710178106,pacmod,0.521,2.333
2020/02/28/11:32:52.742782,15018,1582911172,742691584,pacmod,0.881,2.333
2020/02/28/11:32:52.776324,15019,1582911172,776260297,pacmod,0.823,2.333
2020/02/28/11:32:52.810024,15020,1582911172,809964437,pacmod,1.121,2.333
2020/02/28/11:32:52.843886,15021,1582911172,843792911,pacmod,0.82,2.333
2020/02/28/11:32:52.876724,15022,1582911172,876667916,pacmod,0.94,2.333
2020/02/28/11:32:52.908736,15023,1582911172,908689225,pacmod,0.82,2.333
2020/02/28/11:32:52.942370,15024,1582911172,942277801,pacmod,0.641,2.333
2020/02/28/11:32:52.976016,15025,1582911172,975948523,pacmod,0.817,2.333
2020/02/28/11:32:53.009143,15026,1582911173,9093163,pacmod,0.758,2.333
2020/02/28/11:32:53.043879,15027,1582911173,43778093,pacmod,0.825,2.333
2020/02/28/11:32:53.076447,15028,1582911173,76391055,pacmod,1.121,2.333
2020/02/28/11:32:53.109674,15029,1582911173,109553113,pacmod,1.423,2.333
2020/02/28/11:32:53.144431,15030,1582911173,144343004,pacmod,0.941,2.333
2020/02/28/11:32:53.177035,15031,1582911173,176968023,pacmod,0.879,2.333
2020/02/28/11:32:53.209976,15032,1582911173,209871432,pacmod,0.761,2.333
2020/02/28/11:32:53.243791,15033,1582911173,243729755,pacmod,0.759,2.333
2020/02/28/11:32:53.277596,15034,1582911173,277518914,pacmod,0.881,2.333
2020/02/28/11:32:53.310364,15035,1582911173,310313482,pacmod,1.0,2.333
2020/02/28/11:32:53.344229,15036,1582911173,344141080,pacmod,0.88,2.333
2020/02/28/11:32:53.376878,15037,1582911173,376776054,pacmod,0.94,2.333
2020/02/28/11:32:53.410625,15038,1582911173,410512700,pacmod,0.94,2.334
2020/02/28/11:32:53.443291,15039,1582911173,443243502,pacmod,0.989,2.335
2020/02/28/11:32:53.477506,15040,1582911173,477461707,pacmod,1.293,2.335
2020/02/28/11:32:53.511466,15041,1582911173,511379879,pacmod,1.252,2.336
2020/02/28/11:32:53.543728,15042,1582911173,543617604,pacmod,1.013,2.336
2020/02/28/11:32:53.577051,15043,1582911173,576994422,pacmod,1.143,2.336
2020/02/28/11:32:53.610865,15044,1582911173,610792400,pacmod,0.947,2.337
2020/02/28/11:32:53.643622,15045,1582911173,643569190,pacmod,0.96,2.337
2020/02/28/11:32:53.678288,15046,1582911173,678240973,pacmod,1.012,2.337
2020/02/28/11:32:53.710479,15047,1582911173,710417195,pacmod,1.409,2.337
2020/02/28/11:32:53.743827,15048,1582911173,743764788,pacmod,1.133,2.338
2020/02/28/11:32:53.777832,15049,1582911173,777768067,pacmod,0.724,2.337
2020/02/28/11:32:53.811488,15050,1582911173,811358913,pacmod,0.592,2.337
2020/02/28/11:32:53.844620,15051,1582911173,844543096,pacmod,0.497,2.337
2020/02/28/11:32:53.877329,15052,1582911173,877205119,pacmod,0.508,2.338
2020/02/28/11:32:53.911476,15053,1582911173,911384499,pacmod,0.792,2.338
2020/02/28/11:32:53.944685,15054,1582911173,944629583,pacmod,0.574,2.338
2020/02/28/11:32:53.977702,15055,1582911173,977637921,pacmod,-0.013,2.337
2020/02/28/11:32:54.011546,15056,1582911174,11473949,pacmod,0.076,2.335
2020/02/28/11:32:54.044390,15057,1582911174,44300719,pacmod,0.251,2.334
2020/02/28/11:32:54.077423,15058,1582911174,77378168,pacmod,0.181,2.333
2020/02/28/11:32:54.111516,15059,1582911174,111453622,pacmod,0.11,2.332
2020/02/28/11:32:54.145670,15060,1582911174,145567347,pacmod,0.048,2.328
2020/02/28/11:32:54.178945,15061,1582911174,178874305,pacmod,0.221,2.327
2020/02/28/11:32:54.212443,15062,1582911174,212351783,pacmod,-0.067,2.327
2020/02/28/11:32:54.244672,15063,1582911174,244588129,pacmod,-0.125,2.327
2020/02/28/11:32:54.278425,15064,1582911174,278367775,pacmod,0.008,2.327
2020/02/28/11:32:54.312717,15065,1582911174,312636185,pacmod,-0.018,2.327
2020/02/28/11:32:54.345194,15066,1582911174,345105251,pacmod,0.081,2.327
2020/02/28/11:32:54.379846,15067,1582911174,379792128,pacmod,0.041,2.325
2020/02/28/11:32:54.412054,15068,1582911174,411998125,pacmod,-0.031,2.324
2020/02/28/11:32:54.445806,15069,1582911174,445742748,pacmod,0.033,2.323
2020/02/28/11:32:54.478343,15070,1582911174,478275910,pacmod,0.001,2.322
2020/02/28/11:32:54.512136,15071,1582911174,512087937,pacmod,0.032,2.322
2020/02/28/11:32:54.544964,15072,1582911174,544883850,pacmod,-0.054,2.321
2020/02/28/11:32:54.578847,15073,1582911174,578802089,pacmod,-0.047,2.32
2020/02/28/11:32:54.612043,15074,1582911174,611973906,pacmod,-0.042,2.318
2020/02/28/11:32:54.644685,15075,1582911174,644638191,pacmod,0.003,2.312
2020/02/28/11:32:54.678603,15076,1582911174,678529245,pacmod,-0.121,2.305
2020/02/28/11:32:54.711478,15077,1582911174,711418268,pacmod,-0.152,2.299
2020/02/28/11:32:54.745254,15078,1582911174,745124314,pacmod,-0.242,2.293
2020/02/28/11:32:54.779034,15079,1582911174,778966746,pacmod,0.016,2.287
2020/02/28/11:32:54.812184,15080,1582911174,812095506,pacmod,-0.067,2.284
2020/02/28/11:32:54.845387,15081,1582911174,845337798,pacmod,0.228,2.282
2020/02/28/11:32:54.878510,15082,1582911174,878463603,pacmod,-0.198,2.281
2020/02/28/11:32:54.912340,15083,1582911174,912281189,pacmod,-0.377,2.276
2020/02/28/11:32:54.946257,15084,1582911174,946213380,pacmod,-0.344,2.265
2020/02/28/11:32:54.979957,15085,1582911174,979898528,pacmod,-0.523,2.255
2020/02/28/11:32:55.012954,15086,1582911175,12862404,pacmod,-0.293,2.234
2020/02/28/11:32:55.046298,15087,1582911175,46213476,pacmod,-0.777,2.21
2020/02/28/11:32:55.081065,15088,1582911175,80979482,pacmod,-1.134,2.191
2020/02/28/11:32:55.113701,15089,1582911175,113647920,pacmod,-0.881,2.168
2020/02/28/11:32:55.146399,15090,1582911175,146344149,pacmod,-0.936,2.151
2020/02/28/11:32:55.180113,15091,1582911175,180068252,pacmod,-0.946,2.128
2020/02/28/11:32:55.214053,15092,1582911175,213971367,pacmod,-0.807,2.108
2020/02/28/11:32:55.246881,15093,1582911175,246821780,pacmod,-0.651,2.095
2020/02/28/11:32:55.280703,15094,1582911175,280589368,pacmod,-0.408,2.081
2020/02/28/11:32:55.313971,15095,1582911175,313898209,pacmod,-0.448,2.069
2020/02/28/11:32:55.347155,15096,1582911175,347103938,pacmod,-0.201,2.06
2020/02/28/11:32:55.381170,15097,1582911175,381082478,pacmod,-0.431,2.045
2020/02/28/11:32:55.414571,15098,1582911175,414489517,pacmod,-0.392,2.028
2020/02/28/11:32:55.447852,15099,1582911175,447791385,pacmod,-0.1,2.012
2020/02/28/11:32:55.480517,15100,1582911175,480428803,pacmod,-1.457,1.993
2020/02/28/11:32:55.514374,15101,1582911175,514304325,pacmod,-0.423,1.977
2020/02/28/11:32:55.547402,15102,1582911175,547346859,pacmod,-0.557,1.961
2020/02/28/11:32:55.580340,15103,1582911175,580235168,pacmod,-0.133,1.948
2020/02/28/11:32:55.614201,15104,1582911175,614105979,pacmod,-0.975,1.938
2020/02/28/11:32:55.648031,15105,1582911175,647980852,pacmod,-1.121,1.921
2020/02/28/11:32:55.681207,15106,1582911175,681123550,pacmod,-0.663,1.909
2020/02/28/11:32:55.714482,15107,1582911175,714428387,pacmod,-0.523,1.901
2020/02/28/11:32:55.748552,15108,1582911175,748506159,pacmod,-0.818,1.894
2020/02/28/11:32:55.780636,15109,1582911175,780568397,pacmod,-0.963,1.889
2020/02/28/11:32:55.815001,15110,1582911175,814937533,pacmod,-1.211,1.886
2020/02/28/11:32:55.847999,15111,1582911175,847953212,pacmod,-1.042,1.883
2020/02/28/11:32:55.883072,15112,1582911175,883010492,pacmod,-0.643,1.883
2020/02/28/11:32:55.915139,15113,1582911175,915091991,pacmod,-0.684,1.883
2020/02/28/11:32:55.948368,15114,1582911175,948315594,pacmod,-0.863,1.882
2020/02/28/11:32:55.982515,15115,1582911175,982440762,pacmod,-0.553,1.876
2020/02/28/11:32:56.015282,15116,1582911176,15206448,pacmod,-0.328,1.864
2020/02/28/11:32:56.048586,15117,1582911176,48472850,pacmod,-0.82,1.852
2020/02/28/11:32:56.081756,15118,1582911176,81704264,pacmod,-1.247,1.826
2020/02/28/11:32:56.114251,15119,1582911176,114184076,pacmod,-1.027,1.8
2020/02/28/11:32:56.148248,15120,1582911176,148156924,pacmod,-1.467,1.779
2020/02/28/11:32:56.181235,15121,1582911176,181165577,pacmod,-0.992,1.752
2020/02/28/11:32:56.214442,15122,1582911176,214393625,pacmod,-0.965,1.726
2020/02/28/11:32:56.248461,15123,1582911176,248411826,pacmod,-1.084,1.708
2020/02/28/11:32:56.282299,15124,1582911176,282199148,pacmod,-1.241,1.683
2020/02/28/11:32:56.314646,15125,1582911176,314556410,pacmod,-0.844,1.665
2020/02/28/11:32:56.348357,15126,1582911176,348311168,pacmod,-1.183,1.642
2020/02/28/11:32:56.381798,15127,1582911176,381752016,pacmod,-0.787,1.626
2020/02/28/11:32:56.414869,15128,1582911176,414815463,pacmod,-0.78,1.615
2020/02/28/11:32:56.448807,15129,1582911176,448755509,pacmod,-1.002,1.605
2020/02/28/11:32:56.481662,15130,1582911176,481611536,pacmod,-1.121,1.6
2020/02/28/11:32:56.514846,15131,1582911176,514798085,pacmod,-0.919,1.6
2020/02/28/11:32:56.548764,15132,1582911176,548724059,pacmod,-0.584,1.598
2020/02/28/11:32:56.581823,15133,1582911176,581703831,pacmod,-0.719,1.596
2020/02/28/11:32:56.615355,15134,1582911176,615285039,pacmod,-0.476,1.596
2020/02/28/11:32:56.648475,15135,1582911176,648423735,pacmod,-0.237,1.595
2020/02/28/11:32:56.681972,15136,1582911176,681920327,pacmod,0.138,1.595
2020/02/28/11:32:56.715669,15137,1582911176,715593846,pacmod,-0.154,1.594
2020/02/28/11:32:56.748932,15138,1582911176,748855820,pacmod,0.353,1.594
2020/02/28/11:32:56.781579,15139,1582911176,781500495,pacmod,0.299,1.594
2020/02/28/11:32:56.815284,15140,1582911176,815232716,pacmod,0.176,1.594
2020/02/28/11:32:56.848618,15141,1582911176,848574955,pacmod,0.3,1.594
2020/02/28/11:32:56.882369,15142,1582911176,882311362,pacmod,0.116,1.594
2020/02/28/11:32:56.915314,15143,1582911176,915259760,pacmod,0.352,1.594
2020/02/28/11:32:56.948286,15144,1582911176,948223017,pacmod,0.057,1.594
2020/02/28/11:32:56.982148,15145,1582911176,982073338,pacmod,0.053,1.594
2020/02/28/11:32:57.015238,15146,1582911177,15186632,pacmod,0.175,1.594
2020/02/28/11:32:57.049293,15147,1582911177,49222158,pacmod,0.242,1.594
2020/02/28/11:32:57.082617,15148,1582911177,82534833,pacmod,0.054,1.594
2020/02/28/11:32:57.115889,15149,1582911177,115784594,pacmod,0.231,1.595
2020/02/28/11:32:57.150125,15150,1582911177,150077937,pacmod,-0.08,1.596
2020/02/28/11:32:57.182968,15151,1582911177,182889436,pacmod,0.237,1.596
2020/02/28/11:32:57.216523,15152,1582911177,216468922,pacmod,0.538,1.596
2020/02/28/11:32:57.250869,15153,1582911177,250805885,pacmod,0.11,1.596
2020/02/28/11:32:57.284033,15154,1582911177,283986899,pacmod,0.172,1.597
2020/02/28/11:32:57.316318,15155,1582911177,316252784,pacmod,0.22,1.597
2020/02/28/11:32:57.350237,15156,1582911177,350158300,pacmod,0.354,1.596
2020/02/28/11:32:57.383653,15157,1582911177,383586568,pacmod,-0.006,1.596
2020/02/28/11:32:57.416867,15158,1582911177,416771464,pacmod,0.238,1.596
2020/02/28/11:32:57.450194,15159,1582911177,450126838,pacmod,-0.01,1.596
2020/02/28/11:32:57.484101,15160,1582911177,484041712,pacmod,0.181,1.596
2020/02/28/11:32:57.517374,15161,1582911177,517249127,pacmod,0.235,1.596
2020/02/28/11:32:57.550009,15162,1582911177,549962181,pacmod,-0.002,1.596
2020/02/28/11:32:57.583962,15163,1582911177,583913300,pacmod,0.17,1.596
2020/02/28/11:32:57.616630,15164,1582911177,616584072,pacmod,0.098,1.597
2020/02/28/11:32:57.650487,15165,1582911177,650424440,pacmod,0.352,1.597
2020/02/28/11:32:57.683973,15166,1582911177,683891484,pacmod,0.001,1.598
2020/02/28/11:32:57.716553,15167,1582911177,716500728,pacmod,-0.071,1.6
2020/02/28/11:32:57.749972,15168,1582911177,749929832,pacmod,0.102,1.604
2020/02/28/11:32:57.783762,15169,1582911177,783717677,pacmod,-0.1,1.609
2020/02/28/11:32:57.816521,15170,1582911177,816456791,pacmod,0.071,1.613
2020/02/28/11:32:57.850396,15171,1582911177,850312070,pacmod,0.094,1.616
2020/02/28/11:32:57.883410,15172,1582911177,883328304,pacmod,-0.033,1.623
2020/02/28/11:32:57.916510,15173,1582911177,916464102,pacmod,-0.093,1.632
2020/02/28/11:32:57.950005,15174,1582911177,949961128,pacmod,-0.118,1.635
2020/02/28/11:32:57.984674,15175,1582911177,984617106,pacmod,0.045,1.636
2020/02/28/11:32:58.017508,15176,1582911178,17432110,pacmod,0.049,1.635
2020/02/28/11:32:58.050749,15177,1582911178,50670002,pacmod,0.17,1.636
2020/02/28/11:32:58.083616,15178,1582911178,83540196,pacmod,0.647,1.639
2020/02/28/11:32:58.117404,15179,1582911178,117349197,pacmod,0.477,1.642
2020/02/28/11:32:58.150941,15180,1582911178,150892969,pacmod,0.116,1.647
2020/02/28/11:32:58.184488,15181,1582911178,184352901,pacmod,-0.087,1.652
2020/02/28/11:32:58.217311,15182,1582911178,217191184,pacmod,-0.133,1.657
2020/02/28/11:32:58.251698,15183,1582911178,251643649,pacmod,-0.342,1.668
2020/02/28/11:32:58.283780,15184,1582911178,283699077,pacmod,0.804,1.679
2020/02/28/11:32:58.317462,15185,1582911178,317394375,pacmod,0.541,1.693
2020/02/28/11:32:58.351911,15186,1582911178,351857383,pacmod,0.546,1.709
2020/02/28/11:32:58.384484,15187,1582911178,384434709,pacmod,0.099,1.721
2020/02/28/11:32:58.417156,15188,1582911178,417071936,pacmod,0.155,1.744
2020/02/28/11:32:58.451112,15189,1582911178,451048721,pacmod,0.782,1.768
2020/02/28/11:32:58.483879,15190,1582911178,483829239,pacmod,1.118,1.787
2020/02/28/11:32:58.518128,15191,1582911178,518049975,pacmod,1.176,1.812
2020/02/28/11:32:58.551308,15192,1582911178,551259217,pacmod,1.313,1.83
2020/02/28/11:32:58.585154,15193,1582911178,585101909,pacmod,0.77,1.855
2020/02/28/11:32:58.617747,15194,1582911178,617702205,pacmod,1.473,1.877
2020/02/28/11:32:58.651642,15195,1582911178,651584150,pacmod,1.635,1.896
2020/02/28/11:32:58.684584,15196,1582911178,684496172,pacmod,1.145,1.93
2020/02/28/11:32:58.718658,15197,1582911178,718553394,pacmod,1.747,1.973
2020/02/28/11:32:58.752720,15198,1582911178,752657013,pacmod,2.117,2.009
2020/02/28/11:32:58.785632,15199,1582911178,785566016,pacmod,2.161,2.06
2020/02/28/11:32:58.818326,15200,1582911178,818279658,pacmod,2.014,2.112
2020/02/28/11:32:58.852082,15201,1582911178,852011670,pacmod,2.321,2.151
2020/02/28/11:32:58.885991,15202,1582911178,885939194,pacmod,2.062,2.203
2020/02/28/11:32:58.919407,15203,1582911178,919350988,pacmod,2.465,2.238
2020/02/28/11:32:58.953109,15204,1582911178,953047403,pacmod,2.695,2.28
2020/02/28/11:32:58.986320,15205,1582911178,986266693,pacmod,2.989,2.317
2020/02/28/11:32:59.020418,15206,1582911179,20329400,pacmod,3.234,2.343
2020/02/28/11:32:59.053388,15207,1582911179,53333899,pacmod,2.041,2.375
2020/02/28/11:32:59.085462,15208,1582911179,85404921,pacmod,1.962,2.408
2020/02/28/11:32:59.119621,15209,1582911179,119578214,pacmod,2.16,2.431
2020/02/28/11:32:59.152115,15210,1582911179,152055329,pacmod,2.352,2.459
2020/02/28/11:32:59.185450,15211,1582911179,185403953,pacmod,1.622,2.48
2020/02/28/11:32:59.219097,15212,1582911179,219041056,pacmod,2.096,2.511
2020/02/28/11:32:59.252920,15213,1582911179,252835993,pacmod,2.551,2.543
2020/02/28/11:32:59.285705,15214,1582911179,285651703,pacmod,2.102,2.568
2020/02/28/11:32:59.319951,15215,1582911179,319889251,pacmod,1.995,2.606
2020/02/28/11:32:59.353092,15216,1582911179,353011296,pacmod,2.183,2.651
2020/02/28/11:32:59.386508,15217,1582911179,386433753,pacmod,2.577,2.684
2020/02/28/11:32:59.419546,15218,1582911179,419487475,pacmod,2.474,2.722
2020/02/28/11:32:59.453481,15219,1582911179,453361727,pacmod,1.743,2.756
2020/02/28/11:32:59.487276,15220,1582911179,487180616,pacmod,2.33,2.783
2020/02/28/11:32:59.520692,15221,1582911179,520616490,pacmod,1.867,2.822
2020/02/28/11:32:59.553391,15222,1582911179,553330696,pacmod,1.321,2.849
2020/02/28/11:32:59.587233,15223,1582911179,587120017,pacmod,1.361,2.886
2020/02/28/11:32:59.620972,15224,1582911179,620824862,pacmod,2.015,2.919
2020/02/28/11:32:59.653755,15225,1582911179,653635786,pacmod,2.579,2.936
2020/02/28/11:32:59.687066,15226,1582911179,687000902,pacmod,2.227,2.947
2020/02/28/11:32:59.720797,15227,1582911179,720736186,pacmod,0.969,2.946
2020/02/28/11:32:59.754245,15228,1582911179,754171684,pacmod,1.265,2.946
2020/02/28/11:32:59.787575,15229,1582911179,787524712,pacmod,0.429,2.948
2020/02/28/11:32:59.820344,15230,1582911179,820304804,pacmod,0.647,2.949
2020/02/28/11:32:59.854194,15231,1582911179,854147320,pacmod,0.656,2.953
2020/02/28/11:32:59.887049,15232,1582911179,886970132,pacmod,0.795,2.959
2020/02/28/11:32:59.921246,15233,1582911179,921194830,pacmod,0.559,2.961
2020/02/28/11:32:59.953966,15234,1582911179,953904501,pacmod,0.629,2.961
2020/02/28/11:32:59.987893,15235,1582911179,987741120,pacmod,0.218,2.96
2020/02/28/11:33:00.021592,15236,1582911180,21501640,pacmod,0.068,2.959
2020/02/28/11:33:00.054209,15237,1582911180,54159688,pacmod,0.07,2.959
2020/02/28/11:33:00.087853,15238,1582911180,87812327,pacmod,0.033,2.958
2020/02/28/11:33:00.121886,15239,1582911180,121810492,pacmod,-0.052,2.955
2020/02/28/11:33:00.156014,15240,1582911180,155965074,pacmod,-0.035,2.949
2020/02/28/11:33:00.188049,15241,1582911180,188002327,pacmod,-0.095,2.94
2020/02/28/11:33:00.222031,15242,1582911180,221976755,pacmod,-0.295,2.925
2020/02/28/11:33:00.255370,15243,1582911180,255280054,pacmod,-0.092,2.9
2020/02/28/11:33:00.289157,15244,1582911180,289112601,pacmod,-0.054,2.88
2020/02/28/11:33:00.322506,15245,1582911180,322382902,pacmod,0.397,2.856
2020/02/28/11:33:00.356373,15246,1582911180,356282472,pacmod,0.065,2.842
2020/02/28/11:33:00.389219,15247,1582911180,389128837,pacmod,-0.001,2.835
2020/02/28/11:33:00.423342,15248,1582911180,423268597,pacmod,0.081,2.832
2020/02/28/11:33:00.455444,15249,1582911180,455389341,pacmod,0.04,2.833
2020/02/28/11:33:00.489671,15250,1582911180,489580182,pacmod,0.038,2.833
2020/02/28/11:33:00.523028,15251,1582911180,522971284,pacmod,0.019,2.833
2020/02/28/11:33:00.555466,15252,1582911180,555418889,pacmod,0.016,2.833
2020/02/28/11:33:00.590463,15253,1582911180,590411177,pacmod,0.16,2.833
2020/02/28/11:33:00.623528,15254,1582911180,623486670,pacmod,0.072,2.837
2020/02/28/11:33:00.655283,15255,1582911180,655238339,pacmod,0.677,2.838
2020/02/28/11:33:00.688589,15256,1582911180,688511935,pacmod,1.323,2.842
2020/02/28/11:33:00.722477,15257,1582911180,722390428,pacmod,1.525,2.851
2020/02/28/11:33:00.754951,15258,1582911180,754899786,pacmod,2.156,2.877
2020/02/28/11:33:00.788672,15259,1582911180,788583009,pacmod,2.679,2.924
2020/02/28/11:33:00.822208,15260,1582911180,822092719,pacmod,3.199,2.975
2020/02/28/11:33:00.855070,15261,1582911180,855018057,pacmod,3.039,3.071
2020/02/28/11:33:00.888769,15262,1582911180,888717135,pacmod,3.018,3.184
2020/02/28/11:33:00.922555,15263,1582911180,922445613,pacmod,3.253,3.271
2020/02/28/11:33:00.955399,15264,1582911180,955344094,pacmod,3.724,3.382
2020/02/28/11:33:00.988725,15265,1582911180,988634016,pacmod,3.079,3.458
2020/02/28/11:33:01.023115,15266,1582911181,23061434,pacmod,2.593,3.55
2020/02/28/11:33:01.055599,15267,1582911181,55552661,pacmod,2.366,3.626
2020/02/28/11:33:01.089696,15268,1582911181,89623523,pacmod,3.888,3.674
2020/02/28/11:33:01.122287,15269,1582911181,122209676,pacmod,3.652,3.767
2020/02/28/11:33:01.156750,15270,1582911181,156654650,pacmod,3.173,3.894
2020/02/28/11:33:01.188818,15271,1582911181,188768847,pacmod,3.638,3.99
2020/02/28/11:33:01.222726,15272,1582911181,222639624,pacmod,3.847,4.115
2020/02/28/11:33:01.256398,15273,1582911181,256309718,pacmod,4.156,4.239
2020/02/28/11:33:01.289380,15274,1582911181,289324475,pacmod,4.872,4.333
2020/02/28/11:33:01.323385,15275,1582911181,323333420,pacmod,5.845,4.46
2020/02/28/11:33:01.355796,15276,1582911181,355706624,pacmod,5.983,4.552
2020/02/28/11:33:01.389569,15277,1582911181,389513561,pacmod,6.179,4.668
2020/02/28/11:33:01.422430,15278,1582911181,422381541,pacmod,6.266,4.781
2020/02/28/11:33:01.456776,15279,1582911181,456624698,pacmod,6.107,4.866
2020/02/28/11:33:01.489484,15280,1582911181,489434343,pacmod,7.338,4.968
2020/02/28/11:33:01.523157,15281,1582911181,523071722,pacmod,7.569,5.071
2020/02/28/11:33:01.556456,15282,1582911181,556409189,pacmod,7.999,5.151
2020/02/28/11:33:01.589701,15283,1582911181,589583975,pacmod,7.905,5.268
2020/02/28/11:33:01.622524,15284,1582911181,622431910,pacmod,7.856,5.36
2020/02/28/11:33:01.656223,15285,1582911181,656163364,pacmod,8.332,5.489
2020/02/28/11:33:01.689161,15286,1582911181,689084746,pacmod,8.841,5.623
2020/02/28/11:33:01.722920,15287,1582911181,722848722,pacmod,9.322,5.726
2020/02/28/11:33:01.756527,15288,1582911181,756425648,pacmod,8.754,5.871
2020/02/28/11:33:01.789586,15289,1582911181,789511799,pacmod,8.014,5.978
2020/02/28/11:33:01.823735,15290,1582911181,823680181,pacmod,7.677,6.109
2020/02/28/11:33:01.857026,15291,1582911181,856935649,pacmod,6.892,6.221
2020/02/28/11:33:01.890132,15292,1582911181,890068449,pacmod,6.226,6.29
2020/02/28/11:33:01.923798,15293,1582911181,923748106,pacmod,5.507,6.362
2020/02/28/11:33:01.957240,15294,1582911181,957162969,pacmod,5.084,6.413
2020/02/28/11:33:01.990167,15295,1582911181,990116456,pacmod,5.283,6.44
2020/02/28/11:33:02.023489,15296,1582911182,23415847,pacmod,5.272,6.465
2020/02/28/11:33:02.057632,15297,1582911182,57576420,pacmod,5.054,6.482
2020/02/28/11:33:02.090847,15298,1582911182,90747701,pacmod,4.495,6.49
2020/02/28/11:33:02.124385,15299,1582911182,124334329,pacmod,3.862,6.497
2020/02/28/11:33:02.156770,15300,1582911182,156711351,pacmod,3.925,6.5
2020/02/28/11:33:02.189592,15301,1582911182,189491902,pacmod,3.673,6.501
2020/02/28/11:33:02.223175,15302,1582911182,223090188,pacmod,2.896,6.501
2020/02/28/11:33:02.256294,15303,1582911182,256246716,pacmod,3.501,6.504
2020/02/28/11:33:02.290289,15304,1582911182,290208695,pacmod,3.943,6.513
2020/02/28/11:33:02.323988,15305,1582911182,323929737,pacmod,4.575,6.53
2020/02/28/11:33:02.357204,15306,1582911182,357149734,pacmod,4.406,6.548
2020/02/28/11:33:02.390363,15307,1582911182,390318965,pacmod,3.721,6.578
2020/02/28/11:33:02.423913,15308,1582911182,423867977,pacmod,3.818,6.599
2020/02/28/11:33:02.457366,15309,1582911182,457310714,pacmod,4.45,6.631
2020/02/28/11:33:02.490581,15310,1582911182,490525915,pacmod,4.129,6.662
2020/02/28/11:33:02.523983,15311,1582911182,523867437,pacmod,4.07,6.688
2020/02/28/11:33:02.556764,15312,1582911182,556704672,pacmod,4.403,6.731
2020/02/28/11:33:02.590382,15313,1582911182,590334727,pacmod,4.158,6.775
2020/02/28/11:33:02.624197,15314,1582911182,624110722,pacmod,4.285,6.81
2020/02/28/11:33:02.657639,15315,1582911182,657530254,pacmod,4.169,6.856
2020/02/28/11:33:02.690217,15316,1582911182,690169680,pacmod,4.03,6.893
2020/02/28/11:33:02.723189,15317,1582911182,723132591,pacmod,4.117,6.94
2020/02/28/11:33:02.756416,15318,1582911182,756354038,pacmod,4.677,6.989
2020/02/28/11:33:02.789885,15319,1582911182,789832891,pacmod,4.705,7.029
2020/02/28/11:33:02.823734,15320,1582911182,823645610,pacmod,4.661,7.083
2020/02/28/11:33:02.857484,15321,1582911182,857398765,pacmod,4.564,7.141
2020/02/28/11:33:02.890256,15322,1582911182,890205136,pacmod,4.974,7.188
2020/02/28/11:33:02.923561,15323,1582911182,923489324,pacmod,5.6,7.256
2020/02/28/11:33:02.956441,15324,1582911182,956404140,pacmod,4.976,7.31
2020/02/28/11:33:02.990310,15325,1582911182,990223057,pacmod,4.342,7.387
2020/02/28/11:33:03.024058,15326,1582911183,24010263,pacmod,5.504,7.468
2020/02/28/11:33:03.056921,15327,1582911183,56822874,pacmod,5.724,7.534
2020/02/28/11:33:03.089770,15328,1582911183,89724533,pacmod,6.067,7.622
2020/02/28/11:33:03.123605,15329,1582911183,123560320,pacmod,6.183,7.711
2020/02/28/11:33:03.156334,15330,1582911183,156282496,pacmod,6.591,7.779
2020/02/28/11:33:03.191237,15331,1582911183,191155765,pacmod,7.301,7.869
2020/02/28/11:33:03.224020,15332,1582911183,223973469,pacmod,8.129,7.934
2020/02/28/11:33:03.257083,15333,1582911183,257034477,pacmod,7.749,8.023
2020/02/28/11:33:03.290659,15334,1582911183,290576869,pacmod,8.388,8.107
2020/02/28/11:33:03.323945,15335,1582911183,323898443,pacmod,8.645,8.168
2020/02/28/11:33:03.357467,15336,1582911183,357387462,pacmod,9.789,8.242
2020/02/28/11:33:03.390872,15337,1582911183,390817138,pacmod,10.242,8.294
2020/02/28/11:33:03.423246,15338,1582911183,423189624,pacmod,10.291,8.36
2020/02/28/11:33:03.456589,15339,1582911183,456538973,pacmod,9.799,8.421
2020/02/28/11:33:03.490582,15340,1582911183,490523793,pacmod,9.904,8.465
2020/02/28/11:33:03.524265,15341,1582911183,524153749,pacmod,10.129,8.523
2020/02/28/11:33:03.558473,15342,1582911183,558415594,pacmod,10.059,8.577
2020/02/28/11:33:03.591278,15343,1582911183,591184374,pacmod,9.532,8.616
2020/02/28/11:33:03.623940,15344,1582911183,623860671,pacmod,9.378,8.663
2020/02/28/11:33:03.656996,15345,1582911183,656944721,pacmod,9.087,8.694
2020/02/28/11:33:03.690838,15346,1582911183,690748991,pacmod,10.023,8.728
2020/02/28/11:33:03.724048,15347,1582911183,724002815,pacmod,9.813,8.751
2020/02/28/11:33:03.757367,15348,1582911183,757287193,pacmod,8.451,8.765
2020/02/28/11:33:03.790214,15349,1582911183,790166714,pacmod,8.243,8.784
2020/02/28/11:33:03.824382,15350,1582911183,824317516,pacmod,8.668,8.803
2020/02/28/11:33:03.857100,15351,1582911183,857006527,pacmod,8.888,8.816
2020/02/28/11:33:03.891003,15352,1582911183,890943914,pacmod,8.559,8.828
2020/02/28/11:33:03.924443,15353,1582911183,924347787,pacmod,7.552,8.838
2020/02/28/11:33:03.957581,15354,1582911183,957464890,pacmod,7.611,8.846
2020/02/28/11:33:03.990395,15355,1582911183,990308851,pacmod,7.289,8.853
2020/02/28/11:33:04.023941,15356,1582911184,23892683,pacmod,6.522,8.856
2020/02/28/11:33:04.058521,15357,1582911184,58448763,pacmod,5.316,8.856
2020/02/28/11:33:04.091874,15358,1582911184,91828100,pacmod,4.472,8.856
2020/02/28/11:33:04.124236,15359,1582911184,124186774,pacmod,4.313,8.856
2020/02/28/11:33:04.157917,15360,1582911184,157862487,pacmod,4.035,8.856
2020/02/28/11:33:04.191407,15361,1582911184,191335271,pacmod,4.263,8.856
2020/02/28/11:33:04.225144,15362,1582911184,225087593,pacmod,4.262,8.855
2020/02/28/11:33:04.257888,15363,1582911184,257839422,pacmod,4.693,8.855
2020/02/28/11:33:04.291881,15364,1582911184,291840359,pacmod,4.601,8.855
2020/02/28/11:33:04.324591,15365,1582911184,324539913,pacmod,4.669,8.855
2020/02/28/11:33:04.358458,15366,1582911184,358406004,pacmod,4.121,8.855
2020/02/28/11:33:04.392257,15367,1582911184,392114593,pacmod,3.621,8.855
2020/02/28/11:33:04.425206,15368,1582911184,425151533,pacmod,3.256,8.855
2020/02/28/11:33:04.458503,15369,1582911184,458387760,pacmod,2.85,8.855
2020/02/28/11:33:04.492198,15370,1582911184,492122085,pacmod,2.256,8.853
2020/02/28/11:33:04.525691,15371,1582911184,525612682,pacmod,2.166,8.849
2020/02/28/11:33:04.558001,15372,1582911184,557901256,pacmod,1.924,8.845
2020/02/28/11:33:04.592108,15373,1582911184,592059147,pacmod,2.121,8.838
2020/02/28/11:33:04.624980,15374,1582911184,624906006,pacmod,2.35,8.832
2020/02/28/11:33:04.658776,15375,1582911184,658670087,pacmod,2.165,8.828
2020/02/28/11:33:04.691974,15376,1582911184,691915671,pacmod,2.965,8.825
2020/02/28/11:33:04.725827,15377,1582911184,725781079,pacmod,2.615,8.825
2020/02/28/11:33:04.758664,15378,1582911184,758596960,pacmod,3.037,8.825
2020/02/28/11:33:04.794234,15379,1582911184,794123453,pacmod,3.165,8.825
2020/02/28/11:33:04.826641,15380,1582911184,826595196,pacmod,2.909,8.826
2020/02/28/11:33:04.859926,15381,1582911184,859859343,pacmod,2.365,8.826
2020/02/28/11:33:04.893621,15382,1582911184,893541165,pacmod,2.799,8.825
2020/02/28/11:33:04.926553,15383,1582911184,926452676,pacmod,3.302,8.823
2020/02/28/11:33:04.960397,15384,1582911184,960322821,pacmod,3.519,8.82
2020/02/28/11:33:04.992346,15385,1582911184,992253969,pacmod,3.344,8.819
2020/02/28/11:33:05.026811,15386,1582911185,26752142,pacmod,3.373,8.819
2020/02/28/11:33:05.060516,15387,1582911185,60464662,pacmod,2.581,8.819
2020/02/28/11:33:05.093348,15388,1582911185,93242305,pacmod,2.152,8.817
2020/02/28/11:33:05.127419,15389,1582911185,127368139,pacmod,1.836,8.812
2020/02/28/11:33:05.159225,15390,1582911185,159186308,pacmod,1.047,8.799
2020/02/28/11:33:05.192810,15391,1582911185,192731356,pacmod,1.453,8.786
2020/02/28/11:33:05.226542,15392,1582911185,226466066,pacmod,1.328,8.766
2020/02/28/11:33:05.259706,15393,1582911185,259652405,pacmod,1.632,8.743
2020/02/28/11:33:05.292420,15394,1582911185,292310634,pacmod,1.453,8.723
2020/02/28/11:33:05.326041,15395,1582911185,325967621,pacmod,1.241,8.694
2020/02/28/11:33:05.358683,15396,1582911185,358632967,pacmod,1.287,8.668
2020/02/28/11:33:05.392637,15397,1582911185,392598706,pacmod,0.777,8.625
2020/02/28/11:33:05.425953,15398,1582911185,425870132,pacmod,0.765,8.566
2020/02/28/11:33:05.459707,15399,1582911185,459663494,pacmod,-0.088,8.515
2020/02/28/11:33:05.492462,15400,1582911185,492364069,pacmod,0.084,8.432
2020/02/28/11:33:05.525616,15401,1582911185,525522718,pacmod,0.048,8.342
2020/02/28/11:33:05.559661,15402,1582911185,559572591,pacmod,-0.011,8.274
2020/02/28/11:33:05.592337,15403,1582911185,592290796,pacmod,0.065,8.182
2020/02/28/11:33:05.625957,15404,1582911185,625862308,pacmod,-0.406,8.116
2020/02/28/11:33:05.659698,15405,1582911185,659540491,pacmod,-0.23,8.024
2020/02/28/11:33:05.692844,15406,1582911185,692765954,pacmod,-0.021,7.931
2020/02/28/11:33:05.725792,15407,1582911185,725748580,pacmod,-0.17,7.864
2020/02/28/11:33:05.758927,15408,1582911185,758873479,pacmod,0.057,7.778
2020/02/28/11:33:05.793174,15409,1582911185,793129042,pacmod,0.407,7.698
2020/02/28/11:33:05.826014,15410,1582911185,825968811,pacmod,-0.136,7.636
2020/02/28/11:33:05.858949,15411,1582911185,858879835,pacmod,0.001,7.557
2020/02/28/11:33:05.893373,15412,1582911185,893325872,pacmod,-0.053,7.499
2020/02/28/11:33:05.926059,15413,1582911185,926006324,pacmod,0.091,7.417
2020/02/28/11:33:05.959478,15414,1582911185,959399810,pacmod,-0.009,7.337
2020/02/28/11:33:05.992921,15415,1582911185,992870898,pacmod,0.059,7.283
2020/02/28/11:33:06.026547,15416,1582911186,26500287,pacmod,-0.001,7.222
2020/02/28/11:33:06.059901,15417,1582911186,59805848,pacmod,0.06,7.177
2020/02/28/11:33:06.094140,15418,1582911186,94064198,pacmod,0.047,7.151
2020/02/28/11:33:06.126981,15419,1582911186,126931344,pacmod,-0.07,7.134
2020/02/28/11:33:06.159351,15420,1582911186,159304372,pacmod,0.139,7.127
2020/02/28/11:33:06.193362,15421,1582911186,193291846,pacmod,0.027,7.121
2020/02/28/11:33:06.227039,15422,1582911186,226966115,pacmod,-0.66,7.114
2020/02/28/11:33:06.260109,15423,1582911186,259982238,pacmod,-0.136,7.108
2020/02/28/11:33:06.293867,15424,1582911186,293787415,pacmod,-0.141,7.095
2020/02/28/11:33:06.326507,15425,1582911186,326435841,pacmod,-0.064,7.069
2020/02/28/11:33:06.361268,15426,1582911186,361173759,pacmod,0.244,7.04
2020/02/28/11:33:06.393532,15427,1582911186,393385561,pacmod,-0.105,6.997
2020/02/28/11:33:06.427099,15428,1582911186,427017287,pacmod,-0.077,6.97
2020/02/28/11:33:06.461451,15429,1582911186,461400451,pacmod,0.088,6.939
2020/02/28/11:33:06.494227,15430,1582911186,494172443,pacmod,0.238,6.907
2020/02/28/11:33:06.527930,15431,1582911186,527882102,pacmod,-0.117,6.882
2020/02/28/11:33:06.561256,15432,1582911186,561189778,pacmod,-0.173,6.845
2020/02/28/11:33:06.594286,15433,1582911186,594197048,pacmod,0.118,6.801
2020/02/28/11:33:06.627023,15434,1582911186,626984077,pacmod,-0.021,6.759
2020/02/28/11:33:06.661082,15435,1582911186,661033680,pacmod,0.098,6.695
2020/02/28/11:33:06.693686,15436,1582911186,693627632,pacmod,0.122,6.649
2020/02/28/11:33:06.727732,15437,1582911186,727678236,pacmod,-0.515,6.59
2020/02/28/11:33:06.760278,15438,1582911186,760199705,pacmod,0.392,6.533
2020/02/28/11:33:06.793520,15439,1582911186,793475711,pacmod,-0.11,6.488
2020/02/28/11:33:06.828153,15440,1582911186,828091132,pacmod,0.367,6.428
2020/02/28/11:33:06.860890,15441,1582911186,860807529,pacmod,-0.327,6.361
2020/02/28/11:33:06.893859,15442,1582911186,893788069,pacmod,0.142,6.306
2020/02/28/11:33:06.927063,15443,1582911186,927015795,pacmod,-0.2,6.232
2020/02/28/11:33:06.960795,15444,1582911186,960740150,pacmod,0.138,6.152
2020/02/28/11:33:06.993691,15445,1582911186,993645825,pacmod,-0.076,6.089
2020/02/28/11:33:07.027416,15446,1582911187,27334900,pacmod,0.017,6.008
2020/02/28/11:33:07.060244,15447,1582911187,60193927,pacmod,-0.206,5.94
2020/02/28/11:33:07.094811,15448,1582911187,94767307,pacmod,-0.85,5.845
2020/02/28/11:33:07.127102,15449,1582911187,127004792,pacmod,0.137,5.749
2020/02/28/11:33:07.161244,15450,1582911187,161149632,pacmod,-0.17,5.679
2020/02/28/11:33:07.194131,15451,1582911187,194069644,pacmod,-0.332,5.583
2020/02/28/11:33:07.227279,15452,1582911187,227232848,pacmod,-0.553,5.506
2020/02/28/11:33:07.261538,15453,1582911187,261488271,pacmod,-0.186,5.4
2020/02/28/11:33:07.294346,15454,1582911187,294251993,pacmod,-0.487,5.288
2020/02/28/11:33:07.328028,15455,1582911187,327948698,pacmod,-0.685,5.201
2020/02/28/11:33:07.360803,15456,1582911187,360747806,pacmod,-0.993,5.073
2020/02/28/11:33:07.394665,15457,1582911187,394581241,pacmod,-0.302,4.926
2020/02/28/11:33:07.428630,15458,1582911187,428514365,pacmod,-1.822,4.806
2020/02/28/11:33:07.461534,15459,1582911187,461445651,pacmod,-2.167,4.623
2020/02/28/11:33:07.494242,15460,1582911187,494155121,pacmod,-2.72,4.474
2020/02/28/11:33:07.528885,15461,1582911187,528839239,pacmod,-2.748,4.261
2020/02/28/11:33:07.561181,15462,1582911187,561092829,pacmod,-2.503,4.039
2020/02/28/11:33:07.595195,15463,1582911187,595121814,pacmod,-2.465,3.878
2020/02/28/11:33:07.628073,15464,1582911187,628026045,pacmod,-3.152,3.664
2020/02/28/11:33:07.661276,15465,1582911187,661228495,pacmod,-2.865,3.458
2020/02/28/11:33:07.695260,15466,1582911187,695199346,pacmod,-1.723,3.316
2020/02/28/11:33:07.728449,15467,1582911187,728358438,pacmod,-1.839,3.15
2020/02/28/11:33:07.763089,15468,1582911187,762996404,pacmod,-2.753,3.005
2020/02/28/11:33:07.795838,15469,1582911187,795793898,pacmod,-3.059,2.904
2020/02/28/11:33:07.829173,15470,1582911187,829123217,pacmod,-2.491,2.782
2020/02/28/11:33:07.862609,15471,1582911187,862555363,pacmod,-2.602,2.697
2020/02/28/11:33:07.896394,15472,1582911187,896344373,pacmod,-1.415,2.593
2020/02/28/11:33:07.929192,15473,1582911187,929120609,pacmod,-1.816,2.502
2020/02/28/11:33:07.963181,15474,1582911187,963115409,pacmod,0.021,2.451
2020/02/28/11:33:07.996138,15475,1582911187,996071379,pacmod,-2.095,2.412
2020/02/28/11:33:08.029392,15476,1582911188,29341874,pacmod,-1.264,2.354
2020/02/28/11:33:08.063235,15477,1582911188,63174429,pacmod,-1.764,2.315
2020/02/28/11:33:08.097141,15478,1582911188,97094566,pacmod,-2.157,2.251
2020/02/28/11:33:08.129885,15479,1582911188,129816613,pacmod,-3.108,2.163
2020/02/28/11:33:08.162916,15480,1582911188,162874476,pacmod,-3.125,2.085
2020/02/28/11:33:08.196045,15481,1582911188,195996148,pacmod,-3.64,1.972
2020/02/28/11:33:08.230148,15482,1582911188,230094564,pacmod,-3.512,1.853
2020/02/28/11:33:08.263522,15483,1582911188,263425373,pacmod,-4.416,1.757
2020/02/28/11:33:08.296676,15484,1582911188,296578155,pacmod,-4.521,1.623
2020/02/28/11:33:08.330292,15485,1582911188,330234984,pacmod,-3.94,1.519
2020/02/28/11:33:08.363174,15486,1582911188,363129101,pacmod,-4.272,1.374
2020/02/28/11:33:08.397750,15487,1582911188,397680935,pacmod,-4.671,1.22
2020/02/28/11:33:08.430835,15488,1582911188,430724454,pacmod,-4.384,1.098
2020/02/28/11:33:08.464111,15489,1582911188,464054593,pacmod,-4.409,0.927
2020/02/28/11:33:08.496671,15490,1582911188,496591696,pacmod,-3.921,0.742
2020/02/28/11:33:08.530608,15491,1582911188,530535920,pacmod,-4.43,0.601
2020/02/28/11:33:08.563360,15492,1582911188,563299622,pacmod,-4.321,0.409
2020/02/28/11:33:08.597397,15493,1582911188,597288037,pacmod,-4.054,0.267
2020/02/28/11:33:08.630106,15494,1582911188,630001328,pacmod,-4.282,0.095
2020/02/28/11:33:08.663325,15495,1582911188,663275771,pacmod,-4.182,-0.064
2020/02/28/11:33:08.697369,15496,1582911188,697280246,pacmod,-4.903,-0.174
2020/02/28/11:33:08.730717,15497,1582911188,730653554,pacmod,-5.404,-0.311
2020/02/28/11:33:08.763345,15498,1582911188,763290594,pacmod,-5.4,-0.443
2020/02/28/11:33:08.797427,15499,1582911188,797352974,pacmod,-6.325,-0.537
2020/02/28/11:33:08.831330,15500,1582911188,831279414,pacmod,-6.487,-0.658
2020/02/28/11:33:08.863715,15501,1582911188,863660995,pacmod,-6.844,-0.75
2020/02/28/11:33:08.897627,15502,1582911188,897539114,pacmod,-7.167,-0.874
2020/02/28/11:33:08.931431,15503,1582911188,931353208,pacmod,-7.345,-1.002
2020/02/28/11:33:08.964662,15504,1582911188,964558017,pacmod,-7.953,-1.101
2020/02/28/11:33:08.997389,15505,1582911188,997279290,pacmod,-7.712,-1.236
2020/02/28/11:33:09.031207,15506,1582911189,31117334,pacmod,-7.029,-1.369
2020/02/28/11:33:09.063933,15507,1582911189,63883534,pacmod,-7.635,-1.468
2020/02/28/11:33:09.098052,15508,1582911189,97972096,pacmod,-7.078,-1.597
2020/02/28/11:33:09.131769,15509,1582911189,131705018,pacmod,-6.748,-1.72
2020/02/28/11:33:09.164632,15510,1582911189,164527646,pacmod,-6.727,-1.809
2020/02/28/11:33:09.197241,15511,1582911189,197167917,pacmod,-6.893,-1.921
2020/02/28/11:33:09.231027,15512,1582911189,230980474,pacmod,-6.321,-2.0
2020/02/28/11:33:09.264876,15513,1582911189,264780599,pacmod,-6.031,-2.111
2020/02/28/11:33:09.297800,15514,1582911189,297712361,pacmod,-5.677,-2.239
2020/02/28/11:33:09.331667,15515,1582911189,331561740,pacmod,-5.777,-2.339
2020/02/28/11:33:09.365057,15516,1582911189,365005048,pacmod,-5.734,-2.466
2020/02/28/11:33:09.398104,15517,1582911189,398012775,pacmod,-6.409,-2.588
2020/02/28/11:33:09.432088,15518,1582911189,432030285,pacmod,-6.249,-2.679
2020/02/28/11:33:09.465121,15519,1582911189,465071782,pacmod,-6.334,-2.799
2020/02/28/11:33:09.499228,15520,1582911189,499148218,pacmod,-5.748,-2.921
2020/02/28/11:33:09.532780,15521,1582911189,532709683,pacmod,-6.565,-3.01
2020/02/28/11:33:09.565393,15522,1582911189,565338955,pacmod,-6.808,-3.12
2020/02/28/11:33:09.598846,15523,1582911189,598758698,pacmod,-7.862,-3.195
2020/02/28/11:33:09.632425,15524,1582911189,632369469,pacmod,-7.438,-3.284
2020/02/28/11:33:09.666562,15525,1582911189,666505049,pacmod,-7.492,-3.363
2020/02/28/11:33:09.698411,15526,1582911189,698364719,pacmod,-7.498,-3.419
2020/02/28/11:33:09.732322,15527,1582911189,732245343,pacmod,-8.059,-3.491
2020/02/28/11:33:09.765800,15528,1582911189,765698994,pacmod,-8.774,-3.553
2020/02/28/11:33:09.798560,15529,1582911189,798515604,pacmod,-8.314,-3.597
2020/02/28/11:33:09.832048,15530,1582911189,831974339,pacmod,-8.486,-3.653
2020/02/28/11:33:09.865725,15531,1582911189,865663321,pacmod,-8.744,-3.696
2020/02/28/11:33:09.898613,15532,1582911189,898561466,pacmod,-8.886,-3.747
2020/02/28/11:33:09.933010,15533,1582911189,932951975,pacmod,-9.313,-3.784
2020/02/28/11:33:09.966873,15534,1582911189,966814639,pacmod,-9.366,-3.81
2020/02/28/11:33:09.999701,15535,1582911189,999597008,pacmod,-8.428,-3.843
2020/02/28/11:33:10.032559,15536,1582911190,32502564,pacmod,-8.257,-3.877
2020/02/28/11:33:10.065799,15537,1582911190,65720027,pacmod,-8.467,-3.899
2020/02/28/11:33:10.100152,15538,1582911190,100091477,pacmod,-8.898,-3.925
2020/02/28/11:33:10.132098,15539,1582911190,132048033,pacmod,-9.24,-3.942
2020/02/28/11:33:10.166366,15540,1582911190,166253073,pacmod,-8.567,-3.96
2020/02/28/11:33:10.199794,15541,1582911190,199741992,pacmod,-8.15,-3.974
2020/02/28/11:33:10.232695,15542,1582911190,232614530,pacmod,-7.549,-3.983
2020/02/28/11:33:10.266098,15543,1582911190,266011516,pacmod,-8.24,-3.99
2020/02/28/11:33:10.299739,15544,1582911190,299679440,pacmod,-8.257,-3.995
2020/02/28/11:33:10.333474,15545,1582911190,333384706,pacmod,-8.378,-3.998
2020/02/28/11:33:10.366779,15546,1582911190,366733726,pacmod,-7.871,-4.002
2020/02/28/11:33:10.400640,15547,1582911190,400566708,pacmod,-8.096,-4.006
2020/02/28/11:33:10.433359,15548,1582911190,433304783,pacmod,-8.146,-4.008
2020/02/28/11:33:10.467275,15549,1582911190,467224561,pacmod,-8.071,-4.01
2020/02/28/11:33:10.500121,15550,1582911190,500079754,pacmod,-8.038,-4.01
2020/02/28/11:33:10.532995,15551,1582911190,532939613,pacmod,-7.662,-4.013
2020/02/28/11:33:10.566494,15552,1582911190,566443187,pacmod,-7.302,-4.016
2020/02/28/11:33:10.599753,15553,1582911190,599678865,pacmod,-7.159,-4.019
2020/02/28/11:33:10.633829,15554,1582911190,633767667,pacmod,-7.453,-4.022
2020/02/28/11:33:10.667167,15555,1582911190,667063695,pacmod,-7.489,-4.023
2020/02/28/11:33:10.700328,15556,1582911190,700235257,pacmod,-7.026,-4.024
2020/02/28/11:33:10.733217,15557,1582911190,733133348,pacmod,-6.608,-4.024
2020/02/28/11:33:10.767069,15558,1582911190,766999535,pacmod,-6.048,-4.024
2020/02/28/11:33:10.800356,15559,1582911190,800282605,pacmod,-5.391,-4.024
2020/02/28/11:33:10.833871,15560,1582911190,833818470,pacmod,-4.527,-4.022
2020/02/28/11:33:10.867793,15561,1582911190,867712175,pacmod,-4.471,-4.021
2020/02/28/11:33:10.901359,15562,1582911190,901304787,pacmod,-4.746,-4.021
2020/02/28/11:33:10.934157,15563,1582911190,934108137,pacmod,-4.942,-4.021
2020/02/28/11:33:10.967318,15564,1582911190,967268375,pacmod,-5.176,-4.021
2020/02/28/11:33:11.001748,15565,1582911191,1680176,pacmod,-5.065,-4.021
2020/02/28/11:33:11.034773,15566,1582911191,34713115,pacmod,-5.326,-4.021
2020/02/28/11:33:11.067791,15567,1582911191,67735563,pacmod,-5.602,-4.021
2020/02/28/11:33:11.101780,15568,1582911191,101687620,pacmod,-5.865,-4.021
2020/02/28/11:33:11.134531,15569,1582911191,134473392,pacmod,-5.866,-4.021
2020/02/28/11:33:11.169008,15570,1582911191,168934604,pacmod,-5.963,-4.021
2020/02/28/11:33:11.202020,15571,1582911191,201955943,pacmod,-5.395,-4.021
2020/02/28/11:33:11.234244,15572,1582911191,234198002,pacmod,-5.394,-4.021
2020/02/28/11:33:11.267922,15573,1582911191,267866128,pacmod,-5.355,-4.02
2020/02/28/11:33:11.300860,15574,1582911191,300804948,pacmod,-5.015,-4.019
2020/02/28/11:33:11.334558,15575,1582911191,334501181,pacmod,-4.837,-4.019
2020/02/28/11:33:11.368000,15576,1582911191,367921139,pacmod,-4.558,-4.018
2020/02/28/11:33:11.401785,15577,1582911191,401695315,pacmod,-4.419,-4.018
2020/02/28/11:33:11.434266,15578,1582911191,434220707,pacmod,-4.073,-4.016
2020/02/28/11:33:11.467688,15579,1582911191,467578787,pacmod,-3.571,-4.012
2020/02/28/11:33:11.500690,15580,1582911191,500586213,pacmod,-3.265,-4.007
2020/02/28/11:33:11.534333,15581,1582911191,534250862,pacmod,-3.29,-4.002
2020/02/28/11:33:11.567968,15582,1582911191,567922512,pacmod,-3.239,-3.998
2020/02/28/11:33:11.600751,15583,1582911191,600671879,pacmod,-3.078,-3.992
2020/02/28/11:33:11.634547,15584,1582911191,634485895,pacmod,-2.694,-3.985
2020/02/28/11:33:11.668444,15585,1582911191,668400560,pacmod,-2.901,-3.977
2020/02/28/11:33:11.700783,15586,1582911191,700708744,pacmod,-2.816,-3.966
2020/02/28/11:33:11.734454,15587,1582911191,734402667,pacmod,-3.099,-3.955
2020/02/28/11:33:11.768962,15588,1582911191,768868190,pacmod,-2.865,-3.937
2020/02/28/11:33:11.800997,15589,1582911191,800957249,pacmod,-2.195,-3.915
2020/02/28/11:33:11.834996,15590,1582911191,834889613,pacmod,-1.631,-3.887
2020/02/28/11:33:11.867853,15591,1582911191,867797696,pacmod,-0.97,-3.834
2020/02/28/11:33:11.901915,15592,1582911191,901873284,pacmod,-1.081,-3.764
2020/02/28/11:33:11.935741,15593,1582911191,935689097,pacmod,-0.864,-3.703
2020/02/28/11:33:11.969152,15594,1582911191,969054842,pacmod,0.277,-3.606
2020/02/28/11:33:12.002981,15595,1582911192,2933337,pacmod,-1.158,-3.495
2020/02/28/11:33:12.035366,15596,1582911192,35315469,pacmod,-1.52,-3.403
2020/02/28/11:33:12.068374,15597,1582911192,68315071,pacmod,-0.015,-3.277
2020/02/28/11:33:12.101549,15598,1582911192,101481935,pacmod,-0.065,-3.185
2020/02/28/11:33:12.135389,15599,1582911192,135308203,pacmod,-0.204,-3.064
2020/02/28/11:33:12.169169,15600,1582911192,169072970,pacmod,-1.76,-2.947
2020/02/28/11:33:12.201658,15601,1582911192,201578396,pacmod,0.096,-2.862
2020/02/28/11:33:12.235429,15602,1582911192,235385634,pacmod,0.117,-2.749
2020/02/28/11:33:12.269091,15603,1582911192,269034123,pacmod,0.0,-2.638
2020/02/28/11:33:12.302034,15604,1582911192,301986504,pacmod,-0.06,-2.551
2020/02/28/11:33:12.334980,15605,1582911192,334890703,pacmod,-0.063,-2.429
2020/02/28/11:33:12.368896,15606,1582911192,368842365,pacmod,0.164,-2.335
2020/02/28/11:33:12.402234,15607,1582911192,402184809,pacmod,0.086,-2.206
2020/02/28/11:33:12.436063,15608,1582911192,435983486,pacmod,0.223,-2.079
2020/02/28/11:33:12.469455,15609,1582911192,469396692,pacmod,0.055,-1.982
2020/02/28/11:33:12.501974,15610,1582911192,501868209,pacmod,0.224,-1.855
2020/02/28/11:33:12.536633,15611,1582911192,536574286,pacmod,-0.232,-1.742
2020/02/28/11:33:12.568454,15612,1582911192,568394022,pacmod,-0.061,-1.665
2020/02/28/11:33:12.602584,15613,1582911192,602461357,pacmod,0.188,-1.559
2020/02/28/11:33:12.636482,15614,1582911192,636417120,pacmod,-0.047,-1.479
2020/02/28/11:33:12.670437,15615,1582911192,670377245,pacmod,-0.023,-1.376
2020/02/28/11:33:12.703825,15616,1582911192,703759360,pacmod,-0.045,-1.276
2020/02/28/11:33:12.735519,15617,1582911192,735454242,pacmod,0.483,-1.2
2020/02/28/11:33:12.768824,15618,1582911192,768782447,pacmod,-0.026,-1.11
2020/02/28/11:33:12.802492,15619,1582911192,802438032,pacmod,-0.357,-1.023
2020/02/28/11:33:12.835563,15620,1582911192,835444850,pacmod,0.13,-0.965
2020/02/28/11:33:12.869093,15621,1582911192,868996794,pacmod,-0.238,-0.883
2020/02/28/11:33:12.902613,15622,1582911192,902537558,pacmod,0.073,-0.801
2020/02/28/11:33:12.935422,15623,1582911192,935375985,pacmod,-0.159,-0.74
2020/02/28/11:33:12.969495,15624,1582911192,969443004,pacmod,0.044,-0.663
2020/02/28/11:33:13.002568,15625,1582911193,2511008,pacmod,-0.034,-0.603
2020/02/28/11:33:13.035870,15626,1582911193,35799730,pacmod,-0.074,-0.527
2020/02/28/11:33:13.068564,15627,1582911193,68480836,pacmod,0.001,-0.446
2020/02/28/11:33:13.102024,15628,1582911193,101914123,pacmod,-0.126,-0.386
2020/02/28/11:33:13.135874,15629,1582911193,135788461,pacmod,0.117,-0.305
2020/02/28/11:33:13.168872,15630,1582911193,168699437,pacmod,-0.363,-0.244
2020/02/28/11:33:13.202229,15631,1582911193,202152269,pacmod,0.0,-0.157
2020/02/28/11:33:13.236261,15632,1582911193,236201085,pacmod,0.232,-0.073
2020/02/28/11:33:13.268993,15633,1582911193,268924938,pacmod,-0.067,-0.008
2020/02/28/11:33:13.302079,15634,1582911193,301972148,pacmod,-0.002,0.074
2020/02/28/11:33:13.335957,15635,1582911193,335906187,pacmod,-0.119,0.158
2020/02/28/11:33:13.369081,15636,1582911193,368997742,pacmod,0.054,0.218
2020/02/28/11:33:13.402527,15637,1582911193,402469682,pacmod,-0.001,0.292
2020/02/28/11:33:13.435944,15638,1582911193,435895326,pacmod,-0.007,0.352
2020/02/28/11:33:13.469136,15639,1582911193,469040165,pacmod,-0.067,0.393
2020/02/28/11:33:13.502151,15640,1582911193,502013606,pacmod,0.209,0.44
2020/02/28/11:33:13.536024,15641,1582911193,535965015,pacmod,0.094,0.473
2020/02/28/11:33:13.568776,15642,1582911193,568721148,pacmod,-0.231,0.519
2020/02/28/11:33:13.602552,15643,1582911193,602496249,pacmod,0.139,0.567
2020/02/28/11:33:13.635542,15644,1582911193,635422284,pacmod,-0.034,0.604
2020/02/28/11:33:13.669482,15645,1582911193,669432277,pacmod,-0.087,0.649
2020/02/28/11:33:13.702972,15646,1582911193,702889201,pacmod,0.069,0.693
2020/02/28/11:33:13.735866,15647,1582911193,735821428,pacmod,0.148,0.728
2020/02/28/11:33:13.769847,15648,1582911193,769797113,pacmod,-0.329,0.777
2020/02/28/11:33:13.802793,15649,1582911193,802697044,pacmod,0.208,0.812
2020/02/28/11:33:13.836506,15650,1582911193,836446180,pacmod,0.115,0.856
2020/02/28/11:33:13.870870,15651,1582911193,870811462,pacmod,-0.054,0.899
2020/02/28/11:33:13.903524,15652,1582911193,903450415,pacmod,0.1,0.929
2020/02/28/11:33:13.937490,15653,1582911193,937438508,pacmod,-0.021,0.964
2020/02/28/11:33:13.970790,15654,1582911193,970725168,pacmod,-0.133,0.995
2020/02/28/11:33:14.004284,15655,1582911194,4216838,pacmod,-0.659,1.018
2020/02/28/11:33:14.036942,15656,1582911194,36888013,pacmod,-0.001,1.049
2020/02/28/11:33:14.070850,15657,1582911194,70784347,pacmod,0.287,1.076
2020/02/28/11:33:14.104515,15658,1582911194,104434485,pacmod,-0.042,1.12
2020/02/28/11:33:14.137302,15659,1582911194,137244257,pacmod,-0.137,1.163
2020/02/28/11:33:14.171011,15660,1582911194,170945067,pacmod,0.21,1.193
2020/02/28/11:33:14.203132,15661,1582911194,203048460,pacmod,0.018,1.227
2020/02/28/11:33:14.236777,15662,1582911194,236721257,pacmod,-0.138,1.262
2020/02/28/11:33:14.270505,15663,1582911194,270464145,pacmod,-0.065,1.291
2020/02/28/11:33:14.303041,15664,1582911194,302999220,pacmod,0.421,1.335
2020/02/28/11:33:14.336967,15665,1582911194,336929829,pacmod,0.032,1.372
2020/02/28/11:33:14.370161,15666,1582911194,370100117,pacmod,-0.222,1.418
2020/02/28/11:33:14.403424,15667,1582911194,403381700,pacmod,-0.24,1.469
2020/02/28/11:33:14.437432,15668,1582911194,437343755,pacmod,0.006,1.508
2020/02/28/11:33:14.469936,15669,1582911194,469875551,pacmod,0.084,1.564
2020/02/28/11:33:14.503449,15670,1582911194,503373186,pacmod,0.006,1.632
2020/02/28/11:33:14.537387,15671,1582911194,537336040,pacmod,0.148,1.686
2020/02/28/11:33:14.570417,15672,1582911194,570333754,pacmod,-0.061,1.763
2020/02/28/11:33:14.604048,15673,1582911194,604002734,pacmod,0.089,1.816
2020/02/28/11:33:14.637355,15674,1582911194,637225453,pacmod,0.001,1.891
2020/02/28/11:33:14.670425,15675,1582911194,670381028,pacmod,0.216,1.958
2020/02/28/11:33:14.704249,15676,1582911194,704150635,pacmod,0.041,1.999
2020/02/28/11:33:14.736853,15677,1582911194,736806290,pacmod,-0.096,2.047
2020/02/28/11:33:14.770361,15678,1582911194,770278459,pacmod,0.266,2.088
2020/02/28/11:33:14.804786,15679,1582911194,804687186,pacmod,0.148,2.108
2020/02/28/11:33:14.837409,15680,1582911194,837329256,pacmod,0.389,2.128
