time,.header.seq,.header.stamp.secs,.header.stamp.nsecs,.header.frame_id,.Time,.UtcTime.year,.UtcTime.month,.UtcTime.day,.UtcTime.hour,.UtcTime.minute,.UtcTime.second,.UtcTime.millisecond,.Week,.GpsFix,.NumSats,.LLA.x,.LLA.y,.LLA.z,.NedVel.x,.NedVel.y,.NedVel.z,.NedAcc.x,.NedAcc.y,.NedAcc.z,.SpeedAcc,.TimeAcc
2020/02/28/11:32:47.576092,23993,1582911167,573915843,vectornav,495185.400262,20,2,28,17,32,47,400,2094,3,16,30.6724181,-96.3725244,89.458,0.0230000000447,0.00999999977648,-0.0130000002682,2.06507587433,2.47620487213,6.26063537598,0.131200000644,2.99999980413e-09
2020/02/28/11:32:47.594027,23994,1582911167,593910614,vectornav,495185.400262,20,2,28,17,32,47,400,2094,3,16,30.6724181,-96.3725244,89.458,0.0230000000447,0.00999999977648,-0.0130000002682,2.06507587433,2.47620487213,6.26063537598,0.131200000644,2.99999980413e-09
2020/02/28/11:32:47.615057,23995,1582911167,613870010,vectornav,495185.400262,20,2,28,17,32,47,400,2094,3,16,30.6724181,-96.3725244,89.458,0.0230000000447,0.00999999977648,-0.0130000002682,2.06507587433,2.47620487213,6.26063537598,0.131200000644,2.99999980413e-09
2020/02/28/11:32:47.633961,23996,1582911167,633891771,vectornav,495185.400262,20,2,28,17,32,47,400,2094,3,16,30.6724181,-96.3725244,89.458,0.0230000000447,0.00999999977648,-0.0130000002682,2.06507587433,2.47620487213,6.26063537598,0.131200000644,2.99999980413e-09
2020/02/28/11:32:47.654107,23997,1582911167,653916984,vectornav,495185.400262,20,2,28,17,32,47,400,2094,3,16,30.6724181,-96.3725244,89.458,0.0230000000447,0.00999999977648,-0.0130000002682,2.06507587433,2.47620487213,6.26063537598,0.131200000644,2.99999980413e-09
2020/02/28/11:32:47.673933,23998,1582911167,673840180,vectornav,495185.400262,20,2,28,17,32,47,400,2094,3,16,30.6724181,-96.3725244,89.458,0.0230000000447,0.00999999977648,-0.0130000002682,2.06507587433,2.47620487213,6.26063537598,0.131200000644,2.99999980413e-09
2020/02/28/11:32:47.693937,23999,1582911167,693845620,vectornav,495185.400262,20,2,28,17,32,47,400,2094,3,16,30.6724181,-96.3725244,89.458,0.0230000000447,0.00999999977648,-0.0130000002682,2.06507587433,2.47620487213,6.26063537598,0.131200000644,2.99999980413e-09
2020/02/28/11:32:47.714054,24000,1582911167,713892797,vectornav,495185.400262,20,2,28,17,32,47,400,2094,3,16,30.6724181,-96.3725244,89.458,0.0230000000447,0.00999999977648,-0.0130000002682,2.06507587433,2.47620487213,6.26063537598,0.131200000644,2.99999980413e-09
2020/02/28/11:32:47.733970,24001,1582911167,733879106,vectornav,495185.600261,20,2,28,17,32,47,600,2094,3,16,30.6724181,-96.3725242,89.42,0.0250000003725,-0.0340000018477,0.0659999996424,2.0773897171,2.47977852821,6.2857375145,0.216000005603,2.99999980413e-09
2020/02/28/11:32:47.753943,24002,1582911167,753831855,vectornav,495185.600261,20,2,28,17,32,47,600,2094,3,16,30.6724181,-96.3725242,89.42,0.0250000003725,-0.0340000018477,0.0659999996424,2.0773897171,2.47977852821,6.2857375145,0.216000005603,2.99999980413e-09
2020/02/28/11:32:47.773919,24003,1582911167,773791190,vectornav,495185.600261,20,2,28,17,32,47,600,2094,3,16,30.6724181,-96.3725242,89.42,0.0250000003725,-0.0340000018477,0.0659999996424,2.0773897171,2.47977852821,6.2857375145,0.216000005603,2.99999980413e-09
2020/02/28/11:32:47.793915,24004,1582911167,793821727,vectornav,495185.600261,20,2,28,17,32,47,600,2094,3,16,30.6724181,-96.3725242,89.42,0.0250000003725,-0.0340000018477,0.0659999996424,2.0773897171,2.47977852821,6.2857375145,0.216000005603,2.99999980413e-09
2020/02/28/11:32:47.813889,24005,1582911167,813795368,vectornav,495185.600261,20,2,28,17,32,47,600,2094,3,16,30.6724181,-96.3725242,89.42,0.0250000003725,-0.0340000018477,0.0659999996424,2.0773897171,2.47977852821,6.2857375145,0.216000005603,2.99999980413e-09
2020/02/28/11:32:47.833888,24006,1582911167,833820159,vectornav,495185.600261,20,2,28,17,32,47,600,2094,3,16,30.6724181,-96.3725242,89.42,0.0250000003725,-0.0340000018477,0.0659999996424,2.0773897171,2.47977852821,6.2857375145,0.216000005603,2.99999980413e-09
2020/02/28/11:32:47.853914,24007,1582911167,853797534,vectornav,495185.600261,20,2,28,17,32,47,600,2094,3,16,30.6724181,-96.3725242,89.42,0.0250000003725,-0.0340000018477,0.0659999996424,2.0773897171,2.47977852821,6.2857375145,0.216000005603,2.99999980413e-09
2020/02/28/11:32:47.873971,24008,1582911167,873810233,vectornav,495185.600261,20,2,28,17,32,47,600,2094,3,16,30.6724181,-96.3725242,89.42,0.0250000003725,-0.0340000018477,0.0659999996424,2.0773897171,2.47977852821,6.2857375145,0.216000005603,2.99999980413e-09
2020/02/28/11:32:47.893839,24009,1582911167,893766020,vectornav,495185.600261,20,2,28,17,32,47,600,2094,3,16,30.6724181,-96.3725242,89.42,0.0250000003725,-0.0340000018477,0.0659999996424,2.0773897171,2.47977852821,6.2857375145,0.216000005603,2.99999980413e-09
2020/02/28/11:32:47.913846,24010,1582911167,913749119,vectornav,495185.600261,20,2,28,17,32,47,600,2094,3,16,30.6724181,-96.3725242,89.42,0.0250000003725,-0.0340000018477,0.0659999996424,2.0773897171,2.47977852821,6.2857375145,0.216000005603,2.99999980413e-09
2020/02/28/11:32:47.933903,24011,1582911167,933767347,vectornav,495185.800261,20,2,28,17,32,47,800,2094,3,16,30.6724182,-96.3725242,89.37,0.00800000037998,-0.0299999993294,0.0149999996647,2.09015417099,2.48383808136,6.31116628647,0.193600013852,2.99999980413e-09
2020/02/28/11:32:47.953900,24012,1582911167,953753032,vectornav,495185.800261,20,2,28,17,32,47,800,2094,3,16,30.6724182,-96.3725242,89.37,0.00800000037998,-0.0299999993294,0.0149999996647,2.09015417099,2.48383808136,6.31116628647,0.193600013852,2.99999980413e-09
2020/02/28/11:32:47.973852,24013,1582911167,973761413,vectornav,495185.800261,20,2,28,17,32,47,800,2094,3,16,30.6724182,-96.3725242,89.37,0.00800000037998,-0.0299999993294,0.0149999996647,2.09015417099,2.48383808136,6.31116628647,0.193600013852,2.99999980413e-09
2020/02/28/11:32:47.993948,24014,1582911167,993779559,vectornav,495185.800261,20,2,28,17,32,47,800,2094,3,16,30.6724182,-96.3725242,89.37,0.00800000037998,-0.0299999993294,0.0149999996647,2.09015417099,2.48383808136,6.31116628647,0.193600013852,2.99999980413e-09
2020/02/28/11:32:48.013986,24015,1582911168,13829908,vectornav,495185.800261,20,2,28,17,32,47,800,2094,3,16,30.6724182,-96.3725242,89.37,0.00800000037998,-0.0299999993294,0.0149999996647,2.09015417099,2.48383808136,6.31116628647,0.193600013852,2.99999980413e-09
2020/02/28/11:32:48.033812,24016,1582911168,33742877,vectornav,495185.800261,20,2,28,17,32,47,800,2094,3,16,30.6724182,-96.3725242,89.37,0.00800000037998,-0.0299999993294,0.0149999996647,2.09015417099,2.48383808136,6.31116628647,0.193600013852,2.99999980413e-09
2020/02/28/11:32:48.053841,24017,1582911168,53727968,vectornav,495185.800261,20,2,28,17,32,47,800,2094,3,16,30.6724182,-96.3725242,89.37,0.00800000037998,-0.0299999993294,0.0149999996647,2.09015417099,2.48383808136,6.31116628647,0.193600013852,2.99999980413e-09
2020/02/28/11:32:48.073825,24018,1582911168,73718602,vectornav,495185.800261,20,2,28,17,32,47,800,2094,3,16,30.6724182,-96.3725242,89.37,0.00800000037998,-0.0299999993294,0.0149999996647,2.09015417099,2.48383808136,6.31116628647,0.193600013852,2.99999980413e-09
2020/02/28/11:32:48.093850,24019,1582911168,93729287,vectornav,495185.800261,20,2,28,17,32,47,800,2094,3,16,30.6724182,-96.3725242,89.37,0.00800000037998,-0.0299999993294,0.0149999996647,2.09015417099,2.48383808136,6.31116628647,0.193600013852,2.99999980413e-09
2020/02/28/11:32:48.113833,24020,1582911168,113733189,vectornav,495185.800261,20,2,28,17,32,47,800,2094,3,16,30.6724182,-96.3725242,89.37,0.00800000037998,-0.0299999993294,0.0149999996647,2.09015417099,2.48383808136,6.31116628647,0.193600013852,2.99999980413e-09
2020/02/28/11:32:48.133802,24021,1582911168,133701301,vectornav,495185.800261,20,2,28,17,32,47,800,2094,3,16,30.6724182,-96.3725242,89.37,0.00800000037998,-0.0299999993294,0.0149999996647,2.09015417099,2.48383808136,6.31116628647,0.193600013852,2.99999980413e-09
2020/02/28/11:32:48.153767,24022,1582911168,153672059,vectornav,495186.000261,20,2,28,17,32,48,0,2094,3,16,30.6724183,-96.372524,89.328,0.0280000008643,-0.00200000009499,0.082000002265,2.10271692276,2.48734068871,6.33838748932,0.218400001526,2.99999980413e-09
2020/02/28/11:32:48.173761,24023,1582911168,173672225,vectornav,495186.000261,20,2,28,17,32,48,0,2094,3,16,30.6724183,-96.372524,89.328,0.0280000008643,-0.00200000009499,0.082000002265,2.10271692276,2.48734068871,6.33838748932,0.218400001526,2.99999980413e-09
2020/02/28/11:32:48.193777,24024,1582911168,193663004,vectornav,495186.000261,20,2,28,17,32,48,0,2094,3,16,30.6724183,-96.372524,89.328,0.0280000008643,-0.00200000009499,0.082000002265,2.10271692276,2.48734068871,6.33838748932,0.218400001526,2.99999980413e-09
2020/02/28/11:32:48.213783,24025,1582911168,213658755,vectornav,495186.000261,20,2,28,17,32,48,0,2094,3,16,30.6724183,-96.372524,89.328,0.0280000008643,-0.00200000009499,0.082000002265,2.10271692276,2.48734068871,6.33838748932,0.218400001526,2.99999980413e-09
2020/02/28/11:32:48.233769,24026,1582911168,233649157,vectornav,495186.000261,20,2,28,17,32,48,0,2094,3,16,30.6724183,-96.372524,89.328,0.0280000008643,-0.00200000009499,0.082000002265,2.10271692276,2.48734068871,6.33838748932,0.218400001526,2.99999980413e-09
2020/02/28/11:32:48.253840,24027,1582911168,253713210,vectornav,495186.000261,20,2,28,17,32,48,0,2094,3,16,30.6724183,-96.372524,89.328,0.0280000008643,-0.00200000009499,0.082000002265,2.10271692276,2.48734068871,6.33838748932,0.218400001526,2.99999980413e-09
2020/02/28/11:32:48.273713,24028,1582911168,273626151,vectornav,495186.000261,20,2,28,17,32,48,0,2094,3,16,30.6724183,-96.372524,89.328,0.0280000008643,-0.00200000009499,0.082000002265,2.10271692276,2.48734068871,6.33838748932,0.218400001526,2.99999980413e-09
2020/02/28/11:32:48.293792,24029,1582911168,293629133,vectornav,495186.000261,20,2,28,17,32,48,0,2094,3,16,30.6724183,-96.372524,89.328,0.0280000008643,-0.00200000009499,0.082000002265,2.10271692276,2.48734068871,6.33838748932,0.218400001526,2.99999980413e-09
2020/02/28/11:32:48.313861,24030,1582911168,313671789,vectornav,495186.000261,20,2,28,17,32,48,0,2094,3,16,30.6724183,-96.372524,89.328,0.0280000008643,-0.00200000009499,0.082000002265,2.10271692276,2.48734068871,6.33838748932,0.218400001526,2.99999980413e-09
2020/02/28/11:32:48.334716,24031,1582911168,334634362,vectornav,495186.200261,20,2,28,17,32,48,200,2094,3,16,30.6724183,-96.3725239,89.282,0.0170000009239,-0.0240000002086,0.0930000022054,2.11462211609,2.49065709114,6.36348342896,0.217600017786,2.99999980413e-09
2020/02/28/11:32:48.353766,24032,1582911168,353626579,vectornav,495186.200261,20,2,28,17,32,48,200,2094,3,16,30.6724183,-96.3725239,89.282,0.0170000009239,-0.0240000002086,0.0930000022054,2.11462211609,2.49065709114,6.36348342896,0.217600017786,2.99999980413e-09
2020/02/28/11:32:48.373703,24033,1582911168,373626369,vectornav,495186.200261,20,2,28,17,32,48,200,2094,3,16,30.6724183,-96.3725239,89.282,0.0170000009239,-0.0240000002086,0.0930000022054,2.11462211609,2.49065709114,6.36348342896,0.217600017786,2.99999980413e-09
2020/02/28/11:32:48.393705,24034,1582911168,393604322,vectornav,495186.200261,20,2,28,17,32,48,200,2094,3,16,30.6724183,-96.3725239,89.282,0.0170000009239,-0.0240000002086,0.0930000022054,2.11462211609,2.49065709114,6.36348342896,0.217600017786,2.99999980413e-09
2020/02/28/11:32:48.413755,24035,1582911168,413637044,vectornav,495186.200261,20,2,28,17,32,48,200,2094,3,16,30.6724183,-96.3725239,89.282,0.0170000009239,-0.0240000002086,0.0930000022054,2.11462211609,2.49065709114,6.36348342896,0.217600017786,2.99999980413e-09
2020/02/28/11:32:48.433708,24036,1582911168,433582162,vectornav,495186.200261,20,2,28,17,32,48,200,2094,3,16,30.6724183,-96.3725239,89.282,0.0170000009239,-0.0240000002086,0.0930000022054,2.11462211609,2.49065709114,6.36348342896,0.217600017786,2.99999980413e-09
2020/02/28/11:32:48.454683,24037,1582911168,454587068,vectornav,495186.200261,20,2,28,17,32,48,200,2094,3,16,30.6724183,-96.3725239,89.282,0.0170000009239,-0.0240000002086,0.0930000022054,2.11462211609,2.49065709114,6.36348342896,0.217600017786,2.99999980413e-09
2020/02/28/11:32:48.474674,24038,1582911168,474579304,vectornav,495186.200261,20,2,28,17,32,48,200,2094,3,16,30.6724183,-96.3725239,89.282,0.0170000009239,-0.0240000002086,0.0930000022054,2.11462211609,2.49065709114,6.36348342896,0.217600017786,2.99999980413e-09
2020/02/28/11:32:48.493730,24039,1582911168,493611955,vectornav,495186.200261,20,2,28,17,32,48,200,2094,3,16,30.6724183,-96.3725239,89.282,0.0170000009239,-0.0240000002086,0.0930000022054,2.11462211609,2.49065709114,6.36348342896,0.217600017786,2.99999980413e-09
2020/02/28/11:32:48.514669,24040,1582911168,514577663,vectornav,495186.200261,20,2,28,17,32,48,200,2094,3,16,30.6724183,-96.3725239,89.282,0.0170000009239,-0.0240000002086,0.0930000022054,2.11462211609,2.49065709114,6.36348342896,0.217600017786,2.99999980413e-09
2020/02/28/11:32:48.534806,24041,1582911168,534645145,vectornav,495186.400261,20,2,28,17,32,48,400,2094,3,16,30.6724183,-96.3725237,89.26,0.0280000008643,0.0320000015199,0.0879999995232,2.1267786026,2.49406766891,6.38980102539,0.211199998856,2.99999980413e-09
2020/02/28/11:32:48.554737,24042,1582911168,554616860,vectornav,495186.400261,20,2,28,17,32,48,400,2094,3,16,30.6724183,-96.3725237,89.26,0.0280000008643,0.0320000015199,0.0879999995232,2.1267786026,2.49406766891,6.38980102539,0.211199998856,2.99999980413e-09
2020/02/28/11:32:48.574677,24043,1582911168,574579058,vectornav,495186.400261,20,2,28,17,32,48,400,2094,3,16,30.6724183,-96.3725237,89.26,0.0280000008643,0.0320000015199,0.0879999995232,2.1267786026,2.49406766891,6.38980102539,0.211199998856,2.99999980413e-09
2020/02/28/11:32:48.594686,24044,1582911168,594556170,vectornav,495186.400261,20,2,28,17,32,48,400,2094,3,16,30.6724183,-96.3725237,89.26,0.0280000008643,0.0320000015199,0.0879999995232,2.1267786026,2.49406766891,6.38980102539,0.211199998856,2.99999980413e-09
2020/02/28/11:32:48.614653,24045,1582911168,614560405,vectornav,495186.400261,20,2,28,17,32,48,400,2094,3,16,30.6724183,-96.3725237,89.26,0.0280000008643,0.0320000015199,0.0879999995232,2.1267786026,2.49406766891,6.38980102539,0.211199998856,2.99999980413e-09
2020/02/28/11:32:48.634635,24046,1582911168,634540104,vectornav,495186.400261,20,2,28,17,32,48,400,2094,3,16,30.6724183,-96.3725237,89.26,0.0280000008643,0.0320000015199,0.0879999995232,2.1267786026,2.49406766891,6.38980102539,0.211199998856,2.99999980413e-09
2020/02/28/11:32:48.654634,24047,1582911168,654509304,vectornav,495186.400261,20,2,28,17,32,48,400,2094,3,16,30.6724183,-96.3725237,89.26,0.0280000008643,0.0320000015199,0.0879999995232,2.1267786026,2.49406766891,6.38980102539,0.211199998856,2.99999980413e-09
2020/02/28/11:32:48.674649,24048,1582911168,674539935,vectornav,495186.400261,20,2,28,17,32,48,400,2094,3,16,30.6724183,-96.3725237,89.26,0.0280000008643,0.0320000015199,0.0879999995232,2.1267786026,2.49406766891,6.38980102539,0.211199998856,2.99999980413e-09
2020/02/28/11:32:48.694648,24049,1582911168,694539915,vectornav,495186.400261,20,2,28,17,32,48,400,2094,3,16,30.6724183,-96.3725237,89.26,0.0280000008643,0.0320000015199,0.0879999995232,2.1267786026,2.49406766891,6.38980102539,0.211199998856,2.99999980413e-09
2020/02/28/11:32:48.714628,24050,1582911168,714489514,vectornav,495186.400261,20,2,28,17,32,48,400,2094,3,16,30.6724183,-96.3725237,89.26,0.0280000008643,0.0320000015199,0.0879999995232,2.1267786026,2.49406766891,6.38980102539,0.211199998856,2.99999980413e-09
2020/02/28/11:32:48.734572,24051,1582911168,734502603,vectornav,495186.600261,20,2,28,17,32,48,600,2094,3,16,30.6724184,-96.3725235,89.236,0.0260000005364,-0.00899999961257,0.0450000017881,2.13956785202,2.49852180481,6.4161939621,0.214400008321,2.99999980413e-09
2020/02/28/11:32:48.754589,24052,1582911168,754495787,vectornav,495186.600261,20,2,28,17,32,48,600,2094,3,16,30.6724184,-96.3725235,89.236,0.0260000005364,-0.00899999961257,0.0450000017881,2.13956785202,2.49852180481,6.4161939621,0.214400008321,2.99999980413e-09
2020/02/28/11:32:48.774555,24053,1582911168,774486866,vectornav,495186.600261,20,2,28,17,32,48,600,2094,3,16,30.6724184,-96.3725235,89.236,0.0260000005364,-0.00899999961257,0.0450000017881,2.13956785202,2.49852180481,6.4161939621,0.214400008321,2.99999980413e-09
2020/02/28/11:32:48.794591,24054,1582911168,794485775,vectornav,495186.600261,20,2,28,17,32,48,600,2094,3,16,30.6724184,-96.3725235,89.236,0.0260000005364,-0.00899999961257,0.0450000017881,2.13956785202,2.49852180481,6.4161939621,0.214400008321,2.99999980413e-09
2020/02/28/11:32:48.814595,24055,1582911168,814495029,vectornav,495186.600261,20,2,28,17,32,48,600,2094,3,16,30.6724184,-96.3725235,89.236,0.0260000005364,-0.00899999961257,0.0450000017881,2.13956785202,2.49852180481,6.4161939621,0.214400008321,2.99999980413e-09
2020/02/28/11:32:48.834564,24056,1582911168,834492625,vectornav,495186.600261,20,2,28,17,32,48,600,2094,3,16,30.6724184,-96.3725235,89.236,0.0260000005364,-0.00899999961257,0.0450000017881,2.13956785202,2.49852180481,6.4161939621,0.214400008321,2.99999980413e-09
2020/02/28/11:32:48.854618,24057,1582911168,854502406,vectornav,495186.600261,20,2,28,17,32,48,600,2094,3,16,30.6724184,-96.3725235,89.236,0.0260000005364,-0.00899999961257,0.0450000017881,2.13956785202,2.49852180481,6.4161939621,0.214400008321,2.99999980413e-09
2020/02/28/11:32:48.874600,24058,1582911168,874501493,vectornav,495186.600261,20,2,28,17,32,48,600,2094,3,16,30.6724184,-96.3725235,89.236,0.0260000005364,-0.00899999961257,0.0450000017881,2.13956785202,2.49852180481,6.4161939621,0.214400008321,2.99999980413e-09
2020/02/28/11:32:48.894576,24059,1582911168,894453157,vectornav,495186.600261,20,2,28,17,32,48,600,2094,3,16,30.6724184,-96.3725235,89.236,0.0260000005364,-0.00899999961257,0.0450000017881,2.13956785202,2.49852180481,6.4161939621,0.214400008321,2.99999980413e-09
2020/02/28/11:32:48.914664,24060,1582911168,914485587,vectornav,495186.600261,20,2,28,17,32,48,600,2094,3,16,30.6724184,-96.3725235,89.236,0.0260000005364,-0.00899999961257,0.0450000017881,2.13956785202,2.49852180481,6.4161939621,0.214400008321,2.99999980413e-09
2020/02/28/11:32:48.934511,24061,1582911168,934417962,vectornav,495186.800261,20,2,28,17,32,48,800,2094,3,16,30.6724184,-96.3725233,89.199,-0.0189999993891,0.0280000008643,0.00899999961257,2.15129518509,2.50264596939,6.4425907135,0.181600019336,2.99999980413e-09
2020/02/28/11:32:48.954597,24062,1582911168,954458898,vectornav,495186.800261,20,2,28,17,32,48,800,2094,3,16,30.6724184,-96.3725233,89.199,-0.0189999993891,0.0280000008643,0.00899999961257,2.15129518509,2.50264596939,6.4425907135,0.181600019336,2.99999980413e-09
2020/02/28/11:32:48.974537,24063,1582911168,974441915,vectornav,495186.800261,20,2,28,17,32,48,800,2094,3,16,30.6724184,-96.3725233,89.199,-0.0189999993891,0.0280000008643,0.00899999961257,2.15129518509,2.50264596939,6.4425907135,0.181600019336,2.99999980413e-09
2020/02/28/11:32:48.994575,24064,1582911168,994435240,vectornav,495186.800261,20,2,28,17,32,48,800,2094,3,16,30.6724184,-96.3725233,89.199,-0.0189999993891,0.0280000008643,0.00899999961257,2.15129518509,2.50264596939,6.4425907135,0.181600019336,2.99999980413e-09
2020/02/28/11:32:49.014560,24065,1582911169,14437497,vectornav,495186.800261,20,2,28,17,32,48,800,2094,3,16,30.6724184,-96.3725233,89.199,-0.0189999993891,0.0280000008643,0.00899999961257,2.15129518509,2.50264596939,6.4425907135,0.181600019336,2.99999980413e-09
2020/02/28/11:32:49.034520,24066,1582911169,34444350,vectornav,495186.800261,20,2,28,17,32,48,800,2094,3,16,30.6724184,-96.3725233,89.199,-0.0189999993891,0.0280000008643,0.00899999961257,2.15129518509,2.50264596939,6.4425907135,0.181600019336,2.99999980413e-09
2020/02/28/11:32:49.054630,24067,1582911169,54486666,vectornav,495186.800261,20,2,28,17,32,48,800,2094,3,16,30.6724184,-96.3725233,89.199,-0.0189999993891,0.0280000008643,0.00899999961257,2.15129518509,2.50264596939,6.4425907135,0.181600019336,2.99999980413e-09
2020/02/28/11:32:49.074596,24068,1582911169,74447541,vectornav,495186.800261,20,2,28,17,32,48,800,2094,3,16,30.6724184,-96.3725233,89.199,-0.0189999993891,0.0280000008643,0.00899999961257,2.15129518509,2.50264596939,6.4425907135,0.181600019336,2.99999980413e-09
2020/02/28/11:32:49.094467,24069,1582911169,94377009,vectornav,495186.800261,20,2,28,17,32,48,800,2094,3,16,30.6724184,-96.3725233,89.199,-0.0189999993891,0.0280000008643,0.00899999961257,2.15129518509,2.50264596939,6.4425907135,0.181600019336,2.99999980413e-09
2020/02/28/11:32:49.114530,24070,1582911169,114402844,vectornav,495186.800261,20,2,28,17,32,48,800,2094,3,16,30.6724184,-96.3725233,89.199,-0.0189999993891,0.0280000008643,0.00899999961257,2.15129518509,2.50264596939,6.4425907135,0.181600019336,2.99999980413e-09
2020/02/28/11:32:49.134510,24071,1582911169,134421496,vectornav,495187.000261,20,2,28,17,32,49,0,2094,3,16,30.6724184,-96.372523,89.179,0.0140000004321,-0.0109999999404,0.0450000017881,2.16311001778,2.50744438171,6.46897315979,0.219200015068,2.99999980413e-09
2020/02/28/11:32:49.154592,24072,1582911169,154461614,vectornav,495187.000261,20,2,28,17,32,49,0,2094,3,16,30.6724184,-96.372523,89.179,0.0140000004321,-0.0109999999404,0.0450000017881,2.16311001778,2.50744438171,6.46897315979,0.219200015068,2.99999980413e-09
2020/02/28/11:32:49.174529,24073,1582911169,174421325,vectornav,495187.000261,20,2,28,17,32,49,0,2094,3,16,30.6724184,-96.372523,89.179,0.0140000004321,-0.0109999999404,0.0450000017881,2.16311001778,2.50744438171,6.46897315979,0.219200015068,2.99999980413e-09
2020/02/28/11:32:49.194524,24074,1582911169,194354917,vectornav,495187.000261,20,2,28,17,32,49,0,2094,3,16,30.6724184,-96.372523,89.179,0.0140000004321,-0.0109999999404,0.0450000017881,2.16311001778,2.50744438171,6.46897315979,0.219200015068,2.99999980413e-09
2020/02/28/11:32:49.214528,24075,1582911169,214415409,vectornav,495187.000261,20,2,28,17,32,49,0,2094,3,16,30.6724184,-96.372523,89.179,0.0140000004321,-0.0109999999404,0.0450000017881,2.16311001778,2.50744438171,6.46897315979,0.219200015068,2.99999980413e-09
2020/02/28/11:32:49.234485,24076,1582911169,234376675,vectornav,495187.000261,20,2,28,17,32,49,0,2094,3,16,30.6724184,-96.372523,89.179,0.0140000004321,-0.0109999999404,0.0450000017881,2.16311001778,2.50744438171,6.46897315979,0.219200015068,2.99999980413e-09
2020/02/28/11:32:49.254494,24077,1582911169,254371004,vectornav,495187.000261,20,2,28,17,32,49,0,2094,3,16,30.6724184,-96.372523,89.179,0.0140000004321,-0.0109999999404,0.0450000017881,2.16311001778,2.50744438171,6.46897315979,0.219200015068,2.99999980413e-09
2020/02/28/11:32:49.274454,24078,1582911169,274360577,vectornav,495187.000261,20,2,28,17,32,49,0,2094,3,16,30.6724184,-96.372523,89.179,0.0140000004321,-0.0109999999404,0.0450000017881,2.16311001778,2.50744438171,6.46897315979,0.219200015068,2.99999980413e-09
2020/02/28/11:32:49.294464,24079,1582911169,294364359,vectornav,495187.000261,20,2,28,17,32,49,0,2094,3,16,30.6724184,-96.372523,89.179,0.0140000004321,-0.0109999999404,0.0450000017881,2.16311001778,2.50744438171,6.46897315979,0.219200015068,2.99999980413e-09
2020/02/28/11:32:49.314518,24080,1582911169,314375325,vectornav,495187.000261,20,2,28,17,32,49,0,2094,3,16,30.6724184,-96.372523,89.179,0.0140000004321,-0.0109999999404,0.0450000017881,2.16311001778,2.50744438171,6.46897315979,0.219200015068,2.99999980413e-09
2020/02/28/11:32:49.334451,24081,1582911169,334386286,vectornav,495187.200261,20,2,28,17,32,49,200,2094,3,16,30.6724184,-96.3725229,89.158,-0.00800000037998,-0.00600000005215,-0.0370000004768,2.1738448143,2.51156282425,6.49175405502,0.217600017786,2.99999980413e-09
2020/02/28/11:32:49.354475,24082,1582911169,354349287,vectornav,495187.200261,20,2,28,17,32,49,200,2094,3,16,30.6724184,-96.3725229,89.158,-0.00800000037998,-0.00600000005215,-0.0370000004768,2.1738448143,2.51156282425,6.49175405502,0.217600017786,2.99999980413e-09
2020/02/28/11:32:49.374507,24083,1582911169,374337977,vectornav,495187.200261,20,2,28,17,32,49,200,2094,3,16,30.6724184,-96.3725229,89.158,-0.00800000037998,-0.00600000005215,-0.0370000004768,2.1738448143,2.51156282425,6.49175405502,0.217600017786,2.99999980413e-09
2020/02/28/11:32:49.394428,24084,1582911169,394318907,vectornav,495187.200261,20,2,28,17,32,49,200,2094,3,16,30.6724184,-96.3725229,89.158,-0.00800000037998,-0.00600000005215,-0.0370000004768,2.1738448143,2.51156282425,6.49175405502,0.217600017786,2.99999980413e-09
2020/02/28/11:32:49.414391,24085,1582911169,414302218,vectornav,495187.200261,20,2,28,17,32,49,200,2094,3,16,30.6724184,-96.3725229,89.158,-0.00800000037998,-0.00600000005215,-0.0370000004768,2.1738448143,2.51156282425,6.49175405502,0.217600017786,2.99999980413e-09
2020/02/28/11:32:49.434409,24086,1582911169,434323445,vectornav,495187.200261,20,2,28,17,32,49,200,2094,3,16,30.6724184,-96.3725229,89.158,-0.00800000037998,-0.00600000005215,-0.0370000004768,2.1738448143,2.51156282425,6.49175405502,0.217600017786,2.99999980413e-09
2020/02/28/11:32:49.454428,24087,1582911169,454329332,vectornav,495187.200261,20,2,28,17,32,49,200,2094,3,16,30.6724184,-96.3725229,89.158,-0.00800000037998,-0.00600000005215,-0.0370000004768,2.1738448143,2.51156282425,6.49175405502,0.217600017786,2.99999980413e-09
2020/02/28/11:32:49.474463,24088,1582911169,474335078,vectornav,495187.200261,20,2,28,17,32,49,200,2094,3,16,30.6724184,-96.3725229,89.158,-0.00800000037998,-0.00600000005215,-0.0370000004768,2.1738448143,2.51156282425,6.49175405502,0.217600017786,2.99999980413e-09
2020/02/28/11:32:49.494418,24089,1582911169,494295837,vectornav,495187.200261,20,2,28,17,32,49,200,2094,3,16,30.6724184,-96.3725229,89.158,-0.00800000037998,-0.00600000005215,-0.0370000004768,2.1738448143,2.51156282425,6.49175405502,0.217600017786,2.99999980413e-09
2020/02/28/11:32:49.514425,24090,1582911169,514323645,vectornav,495187.200261,20,2,28,17,32,49,200,2094,3,16,30.6724184,-96.3725229,89.158,-0.00800000037998,-0.00600000005215,-0.0370000004768,2.1738448143,2.51156282425,6.49175405502,0.217600017786,2.99999980413e-09
2020/02/28/11:32:49.534358,24091,1582911169,534273960,vectornav,495187.400261,20,2,28,17,32,49,400,2094,3,16,30.6724184,-96.3725227,89.109,-0.0289999991655,-0.0170000009239,-0.0329999998212,2.18421602249,2.51540327072,6.51436805725,0.19200001657,2.99999980413e-09
2020/02/28/11:32:49.554438,24092,1582911169,554306169,vectornav,495187.400261,20,2,28,17,32,49,400,2094,3,16,30.6724184,-96.3725227,89.109,-0.0289999991655,-0.0170000009239,-0.0329999998212,2.18421602249,2.51540327072,6.51436805725,0.19200001657,2.99999980413e-09
2020/02/28/11:32:49.574392,24093,1582911169,574299577,vectornav,495187.400261,20,2,28,17,32,49,400,2094,3,16,30.6724184,-96.3725227,89.109,-0.0289999991655,-0.0170000009239,-0.0329999998212,2.18421602249,2.51540327072,6.51436805725,0.19200001657,2.99999980413e-09
2020/02/28/11:32:49.594450,24094,1582911169,594308403,vectornav,495187.400261,20,2,28,17,32,49,400,2094,3,16,30.6724184,-96.3725227,89.109,-0.0289999991655,-0.0170000009239,-0.0329999998212,2.18421602249,2.51540327072,6.51436805725,0.19200001657,2.99999980413e-09
2020/02/28/11:32:49.614489,24095,1582911169,614329971,vectornav,495187.400261,20,2,28,17,32,49,400,2094,3,16,30.6724184,-96.3725227,89.109,-0.0289999991655,-0.0170000009239,-0.0329999998212,2.18421602249,2.51540327072,6.51436805725,0.19200001657,2.99999980413e-09
2020/02/28/11:32:49.634398,24096,1582911169,634278828,vectornav,495187.400261,20,2,28,17,32,49,400,2094,3,16,30.6724184,-96.3725227,89.109,-0.0289999991655,-0.0170000009239,-0.0329999998212,2.18421602249,2.51540327072,6.51436805725,0.19200001657,2.99999980413e-09
2020/02/28/11:32:49.654445,24097,1582911169,654314320,vectornav,495187.400261,20,2,28,17,32,49,400,2094,3,16,30.6724184,-96.3725227,89.109,-0.0289999991655,-0.0170000009239,-0.0329999998212,2.18421602249,2.51540327072,6.51436805725,0.19200001657,2.99999980413e-09
2020/02/28/11:32:49.674409,24098,1582911169,674300541,vectornav,495187.400261,20,2,28,17,32,49,400,2094,3,16,30.6724184,-96.3725227,89.109,-0.0289999991655,-0.0170000009239,-0.0329999998212,2.18421602249,2.51540327072,6.51436805725,0.19200001657,2.99999980413e-09
2020/02/28/11:32:49.694299,24099,1582911169,694201886,vectornav,495187.400261,20,2,28,17,32,49,400,2094,3,16,30.6724184,-96.3725227,89.109,-0.0289999991655,-0.0170000009239,-0.0329999998212,2.18421602249,2.51540327072,6.51436805725,0.19200001657,2.99999980413e-09
2020/02/28/11:32:49.714420,24100,1582911169,714267329,vectornav,495187.400261,20,2,28,17,32,49,400,2094,3,16,30.6724184,-96.3725227,89.109,-0.0289999991655,-0.0170000009239,-0.0329999998212,2.18421602249,2.51540327072,6.51436805725,0.19200001657,2.99999980413e-09
2020/02/28/11:32:49.734288,24101,1582911169,734210652,vectornav,495187.600261,20,2,28,17,32,49,600,2094,3,16,30.6724184,-96.3725225,89.08,-0.0320000015199,-0.0240000002086,-0.0909999981523,2.19418787956,2.51845240593,6.5389995575,0.213600024581,2.99999980413e-09
2020/02/28/11:32:49.754442,24102,1582911169,754250641,vectornav,495187.600261,20,2,28,17,32,49,600,2094,3,16,30.6724184,-96.3725225,89.08,-0.0320000015199,-0.0240000002086,-0.0909999981523,2.19418787956,2.51845240593,6.5389995575,0.213600024581,2.99999980413e-09
2020/02/28/11:32:49.774382,24103,1582911169,774223917,vectornav,495187.600261,20,2,28,17,32,49,600,2094,3,16,30.6724184,-96.3725225,89.08,-0.0320000015199,-0.0240000002086,-0.0909999981523,2.19418787956,2.51845240593,6.5389995575,0.213600024581,2.99999980413e-09
2020/02/28/11:32:49.794341,24104,1582911169,794200569,vectornav,495187.600261,20,2,28,17,32,49,600,2094,3,16,30.6724184,-96.3725225,89.08,-0.0320000015199,-0.0240000002086,-0.0909999981523,2.19418787956,2.51845240593,6.5389995575,0.213600024581,2.99999980413e-09
2020/02/28/11:32:49.814360,24105,1582911169,814214584,vectornav,495187.600261,20,2,28,17,32,49,600,2094,3,16,30.6724184,-96.3725225,89.08,-0.0320000015199,-0.0240000002086,-0.0909999981523,2.19418787956,2.51845240593,6.5389995575,0.213600024581,2.99999980413e-09
2020/02/28/11:32:49.834244,24106,1582911169,834162510,vectornav,495187.600261,20,2,28,17,32,49,600,2094,3,16,30.6724184,-96.3725225,89.08,-0.0320000015199,-0.0240000002086,-0.0909999981523,2.19418787956,2.51845240593,6.5389995575,0.213600024581,2.99999980413e-09
2020/02/28/11:32:49.854318,24107,1582911169,854179643,vectornav,495187.600261,20,2,28,17,32,49,600,2094,3,16,30.6724184,-96.3725225,89.08,-0.0320000015199,-0.0240000002086,-0.0909999981523,2.19418787956,2.51845240593,6.5389995575,0.213600024581,2.99999980413e-09
2020/02/28/11:32:49.874295,24108,1582911169,874197142,vectornav,495187.600261,20,2,28,17,32,49,600,2094,3,16,30.6724184,-96.3725225,89.08,-0.0320000015199,-0.0240000002086,-0.0909999981523,2.19418787956,2.51845240593,6.5389995575,0.213600024581,2.99999980413e-09
2020/02/28/11:32:49.894342,24109,1582911169,894177947,vectornav,495187.600261,20,2,28,17,32,49,600,2094,3,16,30.6724184,-96.3725225,89.08,-0.0320000015199,-0.0240000002086,-0.0909999981523,2.19418787956,2.51845240593,6.5389995575,0.213600024581,2.99999980413e-09
2020/02/28/11:32:49.914339,24110,1582911169,914179215,vectornav,495187.600261,20,2,28,17,32,49,600,2094,3,16,30.6724184,-96.3725225,89.08,-0.0320000015199,-0.0240000002086,-0.0909999981523,2.19418787956,2.51845240593,6.5389995575,0.213600024581,2.99999980413e-09
2020/02/28/11:32:49.934212,24111,1582911169,934135402,vectornav,495187.800261,20,2,28,17,32,49,800,2094,3,16,30.6724183,-96.3725223,89.057,-0.0430000014603,-0.00300000002608,-0.118000000715,2.20365524292,2.52096509933,6.56275606155,0.218400001526,2.99999980413e-09
2020/02/28/11:32:49.954292,24112,1582911169,954158880,vectornav,495187.800261,20,2,28,17,32,49,800,2094,3,16,30.6724183,-96.3725223,89.057,-0.0430000014603,-0.00300000002608,-0.118000000715,2.20365524292,2.52096509933,6.56275606155,0.218400001526,2.99999980413e-09
2020/02/28/11:32:49.974169,24113,1582911169,974106489,vectornav,495187.800261,20,2,28,17,32,49,800,2094,3,16,30.6724183,-96.3725223,89.057,-0.0430000014603,-0.00300000002608,-0.118000000715,2.20365524292,2.52096509933,6.56275606155,0.218400001526,2.99999980413e-09
2020/02/28/11:32:49.994189,24114,1582911169,994107020,vectornav,495187.800261,20,2,28,17,32,49,800,2094,3,16,30.6724183,-96.3725223,89.057,-0.0430000014603,-0.00300000002608,-0.118000000715,2.20365524292,2.52096509933,6.56275606155,0.218400001526,2.99999980413e-09
2020/02/28/11:32:50.014262,24115,1582911170,14123807,vectornav,495187.800261,20,2,28,17,32,49,800,2094,3,16,30.6724183,-96.3725223,89.057,-0.0430000014603,-0.00300000002608,-0.118000000715,2.20365524292,2.52096509933,6.56275606155,0.218400001526,2.99999980413e-09
2020/02/28/11:32:50.034185,24116,1582911170,34111949,vectornav,495187.800261,20,2,28,17,32,49,800,2094,3,16,30.6724183,-96.3725223,89.057,-0.0430000014603,-0.00300000002608,-0.118000000715,2.20365524292,2.52096509933,6.56275606155,0.218400001526,2.99999980413e-09
2020/02/28/11:32:50.054332,24117,1582911170,54136635,vectornav,495187.800261,20,2,28,17,32,49,800,2094,3,16,30.6724183,-96.3725223,89.057,-0.0430000014603,-0.00300000002608,-0.118000000715,2.20365524292,2.52096509933,6.56275606155,0.218400001526,2.99999980413e-09
2020/02/28/11:32:50.074198,24118,1582911170,74092977,vectornav,495187.800261,20,2,28,17,32,49,800,2094,3,16,30.6724183,-96.3725223,89.057,-0.0430000014603,-0.00300000002608,-0.118000000715,2.20365524292,2.52096509933,6.56275606155,0.218400001526,2.99999980413e-09
2020/02/28/11:32:50.094228,24119,1582911170,94108569,vectornav,495187.800261,20,2,28,17,32,49,800,2094,3,16,30.6724183,-96.3725223,89.057,-0.0430000014603,-0.00300000002608,-0.118000000715,2.20365524292,2.52096509933,6.56275606155,0.218400001526,2.99999980413e-09
2020/02/28/11:32:50.114178,24120,1582911170,114080515,vectornav,495187.800261,20,2,28,17,32,49,800,2094,3,16,30.6724183,-96.3725223,89.057,-0.0430000014603,-0.00300000002608,-0.118000000715,2.20365524292,2.52096509933,6.56275606155,0.218400001526,2.99999980413e-09
2020/02/28/11:32:50.134235,24121,1582911170,134126582,vectornav,495188.000261,20,2,28,17,32,50,0,2094,3,16,30.6724182,-96.3725219,89.042,0.0109999999404,0.0209999997169,-0.0450000017881,2.21225786209,2.52299714088,6.58326911926,0.19920001924,2.99999980413e-09
2020/02/28/11:32:50.154189,24122,1582911170,154079741,vectornav,495188.000261,20,2,28,17,32,50,0,2094,3,16,30.6724182,-96.3725219,89.042,0.0109999999404,0.0209999997169,-0.0450000017881,2.21225786209,2.52299714088,6.58326911926,0.19920001924,2.99999980413e-09
2020/02/28/11:32:50.174163,24123,1582911170,174066062,vectornav,495188.000261,20,2,28,17,32,50,0,2094,3,16,30.6724182,-96.3725219,89.042,0.0109999999404,0.0209999997169,-0.0450000017881,2.21225786209,2.52299714088,6.58326911926,0.19920001924,2.99999980413e-09
2020/02/28/11:32:50.194170,24124,1582911170,194052229,vectornav,495188.000261,20,2,28,17,32,50,0,2094,3,16,30.6724182,-96.3725219,89.042,0.0109999999404,0.0209999997169,-0.0450000017881,2.21225786209,2.52299714088,6.58326911926,0.19920001924,2.99999980413e-09
2020/02/28/11:32:50.214148,24125,1582911170,214064431,vectornav,495188.000261,20,2,28,17,32,50,0,2094,3,16,30.6724182,-96.3725219,89.042,0.0109999999404,0.0209999997169,-0.0450000017881,2.21225786209,2.52299714088,6.58326911926,0.19920001924,2.99999980413e-09
2020/02/28/11:32:50.234148,24126,1582911170,234054629,vectornav,495188.000261,20,2,28,17,32,50,0,2094,3,16,30.6724182,-96.3725219,89.042,0.0109999999404,0.0209999997169,-0.0450000017881,2.21225786209,2.52299714088,6.58326911926,0.19920001924,2.99999980413e-09
2020/02/28/11:32:50.254169,24127,1582911170,254057621,vectornav,495188.000261,20,2,28,17,32,50,0,2094,3,16,30.6724182,-96.3725219,89.042,0.0109999999404,0.0209999997169,-0.0450000017881,2.21225786209,2.52299714088,6.58326911926,0.19920001924,2.99999980413e-09
2020/02/28/11:32:50.274159,24128,1582911170,274053001,vectornav,495188.000261,20,2,28,17,32,50,0,2094,3,16,30.6724182,-96.3725219,89.042,0.0109999999404,0.0209999997169,-0.0450000017881,2.21225786209,2.52299714088,6.58326911926,0.19920001924,2.99999980413e-09
2020/02/28/11:32:50.294204,24129,1582911170,294032159,vectornav,495188.000261,20,2,28,17,32,50,0,2094,3,16,30.6724182,-96.3725219,89.042,0.0109999999404,0.0209999997169,-0.0450000017881,2.21225786209,2.52299714088,6.58326911926,0.19920001924,2.99999980413e-09
2020/02/28/11:32:50.314143,24130,1582911170,314045691,vectornav,495188.000261,20,2,28,17,32,50,0,2094,3,16,30.6724182,-96.3725219,89.042,0.0109999999404,0.0209999997169,-0.0450000017881,2.21225786209,2.52299714088,6.58326911926,0.19920001924,2.99999980413e-09
2020/02/28/11:32:50.334138,24131,1582911170,334040316,vectornav,495188.200261,20,2,28,17,32,50,200,2094,3,16,30.6724182,-96.3725217,89.025,-0.0189999993891,0.0120000001043,-0.0410000011325,2.22116756439,2.52463150024,6.60566902161,0.218400001526,2.99999980413e-09
2020/02/28/11:32:50.354155,24132,1582911170,354009560,vectornav,495188.200261,20,2,28,17,32,50,200,2094,3,16,30.6724182,-96.3725217,89.025,-0.0189999993891,0.0120000001043,-0.0410000011325,2.22116756439,2.52463150024,6.60566902161,0.218400001526,2.99999980413e-09
2020/02/28/11:32:50.374196,24133,1582911170,374052865,vectornav,495188.200261,20,2,28,17,32,50,200,2094,3,16,30.6724182,-96.3725217,89.025,-0.0189999993891,0.0120000001043,-0.0410000011325,2.22116756439,2.52463150024,6.60566902161,0.218400001526,2.99999980413e-09
2020/02/28/11:32:50.394125,24134,1582911170,393987562,vectornav,495188.200261,20,2,28,17,32,50,200,2094,3,16,30.6724182,-96.3725217,89.025,-0.0189999993891,0.0120000001043,-0.0410000011325,2.22116756439,2.52463150024,6.60566902161,0.218400001526,2.99999980413e-09
2020/02/28/11:32:50.414114,24135,1582911170,413992420,vectornav,495188.200261,20,2,28,17,32,50,200,2094,3,16,30.6724182,-96.3725217,89.025,-0.0189999993891,0.0120000001043,-0.0410000011325,2.22116756439,2.52463150024,6.60566902161,0.218400001526,2.99999980413e-09
2020/02/28/11:32:50.434117,24136,1582911170,434037130,vectornav,495188.200261,20,2,28,17,32,50,200,2094,3,16,30.6724182,-96.3725217,89.025,-0.0189999993891,0.0120000001043,-0.0410000011325,2.22116756439,2.52463150024,6.60566902161,0.218400001526,2.99999980413e-09
2020/02/28/11:32:50.454135,24137,1582911170,454014343,vectornav,495188.200261,20,2,28,17,32,50,200,2094,3,16,30.6724182,-96.3725217,89.025,-0.0189999993891,0.0120000001043,-0.0410000011325,2.22116756439,2.52463150024,6.60566902161,0.218400001526,2.99999980413e-09
2020/02/28/11:32:50.474042,24138,1582911170,473970845,vectornav,495188.200261,20,2,28,17,32,50,200,2094,3,16,30.6724182,-96.3725217,89.025,-0.0189999993891,0.0120000001043,-0.0410000011325,2.22116756439,2.52463150024,6.60566902161,0.218400001526,2.99999980413e-09
2020/02/28/11:32:50.494133,24139,1582911170,494001349,vectornav,495188.200261,20,2,28,17,32,50,200,2094,3,16,30.6724182,-96.3725217,89.025,-0.0189999993891,0.0120000001043,-0.0410000011325,2.22116756439,2.52463150024,6.60566902161,0.218400001526,2.99999980413e-09
2020/02/28/11:32:50.514089,24140,1582911170,513965651,vectornav,495188.200261,20,2,28,17,32,50,200,2094,3,16,30.6724182,-96.3725217,89.025,-0.0189999993891,0.0120000001043,-0.0410000011325,2.22116756439,2.52463150024,6.60566902161,0.218400001526,2.99999980413e-09
2020/02/28/11:32:50.534067,24141,1582911170,533968338,vectornav,495188.400261,20,2,28,17,32,50,400,2094,3,16,30.6724182,-96.3725215,89.008,-0.0189999993891,-0.0140000004321,-0.0270000007004,2.22976493835,2.52626824379,6.62737369537,0.19920001924,2.99999980413e-09
2020/02/28/11:32:50.554091,24142,1582911170,553994734,vectornav,495188.400261,20,2,28,17,32,50,400,2094,3,16,30.6724182,-96.3725215,89.008,-0.0189999993891,-0.0140000004321,-0.0270000007004,2.22976493835,2.52626824379,6.62737369537,0.19920001924,2.99999980413e-09
2020/02/28/11:32:50.574067,24143,1582911170,573999663,vectornav,495188.400261,20,2,28,17,32,50,400,2094,3,16,30.6724182,-96.3725215,89.008,-0.0189999993891,-0.0140000004321,-0.0270000007004,2.22976493835,2.52626824379,6.62737369537,0.19920001924,2.99999980413e-09
2020/02/28/11:32:50.594092,24144,1582911170,593960775,vectornav,495188.400261,20,2,28,17,32,50,400,2094,3,16,30.6724182,-96.3725215,89.008,-0.0189999993891,-0.0140000004321,-0.0270000007004,2.22976493835,2.52626824379,6.62737369537,0.19920001924,2.99999980413e-09
2020/02/28/11:32:50.614062,24145,1582911170,613943546,vectornav,495188.400261,20,2,28,17,32,50,400,2094,3,16,30.6724182,-96.3725215,89.008,-0.0189999993891,-0.0140000004321,-0.0270000007004,2.22976493835,2.52626824379,6.62737369537,0.19920001924,2.99999980413e-09
2020/02/28/11:32:50.634098,24146,1582911170,633948878,vectornav,495188.400261,20,2,28,17,32,50,400,2094,3,16,30.6724182,-96.3725215,89.008,-0.0189999993891,-0.0140000004321,-0.0270000007004,2.22976493835,2.52626824379,6.62737369537,0.19920001924,2.99999980413e-09
2020/02/28/11:32:50.654053,24147,1582911170,653920813,vectornav,495188.400261,20,2,28,17,32,50,400,2094,3,16,30.6724182,-96.3725215,89.008,-0.0189999993891,-0.0140000004321,-0.0270000007004,2.22976493835,2.52626824379,6.62737369537,0.19920001924,2.99999980413e-09
2020/02/28/11:32:50.674015,24148,1582911170,673942670,vectornav,495188.400261,20,2,28,17,32,50,400,2094,3,16,30.6724182,-96.3725215,89.008,-0.0189999993891,-0.0140000004321,-0.0270000007004,2.22976493835,2.52626824379,6.62737369537,0.19920001924,2.99999980413e-09
2020/02/28/11:32:50.694131,24149,1582911170,693946213,vectornav,495188.400261,20,2,28,17,32,50,400,2094,3,16,30.6724182,-96.3725215,89.008,-0.0189999993891,-0.0140000004321,-0.0270000007004,2.22976493835,2.52626824379,6.62737369537,0.19920001924,2.99999980413e-09
2020/02/28/11:32:50.714001,24150,1582911170,713897124,vectornav,495188.400261,20,2,28,17,32,50,400,2094,3,16,30.6724182,-96.3725215,89.008,-0.0189999993891,-0.0140000004321,-0.0270000007004,2.22976493835,2.52626824379,6.62737369537,0.19920001924,2.99999980413e-09
2020/02/28/11:32:50.733959,24151,1582911170,733893590,vectornav,495188.600261,20,2,28,17,32,50,600,2094,3,16,30.6724182,-96.3725213,88.97,0.00300000002608,-0.0130000002682,0.00800000037998,2.2382414341,2.52779340744,6.64858341217,0.197600007057,2.99999980413e-09
2020/02/28/11:32:50.753990,24152,1582911170,753893244,vectornav,495188.600261,20,2,28,17,32,50,600,2094,3,16,30.6724182,-96.3725213,88.97,0.00300000002608,-0.0130000002682,0.00800000037998,2.2382414341,2.52779340744,6.64858341217,0.197600007057,2.99999980413e-09
2020/02/28/11:32:50.774140,24153,1582911170,774020403,vectornav,495188.600261,20,2,28,17,32,50,600,2094,3,16,30.6724182,-96.3725213,88.97,0.00300000002608,-0.0130000002682,0.00800000037998,2.2382414341,2.52779340744,6.64858341217,0.197600007057,2.99999980413e-09
2020/02/28/11:32:50.793994,24154,1582911170,793896681,vectornav,495188.600261,20,2,28,17,32,50,600,2094,3,16,30.6724182,-96.3725213,88.97,0.00300000002608,-0.0130000002682,0.00800000037998,2.2382414341,2.52779340744,6.64858341217,0.197600007057,2.99999980413e-09
2020/02/28/11:32:50.813957,24155,1582911170,813878843,vectornav,495188.600261,20,2,28,17,32,50,600,2094,3,16,30.6724182,-96.3725213,88.97,0.00300000002608,-0.0130000002682,0.00800000037998,2.2382414341,2.52779340744,6.64858341217,0.197600007057,2.99999980413e-09
2020/02/28/11:32:50.833993,24156,1582911170,833892291,vectornav,495188.600261,20,2,28,17,32,50,600,2094,3,16,30.6724182,-96.3725213,88.97,0.00300000002608,-0.0130000002682,0.00800000037998,2.2382414341,2.52779340744,6.64858341217,0.197600007057,2.99999980413e-09
2020/02/28/11:32:50.853998,24157,1582911170,853876147,vectornav,495188.600261,20,2,28,17,32,50,600,2094,3,16,30.6724182,-96.3725213,88.97,0.00300000002608,-0.0130000002682,0.00800000037998,2.2382414341,2.52779340744,6.64858341217,0.197600007057,2.99999980413e-09
2020/02/28/11:32:50.873949,24158,1582911170,873866160,vectornav,495188.600261,20,2,28,17,32,50,600,2094,3,16,30.6724182,-96.3725213,88.97,0.00300000002608,-0.0130000002682,0.00800000037998,2.2382414341,2.52779340744,6.64858341217,0.197600007057,2.99999980413e-09
2020/02/28/11:32:50.894037,24159,1582911170,893888112,vectornav,495188.600261,20,2,28,17,32,50,600,2094,3,16,30.6724182,-96.3725213,88.97,0.00300000002608,-0.0130000002682,0.00800000037998,2.2382414341,2.52779340744,6.64858341217,0.197600007057,2.99999980413e-09
2020/02/28/11:32:50.913989,24160,1582911170,913876981,vectornav,495188.600261,20,2,28,17,32,50,600,2094,3,16,30.6724182,-96.3725213,88.97,0.00300000002608,-0.0130000002682,0.00800000037998,2.2382414341,2.52779340744,6.64858341217,0.197600007057,2.99999980413e-09
2020/02/28/11:32:50.933917,24161,1582911170,933848994,vectornav,495188.800261,20,2,28,17,32,50,800,2094,3,16,30.6724183,-96.3725211,88.945,0.101999998093,0.035000000149,0.0430000014603,2.24642634392,2.52921724319,6.67025947571,0.158400014043,2.99999980413e-09
2020/02/28/11:32:50.953925,24162,1582911170,953823787,vectornav,495188.800261,20,2,28,17,32,50,800,2094,3,16,30.6724183,-96.3725211,88.945,0.101999998093,0.035000000149,0.0430000014603,2.24642634392,2.52921724319,6.67025947571,0.158400014043,2.99999980413e-09
2020/02/28/11:32:50.973915,24163,1582911170,973845536,vectornav,495188.800261,20,2,28,17,32,50,800,2094,3,16,30.6724183,-96.3725211,88.945,0.101999998093,0.035000000149,0.0430000014603,2.24642634392,2.52921724319,6.67025947571,0.158400014043,2.99999980413e-09
2020/02/28/11:32:50.994008,24164,1582911170,993867761,vectornav,495188.800261,20,2,28,17,32,50,800,2094,3,16,30.6724183,-96.3725211,88.945,0.101999998093,0.035000000149,0.0430000014603,2.24642634392,2.52921724319,6.67025947571,0.158400014043,2.99999980413e-09
2020/02/28/11:32:51.013994,24165,1582911171,13831965,vectornav,495188.800261,20,2,28,17,32,50,800,2094,3,16,30.6724183,-96.3725211,88.945,0.101999998093,0.035000000149,0.0430000014603,2.24642634392,2.52921724319,6.67025947571,0.158400014043,2.99999980413e-09
2020/02/28/11:32:51.033897,24166,1582911171,33803115,vectornav,495188.800261,20,2,28,17,32,50,800,2094,3,16,30.6724183,-96.3725211,88.945,0.101999998093,0.035000000149,0.0430000014603,2.24642634392,2.52921724319,6.67025947571,0.158400014043,2.99999980413e-09
2020/02/28/11:32:51.054006,24167,1582911171,53827602,vectornav,495188.800261,20,2,28,17,32,50,800,2094,3,16,30.6724183,-96.3725211,88.945,0.101999998093,0.035000000149,0.0430000014603,2.24642634392,2.52921724319,6.67025947571,0.158400014043,2.99999980413e-09
2020/02/28/11:32:51.073930,24168,1582911171,73834857,vectornav,495188.800261,20,2,28,17,32,50,800,2094,3,16,30.6724183,-96.3725211,88.945,0.101999998093,0.035000000149,0.0430000014603,2.24642634392,2.52921724319,6.67025947571,0.158400014043,2.99999980413e-09
2020/02/28/11:32:51.093962,24169,1582911171,93827163,vectornav,495188.800261,20,2,28,17,32,50,800,2094,3,16,30.6724183,-96.3725211,88.945,0.101999998093,0.035000000149,0.0430000014603,2.24642634392,2.52921724319,6.67025947571,0.158400014043,2.99999980413e-09
2020/02/28/11:32:51.113897,24170,1582911171,113785609,vectornav,495188.800261,20,2,28,17,32,50,800,2094,3,16,30.6724183,-96.3725211,88.945,0.101999998093,0.035000000149,0.0430000014603,2.24642634392,2.52921724319,6.67025947571,0.158400014043,2.99999980413e-09
2020/02/28/11:32:51.133883,24171,1582911171,133783568,vectornav,495189.000261,20,2,28,17,32,51,0,2094,3,16,30.6724185,-96.3725209,88.92,0.180000007153,0.0670000016689,0.0240000002086,2.25489187241,2.53090047836,6.69128513336,0.13520000875,2.99999980413e-09
2020/02/28/11:32:51.153881,24172,1582911171,153780025,vectornav,495189.000261,20,2,28,17,32,51,0,2094,3,16,30.6724185,-96.3725209,88.92,0.180000007153,0.0670000016689,0.0240000002086,2.25489187241,2.53090047836,6.69128513336,0.13520000875,2.99999980413e-09
2020/02/28/11:32:51.173860,24173,1582911171,173790425,vectornav,495189.000261,20,2,28,17,32,51,0,2094,3,16,30.6724185,-96.3725209,88.92,0.180000007153,0.0670000016689,0.0240000002086,2.25489187241,2.53090047836,6.69128513336,0.13520000875,2.99999980413e-09
2020/02/28/11:32:51.193886,24174,1582911171,193758025,vectornav,495189.000261,20,2,28,17,32,51,0,2094,3,16,30.6724185,-96.3725209,88.92,0.180000007153,0.0670000016689,0.0240000002086,2.25489187241,2.53090047836,6.69128513336,0.13520000875,2.99999980413e-09
2020/02/28/11:32:51.213823,24175,1582911171,213726543,vectornav,495189.000261,20,2,28,17,32,51,0,2094,3,16,30.6724185,-96.3725209,88.92,0.180000007153,0.0670000016689,0.0240000002086,2.25489187241,2.53090047836,6.69128513336,0.13520000875,2.99999980413e-09
2020/02/28/11:32:51.233849,24176,1582911171,233750830,vectornav,495189.000261,20,2,28,17,32,51,0,2094,3,16,30.6724185,-96.3725209,88.92,0.180000007153,0.0670000016689,0.0240000002086,2.25489187241,2.53090047836,6.69128513336,0.13520000875,2.99999980413e-09
2020/02/28/11:32:51.253856,24177,1582911171,253744622,vectornav,495189.000261,20,2,28,17,32,51,0,2094,3,16,30.6724185,-96.3725209,88.92,0.180000007153,0.0670000016689,0.0240000002086,2.25489187241,2.53090047836,6.69128513336,0.13520000875,2.99999980413e-09
2020/02/28/11:32:51.273793,24178,1582911171,273727866,vectornav,495189.000261,20,2,28,17,32,51,0,2094,3,16,30.6724185,-96.3725209,88.92,0.180000007153,0.0670000016689,0.0240000002086,2.25489187241,2.53090047836,6.69128513336,0.13520000875,2.99999980413e-09
2020/02/28/11:32:51.293824,24179,1582911171,293713168,vectornav,495189.000261,20,2,28,17,32,51,0,2094,3,16,30.6724185,-96.3725209,88.92,0.180000007153,0.0670000016689,0.0240000002086,2.25489187241,2.53090047836,6.69128513336,0.13520000875,2.99999980413e-09
2020/02/28/11:32:51.313900,24180,1582911171,313737949,vectornav,495189.000261,20,2,28,17,32,51,0,2094,3,16,30.6724185,-96.3725209,88.92,0.180000007153,0.0670000016689,0.0240000002086,2.25489187241,2.53090047836,6.69128513336,0.13520000875,2.99999980413e-09
2020/02/28/11:32:51.333811,24181,1582911171,333707881,vectornav,495189.200261,20,2,28,17,32,51,200,2094,3,16,30.6724189,-96.3725207,88.886,0.266000002623,-0.00300000002608,0.00200000009499,2.26307368279,2.53033351898,6.7036895752,0.139200016856,2.99999980413e-09
2020/02/28/11:32:51.353851,24182,1582911171,353750688,vectornav,495189.200261,20,2,28,17,32,51,200,2094,3,16,30.6724189,-96.3725207,88.886,0.266000002623,-0.00300000002608,0.00200000009499,2.26307368279,2.53033351898,6.7036895752,0.139200016856,2.99999980413e-09
2020/02/28/11:32:51.373832,24183,1582911171,373744813,vectornav,495189.200261,20,2,28,17,32,51,200,2094,3,16,30.6724189,-96.3725207,88.886,0.266000002623,-0.00300000002608,0.00200000009499,2.26307368279,2.53033351898,6.7036895752,0.139200016856,2.99999980413e-09
2020/02/28/11:32:51.393850,24184,1582911171,393715253,vectornav,495189.200261,20,2,28,17,32,51,200,2094,3,16,30.6724189,-96.3725207,88.886,0.266000002623,-0.00300000002608,0.00200000009499,2.26307368279,2.53033351898,6.7036895752,0.139200016856,2.99999980413e-09
2020/02/28/11:32:51.413787,24185,1582911171,413679795,vectornav,495189.200261,20,2,28,17,32,51,200,2094,3,16,30.6724189,-96.3725207,88.886,0.266000002623,-0.00300000002608,0.00200000009499,2.26307368279,2.53033351898,6.7036895752,0.139200016856,2.99999980413e-09
2020/02/28/11:32:51.433736,24186,1582911171,433662565,vectornav,495189.200261,20,2,28,17,32,51,200,2094,3,16,30.6724189,-96.3725207,88.886,0.266000002623,-0.00300000002608,0.00200000009499,2.26307368279,2.53033351898,6.7036895752,0.139200016856,2.99999980413e-09
2020/02/28/11:32:51.453825,24187,1582911171,453660416,vectornav,495189.200261,20,2,28,17,32,51,200,2094,3,16,30.6724189,-96.3725207,88.886,0.266000002623,-0.00300000002608,0.00200000009499,2.26307368279,2.53033351898,6.7036895752,0.139200016856,2.99999980413e-09
2020/02/28/11:32:51.473765,24188,1582911171,473648587,vectornav,495189.200261,20,2,28,17,32,51,200,2094,3,16,30.6724189,-96.3725207,88.886,0.266000002623,-0.00300000002608,0.00200000009499,2.26307368279,2.53033351898,6.7036895752,0.139200016856,2.99999980413e-09
2020/02/28/11:32:51.493765,24189,1582911171,493638276,vectornav,495189.200261,20,2,28,17,32,51,200,2094,3,16,30.6724189,-96.3725207,88.886,0.266000002623,-0.00300000002608,0.00200000009499,2.26307368279,2.53033351898,6.7036895752,0.139200016856,2.99999980413e-09
2020/02/28/11:32:51.513748,24190,1582911171,513633512,vectornav,495189.200261,20,2,28,17,32,51,200,2094,3,16,30.6724189,-96.3725207,88.886,0.266000002623,-0.00300000002608,0.00200000009499,2.26307368279,2.53033351898,6.7036895752,0.139200016856,2.99999980413e-09
2020/02/28/11:32:51.533767,24191,1582911171,533619302,vectornav,495189.400261,20,2,28,17,32,51,400,2094,3,16,30.6724195,-96.3725205,88.86,0.305000007153,0.0419999994338,0.0439999997616,2.27120375633,2.52883243561,6.712225914,0.139200016856,2.99999980413e-09
2020/02/28/11:32:51.553746,24192,1582911171,553601853,vectornav,495189.400261,20,2,28,17,32,51,400,2094,3,16,30.6724195,-96.3725205,88.86,0.305000007153,0.0419999994338,0.0439999997616,2.27120375633,2.52883243561,6.712225914,0.139200016856,2.99999980413e-09
2020/02/28/11:32:51.573702,24193,1582911171,573605934,vectornav,495189.400261,20,2,28,17,32,51,400,2094,3,16,30.6724195,-96.3725205,88.86,0.305000007153,0.0419999994338,0.0439999997616,2.27120375633,2.52883243561,6.712225914,0.139200016856,2.99999980413e-09
2020/02/28/11:32:51.594741,24194,1582911171,594602364,vectornav,495189.400261,20,2,28,17,32,51,400,2094,3,16,30.6724195,-96.3725205,88.86,0.305000007153,0.0419999994338,0.0439999997616,2.27120375633,2.52883243561,6.712225914,0.139200016856,2.99999980413e-09
2020/02/28/11:32:51.613702,24195,1582911171,613597991,vectornav,495189.400261,20,2,28,17,32,51,400,2094,3,16,30.6724195,-96.3725205,88.86,0.305000007153,0.0419999994338,0.0439999997616,2.27120375633,2.52883243561,6.712225914,0.139200016856,2.99999980413e-09
2020/02/28/11:32:51.634682,24196,1582911171,634568475,vectornav,495189.400261,20,2,28,17,32,51,400,2094,3,16,30.6724195,-96.3725205,88.86,0.305000007153,0.0419999994338,0.0439999997616,2.27120375633,2.52883243561,6.712225914,0.139200016856,2.99999980413e-09
2020/02/28/11:32:51.654722,24197,1582911171,654567558,vectornav,495189.400261,20,2,28,17,32,51,400,2094,3,16,30.6724195,-96.3725205,88.86,0.305000007153,0.0419999994338,0.0439999997616,2.27120375633,2.52883243561,6.712225914,0.139200016856,2.99999980413e-09
2020/02/28/11:32:51.674607,24198,1582911171,674540804,vectornav,495189.400261,20,2,28,17,32,51,400,2094,3,16,30.6724195,-96.3725205,88.86,0.305000007153,0.0419999994338,0.0439999997616,2.27120375633,2.52883243561,6.712225914,0.139200016856,2.99999980413e-09
2020/02/28/11:32:51.694753,24199,1582911171,694590804,vectornav,495189.400261,20,2,28,17,32,51,400,2094,3,16,30.6724195,-96.3725205,88.86,0.305000007153,0.0419999994338,0.0439999997616,2.27120375633,2.52883243561,6.712225914,0.139200016856,2.99999980413e-09
2020/02/28/11:32:51.714654,24200,1582911171,714568836,vectornav,495189.400261,20,2,28,17,32,51,400,2094,3,16,30.6724195,-96.3725205,88.86,0.305000007153,0.0419999994338,0.0439999997616,2.27120375633,2.52883243561,6.712225914,0.139200016856,2.99999980413e-09
2020/02/28/11:32:51.734656,24201,1582911171,734548294,vectornav,495189.600261,20,2,28,17,32,51,600,2094,3,16,30.6724202,-96.3725202,88.855,0.432000011206,0.0949999988079,0.0,2.27989768982,2.53286290169,6.71955394745,0.132000014186,2.99999980413e-09
2020/02/28/11:32:51.754697,24202,1582911171,754562193,vectornav,495189.600261,20,2,28,17,32,51,600,2094,3,16,30.6724202,-96.3725202,88.855,0.432000011206,0.0949999988079,0.0,2.27989768982,2.53286290169,6.71955394745,0.132000014186,2.99999980413e-09
2020/02/28/11:32:51.774674,24203,1582911171,774534542,vectornav,495189.600261,20,2,28,17,32,51,600,2094,3,16,30.6724202,-96.3725202,88.855,0.432000011206,0.0949999988079,0.0,2.27989768982,2.53286290169,6.71955394745,0.132000014186,2.99999980413e-09
2020/02/28/11:32:51.794621,24204,1582911171,794497569,vectornav,495189.600261,20,2,28,17,32,51,600,2094,3,16,30.6724202,-96.3725202,88.855,0.432000011206,0.0949999988079,0.0,2.27989768982,2.53286290169,6.71955394745,0.132000014186,2.99999980413e-09
2020/02/28/11:32:51.814668,24205,1582911171,814536474,vectornav,495189.600261,20,2,28,17,32,51,600,2094,3,16,30.6724202,-96.3725202,88.855,0.432000011206,0.0949999988079,0.0,2.27989768982,2.53286290169,6.71955394745,0.132000014186,2.99999980413e-09
2020/02/28/11:32:51.834601,24206,1582911171,834495642,vectornav,495189.600261,20,2,28,17,32,51,600,2094,3,16,30.6724202,-96.3725202,88.855,0.432000011206,0.0949999988079,0.0,2.27989768982,2.53286290169,6.71955394745,0.132000014186,2.99999980413e-09
2020/02/28/11:32:51.854580,24207,1582911171,854460923,vectornav,495189.600261,20,2,28,17,32,51,600,2094,3,16,30.6724202,-96.3725202,88.855,0.432000011206,0.0949999988079,0.0,2.27989768982,2.53286290169,6.71955394745,0.132000014186,2.99999980413e-09
2020/02/28/11:32:51.874555,24208,1582911171,874485965,vectornav,495189.600261,20,2,28,17,32,51,600,2094,3,16,30.6724202,-96.3725202,88.855,0.432000011206,0.0949999988079,0.0,2.27989768982,2.53286290169,6.71955394745,0.132000014186,2.99999980413e-09
2020/02/28/11:32:51.894554,24209,1582911171,894459390,vectornav,495189.600261,20,2,28,17,32,51,600,2094,3,16,30.6724202,-96.3725202,88.855,0.432000011206,0.0949999988079,0.0,2.27989768982,2.53286290169,6.71955394745,0.132000014186,2.99999980413e-09
2020/02/28/11:32:51.914575,24210,1582911171,914465327,vectornav,495189.600261,20,2,28,17,32,51,600,2094,3,16,30.6724202,-96.3725202,88.855,0.432000011206,0.0949999988079,0.0,2.27989768982,2.53286290169,6.71955394745,0.132000014186,2.99999980413e-09
2020/02/28/11:32:51.934600,24211,1582911171,934492231,vectornav,495189.800261,20,2,28,17,32,51,800,2094,3,16,30.6724212,-96.3725201,88.789,0.535000026226,0.0399999991059,0.0410000011325,2.27200126648,2.53437232971,6.69052600861,0.129600003362,2.99999980413e-09
2020/02/28/11:32:51.954553,24212,1582911171,954455916,vectornav,495189.800261,20,2,28,17,32,51,800,2094,3,16,30.6724212,-96.3725201,88.789,0.535000026226,0.0399999991059,0.0410000011325,2.27200126648,2.53437232971,6.69052600861,0.129600003362,2.99999980413e-09
2020/02/28/11:32:51.974566,24213,1582911171,974474738,vectornav,495189.800261,20,2,28,17,32,51,800,2094,3,16,30.6724212,-96.3725201,88.789,0.535000026226,0.0399999991059,0.0410000011325,2.27200126648,2.53437232971,6.69052600861,0.129600003362,2.99999980413e-09
2020/02/28/11:32:51.994676,24214,1582911171,994512147,vectornav,495189.800261,20,2,28,17,32,51,800,2094,3,16,30.6724212,-96.3725201,88.789,0.535000026226,0.0399999991059,0.0410000011325,2.27200126648,2.53437232971,6.69052600861,0.129600003362,2.99999980413e-09
2020/02/28/11:32:52.014542,24215,1582911172,14438888,vectornav,495189.800261,20,2,28,17,32,51,800,2094,3,16,30.6724212,-96.3725201,88.789,0.535000026226,0.0399999991059,0.0410000011325,2.27200126648,2.53437232971,6.69052600861,0.129600003362,2.99999980413e-09
2020/02/28/11:32:52.034601,24216,1582911172,34481262,vectornav,495189.800261,20,2,28,17,32,51,800,2094,3,16,30.6724212,-96.3725201,88.789,0.535000026226,0.0399999991059,0.0410000011325,2.27200126648,2.53437232971,6.69052600861,0.129600003362,2.99999980413e-09
2020/02/28/11:32:52.054549,24217,1582911172,54449461,vectornav,495189.800261,20,2,28,17,32,51,800,2094,3,16,30.6724212,-96.3725201,88.789,0.535000026226,0.0399999991059,0.0410000011325,2.27200126648,2.53437232971,6.69052600861,0.129600003362,2.99999980413e-09
2020/02/28/11:32:52.074481,24218,1582911172,74401860,vectornav,495189.800261,20,2,28,17,32,51,800,2094,3,16,30.6724212,-96.3725201,88.789,0.535000026226,0.0399999991059,0.0410000011325,2.27200126648,2.53437232971,6.69052600861,0.129600003362,2.99999980413e-09
2020/02/28/11:32:52.094598,24219,1582911172,94445031,vectornav,495189.800261,20,2,28,17,32,51,800,2094,3,16,30.6724212,-96.3725201,88.789,0.535000026226,0.0399999991059,0.0410000011325,2.27200126648,2.53437232971,6.69052600861,0.129600003362,2.99999980413e-09
2020/02/28/11:32:52.114498,24220,1582911172,114420981,vectornav,495189.800261,20,2,28,17,32,51,800,2094,3,16,30.6724212,-96.3725201,88.789,0.535000026226,0.0399999991059,0.0410000011325,2.27200126648,2.53437232971,6.69052600861,0.129600003362,2.99999980413e-09
