time,.header.seq,.header.stamp.secs,.header.stamp.nsecs,.header.frame_id,.gps_time,.Mag.x,.Mag.y,.Mag.z,.Accel.x,.Accel.y,.Accel.z,.Gyro.x,.Gyro.y,.Gyro.z,.Temp,.Pressure
2020/02/28/11:32:47.534193,0,1582911167,534047313,vectornav,1266946385.52,0.0,0.0,0.0,-0.094453021884,-0.34022757411,-9.73654842377,0.000915786367841,-0.00105404341593,-0.000949079170823,0.0,0.0
2020/02/28/11:32:47.554146,1,1582911167,554035195,vectornav,1266946385.54,0.0,0.0,0.0,-0.120566770434,-0.356488198042,-9.76796627045,0.0001090625301,-0.00125001743436,-0.000148247927427,0.0,0.0
2020/02/28/11:32:47.576298,2,1582911167,574035868,vectornav,1266946385.56,0.0,0.0,0.0,-0.141749858856,-0.369635909796,-9.78176879883,0.00117324281018,0.000573595054448,0.00045923050493,0.0,0.0
2020/02/28/11:32:47.594102,3,1582911167,594044724,vectornav,1266946385.58,0.0,0.0,0.0,-0.130194038153,-0.343264520168,-9.79945373535,0.00232989853248,-0.000922377221286,-0.000618869438767,0.0,0.0
2020/02/28/11:32:47.615081,4,1582911167,614031892,vectornav,1266946385.6,0.0,0.0,0.0,-0.133211314678,-0.353518009186,-9.81313514709,-0.000483573821839,0.000950979301706,-0.000801715999842,0.0,0.0
2020/02/28/11:32:47.634058,5,1582911167,634021643,vectornav,1266946385.62,0.0,0.0,0.0,-0.117643624544,-0.34985691309,-9.7978553772,0.000538429187145,0.00108138518408,-0.000569955445826,0.0,0.0
2020/02/28/11:32:47.654122,6,1582911167,654069020,vectornav,1266946385.64,0.0,0.0,0.0,-0.133209049702,-0.351771891117,-9.77635765076,0.00141601962969,0.0007786876522,-0.000855881720781,0.0,0.0
2020/02/28/11:32:47.674007,7,1582911167,673970582,vectornav,1266946385.66,0.0,0.0,0.0,-0.135106354952,-0.333242356777,-9.75350856781,0.000405321421567,0.00129335722886,0.000702508725226,0.0,0.0
2020/02/28/11:32:47.694123,8,1582911167,694084277,vectornav,1266946385.68,0.0,0.0,0.0,-0.126406699419,-0.352639138699,-9.76205825806,-0.000344302825397,-4.79333102703e-05,0.000337942503393,0.0,0.0
2020/02/28/11:32:47.714125,9,1582911167,714018167,vectornav,1266946385.7,0.0,0.0,0.0,-0.109396353364,-0.35355079174,-9.78774452209,2.93013872579e-05,-0.000316326040775,-0.000762651674449,0.0,0.0
2020/02/28/11:32:47.734062,10,1582911167,734004766,vectornav,1266946385.72,0.0,0.0,0.0,-0.115068033338,-0.351512044668,-9.74059677124,0.000598079059273,0.00101483007893,-1.35852023959e-05,0.0,0.0
2020/02/28/11:32:47.754023,11,1582911167,753960320,vectornav,1266946385.74,0.0,0.0,0.0,-0.127969518304,-0.350151211023,-9.73874950409,-0.00206499779597,0.000999624608085,0.000967846252024,0.0,0.0
2020/02/28/11:32:47.773992,12,1582911167,773928221,vectornav,1266946385.76,0.0,0.0,0.0,-0.11266759038,-0.327257812023,-9.77570438385,-0.000302186526824,-0.000378572847694,-6.55790790915e-05,0.0,0.0
2020/02/28/11:32:47.794012,13,1582911167,793952996,vectornav,1266946385.78,0.0,0.0,0.0,-0.10327937454,-0.356703072786,-9.76959896088,-4.25930484198e-05,2.55289487541e-05,-0.0005186451599,0.0,0.0
2020/02/28/11:32:47.814023,14,1582911167,813966905,vectornav,1266946385.8,0.0,0.0,0.0,-0.12143035233,-0.343694597483,-9.76822566986,-0.000946834683418,0.000352142844349,-0.000392463989556,0.0,0.0
2020/02/28/11:32:47.834013,15,1582911167,833952623,vectornav,1266946385.82,0.0,0.0,0.0,-0.132775917649,-0.356898456812,-9.77841091156,-0.00075680896407,0.000297809951007,0.000599189661443,0.0,0.0
2020/02/28/11:32:47.853971,16,1582911167,853920964,vectornav,1266946385.84,0.0,0.0,0.0,-0.133572086692,-0.354942947626,-9.75411319733,-0.000435846188338,-0.000479938928038,0.00066652148962,0.0,0.0
2020/02/28/11:32:47.873981,17,1582911167,873947122,vectornav,1266946385.86,0.0,0.0,0.0,-0.0865269452333,-0.325075209141,-9.75560379028,-0.00109317025635,-0.00119532831013,-2.72607430816e-05,0.0,0.0
2020/02/28/11:32:47.893934,18,1582911167,893890043,vectornav,1266946385.88,0.0,0.0,0.0,-0.121304109693,-0.327204078436,-9.77597522736,-0.000500693451613,0.000173904933035,-0.000416883267462,0.0,0.0
2020/02/28/11:32:47.913925,19,1582911167,913873117,vectornav,1266946385.9,0.0,0.0,0.0,-0.135048285127,-0.320035099983,-9.79724597931,0.00058740505483,0.000502821989357,0.00106350518763,0.0,0.0
2020/02/28/11:32:47.933944,20,1582911167,933906356,vectornav,1266946385.92,0.0,0.0,0.0,-0.117516472936,-0.326965481043,-9.79433631897,0.000287955801468,0.000176492612809,-0.000650894828141,0.0,0.0
2020/02/28/11:32:47.954030,21,1582911167,953880171,vectornav,1266946385.94,0.0,0.0,0.0,-0.11897970736,-0.333720475435,-9.76281356812,0.000971407396719,-0.00021744845435,-0.00066964328289,0.0,0.0
2020/02/28/11:32:47.973935,22,1582911167,973888026,vectornav,1266946385.96,0.0,0.0,0.0,-0.102475307882,-0.339122831821,-9.76852035522,-0.000308829301503,-7.65318982303e-05,-0.00153379049152,0.0,0.0
2020/02/28/11:32:47.994006,23,1582911167,993913995,vectornav,1266946385.98,0.0,0.0,0.0,-0.108206801116,-0.339277356863,-9.75068092346,0.00172732886858,0.000158540438861,0.000167367048562,0.0,0.0
2020/02/28/11:32:48.014208,24,1582911168,14131534,vectornav,1266946386.0,0.0,0.0,0.0,-0.116448529065,-0.343487113714,-9.75877761841,0.00213093915954,0.000181414652616,0.00128832645714,0.0,0.0
2020/02/28/11:32:48.033920,25,1582911168,33878504,vectornav,1266946386.02,0.0,0.0,0.0,-0.133660033345,-0.353735506535,-9.73022842407,0.000738119415473,-3.68165783584e-05,0.00107039790601,0.0,0.0
2020/02/28/11:32:48.053954,26,1582911168,53901223,vectornav,1266946386.04,0.0,0.0,0.0,-0.129295527935,-0.371078342199,-9.77572727203,0.00121231540106,-0.000173836480826,0.000259597785771,0.0,0.0
2020/02/28/11:32:48.073894,27,1582911168,73866110,vectornav,1266946386.06,0.0,0.0,0.0,-0.146755144,-0.359300911427,-9.73677349091,0.000586524663959,0.000726942671463,7.1837566793e-05,0.0,0.0
2020/02/28/11:32:48.093990,28,1582911168,93881805,vectornav,1266946386.08,0.0,0.0,0.0,-0.117502622306,-0.329231292009,-9.76403999329,-0.000347989291186,4.22415323555e-05,9.50703397393e-05,0.0,0.0
2020/02/28/11:32:48.113945,29,1582911168,113906938,vectornav,1266946386.1,0.0,0.0,0.0,-0.138641417027,-0.357079267502,-9.75326538086,0.000432672735769,0.000504605006427,-0.000208451412618,0.0,0.0
2020/02/28/11:32:48.133898,30,1582911168,133822662,vectornav,1266946386.12,0.0,0.0,0.0,-0.105035878718,-0.338348597288,-9.77685165405,-4.59660077468e-05,-0.000158162787557,0.000235200859606,0.0,0.0
2020/02/28/11:32:48.153845,31,1582911168,153807062,vectornav,1266946386.14,0.0,0.0,0.0,-0.0944500118494,-0.357813388109,-9.78080558777,0.000555558770429,-0.000768012367189,0.00103168562055,0.0,0.0
2020/02/28/11:32:48.173830,32,1582911168,173802772,vectornav,1266946386.16,0.0,0.0,0.0,-0.0978903099895,-0.369555771351,-9.75523757935,-0.00145288254134,-0.000596334692091,7.29309394956e-05,0.0,0.0
2020/02/28/11:32:48.193867,33,1582911168,193800857,vectornav,1266946386.18,0.0,0.0,0.0,-0.114453114569,-0.363394021988,-9.7693939209,-3.15203797072e-05,0.000368793960661,0.000690002925694,0.0,0.0
2020/02/28/11:32:48.213873,34,1582911168,213785668,vectornav,1266946386.2,0.0,0.0,0.0,-0.126956418157,-0.332941234112,-9.74151515961,0.000995704671368,-0.00106578459963,-0.00019805226475,0.0,0.0
2020/02/28/11:32:48.233812,35,1582911168,233780194,vectornav,1266946386.22,0.0,0.0,0.0,-0.0991657525301,-0.348605066538,-9.75567722321,-6.12211297266e-05,0.000303510110825,0.000243035145104,0.0,0.0
2020/02/28/11:32:48.253911,36,1582911168,253838256,vectornav,1266946386.24,0.0,0.0,0.0,-0.105044193566,-0.326352119446,-9.74360847473,-0.000367888191249,2.0164065063e-05,-5.13335689902e-05,0.0,0.0
2020/02/28/11:32:48.273818,37,1582911168,273748439,vectornav,1266946386.26,0.0,0.0,0.0,-0.151972740889,-0.328467100859,-9.73347377777,-0.000120812910609,-0.000169531907886,-0.000270525924861,0.0,0.0
2020/02/28/11:32:48.293830,38,1582911168,293752942,vectornav,1266946386.28,0.0,0.0,0.0,-0.145078718662,-0.356744855642,-9.77131080627,-0.000342645565979,0.00138630904257,-0.0012702299282,0.0,0.0
2020/02/28/11:32:48.313959,39,1582911168,313858091,vectornav,1266946386.3,0.0,0.0,0.0,-0.110072664917,-0.346600621939,-9.77601051331,0.000580321182497,-0.000450885389,0.000351485796273,0.0,0.0
2020/02/28/11:32:48.334881,40,1582911168,334822067,vectornav,1266946386.32,0.0,0.0,0.0,-0.133421719074,-0.320392251015,-9.78329086304,0.000563701440115,0.000661537516862,0.000704656355083,0.0,0.0
2020/02/28/11:32:48.353841,41,1582911168,353748336,vectornav,1266946386.34,0.0,0.0,0.0,-0.112262569368,-0.347881317139,-9.77506542206,-0.000148129765876,-0.000484745483845,-0.000216320157051,0.0,0.0
2020/02/28/11:32:48.373797,42,1582911168,373756494,vectornav,1266946386.36,0.0,0.0,0.0,-0.120815075934,-0.349536776543,-9.74174499512,0.000715272151865,-0.000486041419208,1.09858810902e-05,0.0,0.0
2020/02/28/11:32:48.393772,43,1582911168,393734549,vectornav,1266946386.38,0.0,0.0,0.0,-0.116767175496,-0.35586643219,-9.75149345398,0.000694032642059,-0.00123260868713,-0.000617704354227,0.0,0.0
2020/02/28/11:32:48.413833,44,1582911168,413760672,vectornav,1266946386.4,0.0,0.0,0.0,-0.121844954789,-0.359710037708,-9.77922916412,-0.000247158051934,-0.000219745095819,-1.66883692145e-05,0.0,0.0
2020/02/28/11:32:48.433776,45,1582911168,433709610,vectornav,1266946386.42,0.0,0.0,0.0,-0.12424544245,-0.343704581261,-9.74964141846,0.000916155346204,-0.000106200575829,-0.000108038075268,0.0,0.0
2020/02/28/11:32:48.454754,46,1582911168,454710974,vectornav,1266946386.44,0.0,0.0,0.0,-0.128140181303,-0.344853818417,-9.78264427185,0.000927894143388,0.00154680619016,0.00022704154253,0.0,0.0
2020/02/28/11:32:48.474762,47,1582911168,474699960,vectornav,1266946386.46,0.0,0.0,0.0,-0.114407874644,-0.347433328629,-9.75920391083,0.000226783973631,-0.00037178164348,0.000786200165749,0.0,0.0
2020/02/28/11:32:48.493790,48,1582911168,493743001,vectornav,1266946386.48,0.0,0.0,0.0,-0.110463820398,-0.362803399563,-9.7555809021,0.000242486014031,-0.000856325030327,0.00125965103507,0.0,0.0
2020/02/28/11:32:48.514804,49,1582911168,514711739,vectornav,1266946386.5,0.0,0.0,0.0,-0.112699098885,-0.357392370701,-9.7787399292,0.000172845553607,0.000510262325406,7.64541327953e-05,0.0,0.0
2020/02/28/11:32:48.534960,50,1582911168,534865252,vectornav,1266946386.52,0.0,0.0,0.0,-0.117120273411,-0.352798849344,-9.72790527344,0.000417009927332,0.000543967820704,-0.000355307944119,0.0,0.0
2020/02/28/11:32:48.554810,51,1582911168,554741843,vectornav,1266946386.54,0.0,0.0,0.0,-0.10044491291,-0.365184545517,-9.75391769409,0.000335654069204,0.00023095915094,0.000656547024846,0.0,0.0
2020/02/28/11:32:48.574744,52,1582911168,574702266,vectornav,1266946386.56,0.0,0.0,0.0,-0.127806827426,-0.352157920599,-9.76386070251,0.000457977352198,0.000255897641182,0.00070742238313,0.0,0.0
2020/02/28/11:32:48.594742,53,1582911168,594690516,vectornav,1266946386.58,0.0,0.0,0.0,-0.111012384295,-0.357029944658,-9.76913261414,-4.90266829729e-05,0.000289786141366,0.00120274815708,0.0,0.0
2020/02/28/11:32:48.614748,54,1582911168,614695194,vectornav,1266946386.6,0.0,0.0,0.0,-0.108299478889,-0.329660922289,-9.78382301331,0.000260281201918,-0.00146363861859,0.000396643765271,0.0,0.0
2020/02/28/11:32:48.634779,55,1582911168,634686426,vectornav,1266946386.62,0.0,0.0,0.0,-0.113856673241,-0.338354736567,-9.75016403198,-0.0001304129255,-0.00135888671502,-0.000669303350151,0.0,0.0
2020/02/28/11:32:48.654783,56,1582911168,654715212,vectornav,1266946386.64,0.0,0.0,0.0,-0.120449244976,-0.339794456959,-9.78555297852,-0.000255601014942,-2.36975029111e-05,9.05925408006e-05,0.0,0.0
2020/02/28/11:32:48.674714,57,1582911168,674670791,vectornav,1266946386.66,0.0,0.0,0.0,-0.127540871501,-0.372157692909,-9.78969955444,-0.00077468942618,1.07921659946e-05,0.000694899819791,0.0,0.0
2020/02/28/11:32:48.694719,58,1582911168,694669473,vectornav,1266946386.68,0.0,0.0,0.0,-0.132690414786,-0.364798992872,-9.80392074585,8.15771636553e-05,7.00764358044e-05,-0.00041647721082,0.0,0.0
2020/02/28/11:32:48.714678,59,1582911168,714615198,vectornav,1266946386.7,0.0,0.0,0.0,-0.134762331843,-0.319661289454,-9.77642250061,-6.39905920252e-06,-0.000453373417258,-0.000873122364283,0.0,0.0
2020/02/28/11:32:48.734699,60,1582911168,734650025,vectornav,1266946386.72,0.0,0.0,0.0,-0.13742788136,-0.346125721931,-9.75660514832,-4.26342594437e-05,-0.000288979150355,0.000441326759756,0.0,0.0
2020/02/28/11:32:48.754685,61,1582911168,754647490,vectornav,1266946386.74,0.0,0.0,0.0,-0.144481524825,-0.352254122496,-9.75423908234,-0.00104224751703,-0.000565526075661,-0.0008663861081,0.0,0.0
2020/02/28/11:32:48.774707,62,1582911168,774632507,vectornav,1266946386.76,0.0,0.0,0.0,-0.129005566239,-0.327848672867,-9.77268314362,0.000705581565853,-0.000668333377689,0.000623513944447,0.0,0.0
2020/02/28/11:32:48.794703,63,1582911168,794639226,vectornav,1266946386.78,0.0,0.0,0.0,-0.137583658099,-0.346480697393,-9.71136188507,7.53389322199e-05,-0.000802450813353,0.000769286416471,0.0,0.0
2020/02/28/11:32:48.814686,64,1582911168,814632890,vectornav,1266946386.8,0.0,0.0,0.0,-0.119709827006,-0.359928965569,-9.76474475861,0.000120623677503,0.000693516340107,0.0007514199242,0.0,0.0
2020/02/28/11:32:48.834703,65,1582911168,834661741,vectornav,1266946386.82,0.0,0.0,0.0,-0.139031663537,-0.364120155573,-9.79501152039,-8.44406895339e-05,0.000190199352801,0.0017154449597,0.0,0.0
2020/02/28/11:32:48.854690,66,1582911168,854645461,vectornav,1266946386.84,0.0,0.0,0.0,-0.11580915004,-0.368537843227,-9.81195735931,0.00149857474025,0.00106847146526,-0.000136325135827,0.0,0.0
2020/02/28/11:32:48.874712,67,1582911168,874674082,vectornav,1266946386.86,0.0,0.0,0.0,-0.128883197904,-0.372071295977,-9.80050373077,0.000869585608598,0.00194519921206,0.000507201068103,0.0,0.0
2020/02/28/11:32:48.894650,68,1582911168,894577938,vectornav,1266946386.88,0.0,0.0,0.0,-0.156724750996,-0.348565787077,-9.80763721466,0.000568611023482,-0.00120445992798,-0.000410319305956,0.0,0.0
2020/02/28/11:32:48.914673,69,1582911168,914614393,vectornav,1266946386.9,0.0,0.0,0.0,-0.157269641757,-0.348286300898,-9.75180339813,7.25429272279e-05,0.000193822663277,0.000503298826516,0.0,0.0
2020/02/28/11:32:48.934609,70,1582911168,934566725,vectornav,1266946386.92,0.0,0.0,0.0,-0.179090574384,-0.314298123121,-9.73372364044,-0.000204062322155,-0.000761756673455,0.00111030135304,0.0,0.0
2020/02/28/11:32:48.954681,71,1582911168,954631539,vectornav,1266946386.94,0.0,0.0,0.0,-0.156738504767,-0.333062380552,-9.70588302612,-0.00135531881824,-0.00131137203425,0.000558466650546,0.0,0.0
2020/02/28/11:32:48.974660,72,1582911168,974620069,vectornav,1266946386.96,0.0,0.0,0.0,-0.143264293671,-0.321810096502,-9.71140766144,-0.000849761534482,-0.00185589585453,-0.000131544657052,0.0,0.0
2020/02/28/11:32:48.994647,73,1582911168,994567358,vectornav,1266946386.98,0.0,0.0,0.0,-0.104103207588,-0.344298571348,-9.74303150177,-0.000867087161168,-0.000477987341583,-0.000533957034349,0.0,0.0
2020/02/28/11:32:49.014648,74,1582911169,14559974,vectornav,1266946387.0,0.0,0.0,0.0,-0.0878455638885,-0.339209645987,-9.78660964966,-0.000409581232816,-0.00104650901631,0.00127063132823,0.0,0.0
2020/02/28/11:32:49.034641,75,1582911169,34567033,vectornav,1266946387.02,0.0,0.0,0.0,-0.0693629160523,-0.362936764956,-9.776512146,-1.11652188934e-05,0.000567360781133,0.000949786044657,0.0,0.0
2020/02/28/11:32:49.054713,76,1582911169,54615906,vectornav,1266946387.04,0.0,0.0,0.0,-0.0623137652874,-0.333676487207,-9.81913661957,0.000684377911966,-0.000904027372599,0.000176083296537,0.0,0.0
2020/02/28/11:32:49.074637,77,1582911169,74575282,vectornav,1266946387.06,0.0,0.0,0.0,-0.080555036664,-0.338027447462,-9.82320594788,0.000534955179319,0.000604611821473,0.000308502465487,0.0,0.0
2020/02/28/11:32:49.094585,78,1582911169,94501167,vectornav,1266946387.08,0.0,0.0,0.0,-0.105197578669,-0.320616573095,-9.76324462891,0.00224616797641,0.000708654522896,0.000227238982916,0.0,0.0
2020/02/28/11:32:49.114616,79,1582911169,114537656,vectornav,1266946387.1,0.0,0.0,0.0,-0.0934389308095,-0.340950101614,-9.79570960999,0.00181120855268,0.000856356229633,0.000745581462979,0.0,0.0
2020/02/28/11:32:49.134596,80,1582911169,134553266,vectornav,1266946387.12,0.0,0.0,0.0,-0.0881097316742,-0.341393202543,-9.75196647644,0.000253482721746,-6.6056381911e-05,0.000701619312167,0.0,0.0
2020/02/28/11:32:49.154768,81,1582911169,154655880,vectornav,1266946387.14,0.0,0.0,0.0,-0.0953212678432,-0.354388684034,-9.81911754608,0.000680585973896,5.62192872167e-06,0.000103225931525,0.0,0.0
2020/02/28/11:32:49.174624,82,1582911169,174544877,vectornav,1266946387.16,0.0,0.0,0.0,-0.122263282537,-0.369969397783,-9.75628185272,0.0022882213816,-0.000501583795995,-0.000709339976311,0.0,0.0
2020/02/28/11:32:49.194602,83,1582911169,194501727,vectornav,1266946387.18,0.0,0.0,0.0,-0.103959940374,-0.359547317028,-9.79707622528,0.000659710902255,-0.00103135639802,-0.000510403886437,0.0,0.0
2020/02/28/11:32:49.214594,84,1582911169,214550617,vectornav,1266946387.2,0.0,0.0,0.0,-0.123030878603,-0.372334361076,-9.75726222992,-0.000418230338255,-0.00080555351451,-0.00107439421117,0.0,0.0
2020/02/28/11:32:49.234561,85,1582911169,234512477,vectornav,1266946387.22,0.0,0.0,0.0,-0.122879125178,-0.348719120026,-9.74433231354,0.00171133992262,6.60633668303e-05,-0.000555261969566,0.0,0.0
2020/02/28/11:32:49.254594,86,1582911169,254514054,vectornav,1266946387.24,0.0,0.0,0.0,-0.136143431067,-0.340362638235,-9.74036502838,0.000950369983912,0.00112949544564,-0.00060551520437,0.0,0.0
2020/02/28/11:32:49.274592,87,1582911169,274541659,vectornav,1266946387.26,0.0,0.0,0.0,-0.135588631034,-0.342714071274,-9.72873020172,8.70286603458e-05,0.00153400376439,-0.000990834087133,0.0,0.0
2020/02/28/11:32:49.294630,88,1582911169,294559610,vectornav,1266946387.28,0.0,0.0,0.0,-0.144299522042,-0.351371377707,-9.76779937744,0.000780763686635,-0.00104692624882,0.000340735539794,0.0,0.0
2020/02/28/11:32:49.314550,89,1582911169,314506920,vectornav,1266946387.3,0.0,0.0,0.0,-0.147355601192,-0.325587719679,-9.75064182281,-0.0012108841911,0.000476032029837,-0.0012376094237,0.0,0.0
2020/02/28/11:32:49.334548,90,1582911169,334511530,vectornav,1266946387.32,0.0,0.0,0.0,-0.147772014141,-0.34035217762,-9.789894104,0.00033204065403,0.000968614360318,0.000536535866559,0.0,0.0
2020/02/28/11:32:49.354527,91,1582911169,354476428,vectornav,1266946387.34,0.0,0.0,0.0,-0.132797539234,-0.344086408615,-9.78235626221,-0.00127280363813,-0.00101838214323,0.000213333405554,0.0,0.0
2020/02/28/11:32:49.374661,92,1582911169,374556203,vectornav,1266946387.36,0.0,0.0,0.0,-0.124470606446,-0.352454423904,-9.79918670654,-0.000612302334048,-1.03563070297e-06,0.000161200761795,0.0,0.0
2020/02/28/11:32:49.394500,93,1582911169,394467844,vectornav,1266946387.38,0.0,0.0,0.0,-0.158997923136,-0.376058518887,-9.80773735046,-0.000893719610758,-0.00129459192976,0.000781007111073,0.0,0.0
2020/02/28/11:32:49.414501,94,1582911169,414452869,vectornav,1266946387.4,0.0,0.0,0.0,-0.129707038403,-0.325736284256,-9.82116794586,0.000173624197487,0.000117190182209,0.00120341498405,0.0,0.0
2020/02/28/11:32:49.434543,95,1582911169,434498576,vectornav,1266946387.42,0.0,0.0,0.0,-0.144933566451,-0.350300192833,-9.78371238708,-0.000207216420677,0.000151597894728,8.91508534551e-05,0.0,0.0
2020/02/28/11:32:49.454506,96,1582911169,454458489,vectornav,1266946387.44,0.0,0.0,0.0,-0.123529866338,-0.316120445728,-9.75881958008,0.000191085680854,-0.000357563607395,-0.000525529496372,0.0,0.0
2020/02/28/11:32:49.474641,97,1582911169,474531319,vectornav,1266946387.46,0.0,0.0,0.0,-0.0962683111429,-0.335664600134,-9.72821044922,0.000971472472884,9.17003490031e-05,0.000858266837895,0.0,0.0
2020/02/28/11:32:49.494508,98,1582911169,494422485,vectornav,1266946387.48,0.0,0.0,0.0,-0.122471734881,-0.361791670322,-9.71658706665,-0.00205719820224,0.000411288347095,-0.000364727340639,0.0,0.0
2020/02/28/11:32:49.514499,99,1582911169,514452265,vectornav,1266946387.5,0.0,0.0,0.0,-0.1229159832,-0.346186935902,-9.66579627991,-0.00155481207184,-0.00227607460693,-0.00075962767005,0.0,0.0
2020/02/28/11:32:49.534493,100,1582911169,534398767,vectornav,1266946387.52,0.0,0.0,0.0,-0.109803594649,-0.337732315063,-9.73863124847,0.0012850034982,-0.000122487545013,-0.000106032006443,0.0,0.0
2020/02/28/11:32:49.554505,101,1582911169,554429994,vectornav,1266946387.54,0.0,0.0,0.0,-0.0644082948565,-0.325694441795,-9.76504325867,-0.00139117857907,-0.000965887214988,0.000307586975396,0.0,0.0
2020/02/28/11:32:49.574526,102,1582911169,574485881,vectornav,1266946387.56,0.0,0.0,0.0,-0.0675747320056,-0.33795556426,-9.85626125336,-0.00166329229251,-0.000960695091635,-0.000218775123358,0.0,0.0
2020/02/28/11:32:49.594501,103,1582911169,594443991,vectornav,1266946387.58,0.0,0.0,0.0,-0.126357346773,-0.360588461161,-9.8636007309,0.00188838643953,0.000279694795609,0.000200103968382,0.0,0.0
2020/02/28/11:32:49.614563,104,1582911169,614516858,vectornav,1266946387.6,0.0,0.0,0.0,-0.0769214108586,-0.342122107744,-9.82815647125,0.000438684539404,0.0022015075665,-0.00152714364231,0.0,0.0
2020/02/28/11:32:49.634454,105,1582911169,634413572,vectornav,1266946387.62,0.0,0.0,0.0,-0.131051123142,-0.308926224709,-9.76507282257,0.000260710075963,0.000809454824775,-0.000427559018135,0.0,0.0
2020/02/28/11:32:49.654476,106,1582911169,654440153,vectornav,1266946387.64,0.0,0.0,0.0,-0.145403116941,-0.30829513073,-9.72954654694,0.000744118995499,0.00106563209556,0.00057234428823,0.0,0.0
2020/02/28/11:32:49.674513,107,1582911169,674471791,vectornav,1266946387.66,0.0,0.0,0.0,-0.126327216625,-0.357667058706,-9.66112804413,0.000127604289446,-0.000880082603544,0.00152195990086,0.0,0.0
2020/02/28/11:32:49.694472,108,1582911169,694396324,vectornav,1266946387.68,0.0,0.0,0.0,-0.133195817471,-0.32445821166,-9.69246578217,-0.000541010929737,0.000125701073557,0.000896153971553,0.0,0.0
2020/02/28/11:32:49.714443,109,1582911169,714403867,vectornav,1266946387.7,0.0,0.0,0.0,-0.118642829359,-0.375673085451,-9.66720294952,3.29405302182e-05,-0.000772939063609,0.000515008345246,0.0,0.0
2020/02/28/11:32:49.734399,110,1582911169,734358748,vectornav,1266946387.72,0.0,0.0,0.0,-0.133931398392,-0.362390905619,-9.72299575806,0.000105129030999,-0.00120730511844,0.00123764108866,0.0,0.0
2020/02/28/11:32:49.754451,111,1582911169,754380443,vectornav,1266946387.74,0.0,0.0,0.0,-0.144101172686,-0.401643007994,-9.82721042633,0.00128139136359,-0.000668473541737,8.71075317264e-05,0.0,0.0
2020/02/28/11:32:49.774441,112,1582911169,774363958,vectornav,1266946387.76,0.0,0.0,0.0,-0.107490114868,-0.386721968651,-9.77935695648,0.000659715151414,0.000546709634364,4.1164457798e-06,0.0,0.0
2020/02/28/11:32:49.794421,113,1582911169,794333686,vectornav,1266946387.78,0.0,0.0,0.0,-0.145211979747,-0.358415037394,-9.84837245941,0.00082204391947,0.00120761431754,-0.000733764842153,0.0,0.0
2020/02/28/11:32:49.814430,114,1582911169,814353017,vectornav,1266946387.8,0.0,0.0,0.0,-0.107825867832,-0.340645968914,-9.82654094696,0.000697759038303,0.00112054334022,-0.000668263062835,0.0,0.0
2020/02/28/11:32:49.834360,115,1582911169,834324009,vectornav,1266946387.82,0.0,0.0,0.0,-0.140748649836,-0.321210920811,-9.77794551849,-0.00112639414147,0.0026551312767,-9.93870198727e-05,0.0,0.0
2020/02/28/11:32:49.854398,116,1582911169,854317095,vectornav,1266946387.84,0.0,0.0,0.0,-0.151416137815,-0.301631659269,-9.73365688324,-0.00148852949496,0.00200339080766,6.39166682959e-05,0.0,0.0
2020/02/28/11:32:49.874387,117,1582911169,874342476,vectornav,1266946387.86,0.0,0.0,0.0,-0.169873058796,-0.340455830097,-9.67592334747,0.000348681060132,-9.49618406594e-05,0.00121264532208,0.0,0.0
2020/02/28/11:32:49.894394,118,1582911169,894315763,vectornav,1266946387.88,0.0,0.0,0.0,-0.148988038301,-0.357817471027,-9.71327590942,-5.03871706314e-05,-0.00215316750109,-0.000253494828939,0.0,0.0
2020/02/28/11:32:49.914446,119,1582911169,914323408,vectornav,1266946387.9,0.0,0.0,0.0,-0.145716995001,-0.354637145996,-9.72203350067,0.000158226932399,-0.000869547016919,0.000768109224737,0.0,0.0
2020/02/28/11:32:49.934354,120,1582911169,934322885,vectornav,1266946387.92,0.0,0.0,0.0,-0.141220703721,-0.323258012533,-9.75427818298,0.00042785925325,-0.000924567691982,0.00212430395186,0.0,0.0
2020/02/28/11:32:49.954337,121,1582911169,954287935,vectornav,1266946387.94,0.0,0.0,0.0,-0.115979239345,-0.345933943987,-9.773229599,0.00237837876193,-0.00193535396829,0.000236818566918,0.0,0.0
2020/02/28/11:32:49.974269,122,1582911169,974240456,vectornav,1266946387.96,0.0,0.0,0.0,-0.107134521008,-0.367054969072,-9.79489803314,0.000721298914868,-0.000611970201135,0.000573975965381,0.0,0.0
2020/02/28/11:32:49.994278,123,1582911169,994232491,vectornav,1266946387.98,0.0,0.0,0.0,-0.104813173413,-0.350000411272,-9.78886032104,0.00099887419492,0.000709797721356,0.000424437224865,0.0,0.0
2020/02/28/11:32:50.014349,124,1582911170,14305041,vectornav,1266946388.0,0.0,0.0,0.0,-0.119511604309,-0.36555826664,-9.77228736877,-0.000478221278172,0.000510002952069,0.000677408650517,0.0,0.0
2020/02/28/11:32:50.034292,125,1582911170,34244006,vectornav,1266946388.02,0.0,0.0,0.0,-0.109185546637,-0.370638638735,-9.77761077881,-0.000827147741802,0.00218121754006,-0.00149464607239,0.0,0.0
2020/02/28/11:32:50.054343,126,1582911170,54258808,vectornav,1266946388.04,0.0,0.0,0.0,-0.148472547531,-0.380444347858,-9.76836967468,-0.000147133134305,0.000752687919885,0.000948129221797,0.0,0.0
2020/02/28/11:32:50.074265,127,1582911170,74219912,vectornav,1266946388.06,0.0,0.0,0.0,-0.118838101625,-0.36470296979,-9.74747467041,-0.00111443130299,-0.000967924017459,-0.000655583105981,0.0,0.0
2020/02/28/11:32:50.094316,128,1582911170,94252078,vectornav,1266946388.08,0.0,0.0,0.0,-0.129175931215,-0.366464287043,-9.74729824066,-0.000898881349713,-0.00145469419658,-0.000129602849483,0.0,0.0
2020/02/28/11:32:50.114265,129,1582911170,114208303,vectornav,1266946388.1,0.0,0.0,0.0,-0.122078582644,-0.343244761229,-9.74323654175,-0.00140524737071,0.000807865988463,-0.00040321983397,0.0,0.0
2020/02/28/11:32:50.134356,130,1582911170,134259383,vectornav,1266946388.12,0.0,0.0,0.0,-0.0825610905886,-0.335745066404,-9.7636756897,-0.000143898651004,-0.00153053505346,0.000927185639739,0.0,0.0
2020/02/28/11:32:50.154353,131,1582911170,154210174,vectornav,1266946388.14,0.0,0.0,0.0,-0.096341483295,-0.320537507534,-9.76155948639,-0.0013858655002,-0.00092779006809,0.000107842497528,0.0,0.0
2020/02/28/11:32:50.174270,132,1582911170,174194307,vectornav,1266946388.16,0.0,0.0,0.0,-0.100404813886,-0.319775700569,-9.77007484436,-0.00102883379441,0.000292644836009,0.00154477916658,0.0,0.0
2020/02/28/11:32:50.194212,133,1582911170,194178389,vectornav,1266946388.18,0.0,0.0,0.0,-0.0803968831897,-0.330047547817,-9.77319049835,0.000167266698554,-0.00129821943119,0.00126671139151,0.0,0.0
2020/02/28/11:32:50.214249,134,1582911170,214194189,vectornav,1266946388.2,0.0,0.0,0.0,-0.109923414886,-0.339570522308,-9.73391914368,-0.00082680163905,0.00142245646566,0.0021527018398,0.0,0.0
2020/02/28/11:32:50.234248,135,1582911170,234177250,vectornav,1266946388.22,0.0,0.0,0.0,-0.110433854163,-0.351983934641,-9.76788902283,0.000203860574402,3.00295650959e-05,0.000114135444164,0.0,0.0
2020/02/28/11:32:50.254324,136,1582911170,254236979,vectornav,1266946388.24,0.0,0.0,0.0,-0.0956466272473,-0.355930447578,-9.80129337311,0.0010174177587,-0.000295774079859,0.0014662630856,0.0,0.0
2020/02/28/11:32:50.274258,137,1582911170,274195039,vectornav,1266946388.26,0.0,0.0,0.0,-0.112047500908,-0.363113462925,-9.77617835999,0.000543516420294,-6.71627931297e-05,-0.000163565389812,0.0,0.0
2020/02/28/11:32:50.294227,138,1582911170,294165542,vectornav,1266946388.28,0.0,0.0,0.0,-0.136214077473,-0.347555547953,-9.82677173615,-0.000160454073921,-0.000465331133455,-0.00013666972518,0.0,0.0
2020/02/28/11:32:50.314233,139,1582911170,314172799,vectornav,1266946388.3,0.0,0.0,0.0,-0.13217651844,-0.316180050373,-9.80010128021,0.00353557267226,-0.000415146350861,-0.00123267713934,0.0,0.0
2020/02/28/11:32:50.334200,140,1582911170,334170203,vectornav,1266946388.32,0.0,0.0,0.0,-0.100045591593,-0.347469389439,-9.73270702362,-0.00231743208133,-0.000159851741046,-0.000510890036821,0.0,0.0
2020/02/28/11:32:50.354205,141,1582911170,354133241,vectornav,1266946388.34,0.0,0.0,0.0,-0.041814006865,-0.301515549421,-9.84156036377,0.00193819915876,0.0018275086768,-0.000771480612457,0.0,0.0
2020/02/28/11:32:50.374277,142,1582911170,374222674,vectornav,1266946388.36,0.0,0.0,0.0,0.198872804642,-0.359606474638,-9.73074054718,0.004057766404,-0.00175747042522,-0.000451008789241,0.0,0.0
2020/02/28/11:32:50.394172,143,1582911170,394110863,vectornav,1266946388.38,0.0,0.0,0.0,0.244759619236,-0.268207192421,-9.91657161713,0.00109060597606,0.00306043098681,-0.000136356800795,0.0,0.0
2020/02/28/11:32:50.414224,144,1582911170,414120837,vectornav,1266946388.4,0.0,0.0,0.0,0.272660553455,-0.375077605247,-9.82749271393,-0.000532861275133,0.00327197765,-0.000816978514194,0.0,0.0
2020/02/28/11:32:50.434233,145,1582911170,434188243,vectornav,1266946388.42,0.0,0.0,0.0,0.155346497893,-0.30961188674,-9.64123821259,0.000811103032902,0.00479708286002,-0.000353218056262,0.0,0.0
2020/02/28/11:32:50.454202,146,1582911170,454167202,vectornav,1266946388.44,0.0,0.0,0.0,0.0387568548322,-0.353949934244,-9.61147403717,0.000663011858705,0.00222650473006,-0.00114371068776,0.0,0.0
2020/02/28/11:32:50.474157,147,1582911170,474118919,vectornav,1266946388.46,0.0,0.0,0.0,-0.105430491269,-0.364223331213,-9.54863071442,0.00428077159449,-4.47034835815e-06,-0.000341859646142,0.0,0.0
2020/02/28/11:32:50.494208,148,1582911170,494153393,vectornav,1266946388.48,0.0,0.0,0.0,-0.219382315874,-0.351732999086,-9.64565563202,0.000134052650537,-0.0057249343954,0.000432184897363,0.0,0.0
2020/02/28/11:32:50.514175,149,1582911170,514113128,vectornav,1266946388.5,0.0,0.0,0.0,-0.144490838051,-0.333206623793,-9.89352226257,0.00139571609907,-0.00454432982951,0.000277056358755,0.0,0.0
2020/02/28/11:32:50.534185,150,1582911170,534093231,vectornav,1266946388.52,0.0,0.0,0.0,-0.0085597448051,-0.346331566572,-9.9282617569,0.00466769887134,-0.00400432758033,0.00114413350821,0.0,0.0
2020/02/28/11:32:50.554205,151,1582911170,554162184,vectornav,1266946388.54,0.0,0.0,0.0,0.105326116085,-0.306907743216,-10.0065412521,-0.000765062402934,-0.00262297876179,0.00113887619227,0.0,0.0
2020/02/28/11:32:50.574233,152,1582911170,574179646,vectornav,1266946388.56,0.0,0.0,0.0,0.210767105222,-0.368254840374,-10.0177726746,-0.00171185610816,0.00142573006451,0.000982571393251,0.0,0.0
2020/02/28/11:32:50.594161,153,1582911170,594094918,vectornav,1266946388.58,0.0,0.0,0.0,0.291146785021,-0.349137544632,-9.91358566284,-0.000841529865284,0.00552350422367,0.00124080944806,0.0,0.0
2020/02/28/11:32:50.614173,154,1582911170,614069104,vectornav,1266946388.6,0.0,0.0,0.0,0.234426677227,-0.382146537304,-9.70710754395,-0.0041027367115,0.00636993721128,-0.000101666897535,0.0,0.0
2020/02/28/11:32:50.634159,155,1582911170,634092717,vectornav,1266946388.62,0.0,0.0,0.0,0.15986391902,-0.396935522556,-9.60048294067,-0.00487405154854,0.00620782840997,-0.000605331733823,0.0,0.0
2020/02/28/11:32:50.654099,156,1582911170,654051591,vectornav,1266946388.64,0.0,0.0,0.0,0.0378630161285,-0.373427093029,-9.51857566833,0.00129792653024,0.00292857643217,-0.000342661514878,0.0,0.0
2020/02/28/11:32:50.674109,157,1582911170,674075482,vectornav,1266946388.66,0.0,0.0,0.0,-0.0331191048026,-0.352786779404,-9.51296615601,0.000240938097704,-0.000873897224665,0.000517035834491,0.0,0.0
2020/02/28/11:32:50.694264,158,1582911170,694115533,vectornav,1266946388.68,0.0,0.0,0.0,-0.0270618405193,-0.32718026638,-9.65809249878,0.000796731270384,-0.00397345097736,-0.0013942765072,0.0,0.0
2020/02/28/11:32:50.714093,159,1582911170,714034353,vectornav,1266946388.7,0.0,0.0,0.0,0.0190006271005,-0.303520560265,-9.84272575378,0.00317898765206,-0.00557435909286,-0.00163515936583,0.0,0.0
2020/02/28/11:32:50.734072,160,1582911170,734014002,vectornav,1266946388.72,0.0,0.0,0.0,0.154252722859,-0.29335168004,-9.86073875427,0.000227545446251,-0.00397389801219,-0.000148990191519,0.0,0.0
2020/02/28/11:32:50.754058,161,1582911170,754017659,vectornav,1266946388.74,0.0,0.0,0.0,0.246747627854,-0.290024012327,-10.0174055099,-0.00371543131769,-0.00189969874918,-0.000989000312984,0.0,0.0
2020/02/28/11:32:50.774274,162,1582911170,774225363,vectornav,1266946388.76,0.0,0.0,0.0,0.306214600801,-0.308483242989,-9.98389530182,-0.00296568917111,0.00153097417206,-0.00107693579048,0.0,0.0
2020/02/28/11:32:50.794062,163,1582911170,794021379,vectornav,1266946388.78,0.0,0.0,0.0,0.259584218264,-0.333202004433,-9.90647983551,-0.00413291528821,0.00497624231502,0.000715178437531,0.0,0.0
2020/02/28/11:32:50.814054,164,1582911170,814009639,vectornav,1266946388.8,0.0,0.0,0.0,0.216213956475,-0.379213601351,-9.77628993988,-0.00409445958212,0.00521301012486,-0.00044668186456,0.0,0.0
2020/02/28/11:32:50.834061,165,1582911170,834022285,vectornav,1266946388.82,0.0,0.0,0.0,0.163271322846,-0.382253110409,-9.70841693878,-0.000551665900275,0.00398045824841,0.00111481267959,0.0,0.0
2020/02/28/11:32:50.854051,166,1582911170,854007140,vectornav,1266946388.84,0.0,0.0,0.0,0.113570190966,-0.389127731323,-9.59720897675,0.0041960272938,0.00289265066385,-0.000261404551566,0.0,0.0
2020/02/28/11:32:50.874084,167,1582911170,874003479,vectornav,1266946388.86,0.0,0.0,0.0,0.0725044086576,-0.361506223679,-9.64011764526,0.00159659050405,3.62838618457e-05,-8.42474400997e-06,0.0,0.0
2020/02/28/11:32:50.894142,168,1582911170,894072324,vectornav,1266946388.88,0.0,0.0,0.0,0.1734931916,-0.335259348154,-9.66937351227,0.00341366417706,-0.00169367576018,-2.36742198467e-06,0.0,0.0
2020/02/28/11:32:50.914041,169,1582911170,914000896,vectornav,1266946388.9,0.0,0.0,0.0,0.222827836871,-0.29657331109,-9.80282688141,0.00235787103884,-0.00220316788182,0.000718930736184,0.0,0.0
2020/02/28/11:32:50.934041,170,1582911170,933988547,vectornav,1266946388.92,0.0,0.0,0.0,0.311394155025,-0.297867745161,-9.86470222473,-0.000826014438644,-0.00145540479571,-0.000652592629194,0.0,0.0
2020/02/28/11:32:50.954066,171,1582911170,953960581,vectornav,1266946388.94,0.0,0.0,0.0,0.337104737759,-0.305730700493,-9.85997867584,-0.00156860298011,0.00143182091415,0.000436949543655,0.0,0.0
2020/02/28/11:32:50.974032,172,1582911170,973966891,vectornav,1266946388.96,0.0,0.0,0.0,0.298628568649,-0.329390883446,-9.88323402405,-0.00300629553385,0.000138068571687,-0.001070600003,0.0,0.0
2020/02/28/11:32:50.994120,173,1582911170,994058304,vectornav,1266946388.98,0.0,0.0,0.0,0.264677166939,-0.362948179245,-9.80512428284,-0.00309581356123,0.00152204022743,0.000425938516855,0.0,0.0
2020/02/28/11:32:51.014087,174,1582911171,13965876,vectornav,1266946389.0,0.0,0.0,0.0,0.186096414924,-0.377880632877,-9.74709224701,-0.00408910075203,0.00140340439975,0.00011885445565,0.0,0.0
2020/02/28/11:32:51.034023,175,1582911171,33934265,vectornav,1266946389.02,0.0,0.0,0.0,0.168901786208,-0.419062763453,-9.69622612,0.000602281244937,0.000368063338101,-1.90222635865e-05,0.0,0.0
2020/02/28/11:32:51.054087,176,1582911171,53958015,vectornav,1266946389.04,0.0,0.0,0.0,0.183966249228,-0.359037965536,-9.64593601227,0.00112313893624,-7.65733420849e-05,-0.000953180715442,0.0,0.0
2020/02/28/11:32:51.074022,177,1582911171,73983430,vectornav,1266946389.06,0.0,0.0,0.0,0.200711846352,-0.363145262003,-9.70156288147,-0.00049135950394,-0.000864703673869,-0.00169613584876,0.0,0.0
2020/02/28/11:32:51.094055,178,1582911171,94012259,vectornav,1266946389.08,0.0,0.0,0.0,0.255075961351,-0.323363244534,-9.74501228333,0.000579180254135,-0.00110824918374,-0.000877431593835,0.0,0.0
2020/02/28/11:32:51.113972,179,1582911171,113936716,vectornav,1266946389.1,0.0,0.0,0.0,0.325770676136,-0.325239926577,-9.74985790253,0.000448756734841,-0.00156400725245,-0.000308418646455,0.0,0.0
2020/02/28/11:32:51.133995,180,1582911171,133939635,vectornav,1266946389.12,0.0,0.0,0.0,0.351020872593,-0.329391539097,-9.83155727386,-0.00227861572057,-0.000419908668846,0.00042777787894,0.0,0.0
2020/02/28/11:32:51.153968,181,1582911171,153927400,vectornav,1266946389.14,0.0,0.0,0.0,0.313422292471,-0.346223086119,-9.83901786804,-0.0019659565296,0.000931231305003,0.000588172115386,0.0,0.0
2020/02/28/11:32:51.173990,182,1582911171,173947081,vectornav,1266946389.16,0.0,0.0,0.0,0.267609387636,-0.338811337948,-9.825299263,-0.00273117353208,0.00317127374001,-0.00106430333108,0.0,0.0
2020/02/28/11:32:51.193992,183,1582911171,193929889,vectornav,1266946389.18,0.0,0.0,0.0,0.239826470613,-0.345621019602,-9.77182388306,-0.00460076937452,0.00291111413389,0.000145484693348,0.0,0.0
2020/02/28/11:32:51.213945,184,1582911171,213899698,vectornav,1266946389.2,0.0,0.0,0.0,0.214560687542,-0.35833504796,-9.7766752243,-0.00149537052494,0.0013420144096,-0.00110395532101,0.0,0.0
2020/02/28/11:32:51.233917,185,1582911171,233876192,vectornav,1266946389.22,0.0,0.0,0.0,0.222505688667,-0.307487666607,-9.77300739288,-0.00173641531728,0.00138094066642,-0.000469750724733,0.0,0.0
2020/02/28/11:32:51.253910,186,1582911171,253873531,vectornav,1266946389.24,0.0,0.0,0.0,0.237414911389,-0.342882663012,-9.74890995026,-0.00380242802203,0.00107003841549,-0.000520201399922,0.0,0.0
2020/02/28/11:32:51.273912,187,1582911171,273848300,vectornav,1266946389.26,0.0,0.0,0.0,0.321751832962,-0.330187708139,-9.7344789505,-0.00494503835216,0.000896458514035,-0.000550653785467,0.0,0.0
2020/02/28/11:32:51.293889,188,1582911171,293844170,vectornav,1266946389.28,0.0,0.0,0.0,0.313909053802,-0.337161868811,-9.74532699585,-0.000503925257362,-0.000320476479828,-0.00106984656304,0.0,0.0
2020/02/28/11:32:51.314046,189,1582911171,313960793,vectornav,1266946389.3,0.0,0.0,0.0,0.356424659491,-0.332723528147,-9.70891475677,-0.00346054392867,-0.000180310569704,-0.00022002030164,0.0,0.0
2020/02/28/11:32:51.333898,190,1582911171,333857926,vectornav,1266946389.32,0.0,0.0,0.0,0.361699044704,-0.314450889826,-9.80664730072,-0.00230008875951,-0.0012325104326,0.0013115471229,0.0,0.0
2020/02/28/11:32:51.353978,191,1582911171,353910271,vectornav,1266946389.34,0.0,0.0,0.0,0.330398201942,-0.306679487228,-9.73857784271,0.00186479545664,-0.000581342261285,0.000939447432756,0.0,0.0
2020/02/28/11:32:51.373924,192,1582911171,373893868,vectornav,1266946389.36,0.0,0.0,0.0,0.287356227636,-0.25717869401,-9.82566738129,-0.00149407959543,0.000248224940151,-1.29491090775e-05,0.0,0.0
2020/02/28/11:32:51.393913,193,1582911171,393871600,vectornav,1266946389.38,0.0,0.0,0.0,0.282810330391,-0.327659010887,-9.87151908875,-0.00124365079682,-0.000787843484432,-0.000821946188807,0.0,0.0
2020/02/28/11:32:51.413874,194,1582911171,413828036,vectornav,1266946389.4,0.0,0.0,0.0,0.266653597355,-0.278884202242,-9.82103157043,-0.00254864897579,0.00105070509017,-0.000409317202866,0.0,0.0
2020/02/28/11:32:51.433868,195,1582911171,433808956,vectornav,1266946389.42,0.0,0.0,0.0,0.307556211948,-0.309565395117,-9.78067302704,0.000726515427232,-0.000464791432023,-0.00090398080647,0.0,0.0
2020/02/28/11:32:51.453872,196,1582911171,453821262,vectornav,1266946389.44,0.0,0.0,0.0,0.345140844584,-0.297558397055,-9.79613685608,-0.00141235697083,0.00017096940428,0.00114901084453,0.0,0.0
2020/02/28/11:32:51.473878,197,1582911171,473800354,vectornav,1266946389.46,0.0,0.0,0.0,0.350909858942,-0.346597343683,-9.73526382446,-0.000887369737029,0.000362788327038,0.00080350972712,0.0,0.0
2020/02/28/11:32:51.493907,198,1582911171,493763229,vectornav,1266946389.48,0.0,0.0,0.0,0.365291237831,-0.343234270811,-9.71454048157,-0.00105378765147,0.00226526381448,-0.000421531498432,0.0,0.0
2020/02/28/11:32:51.513801,199,1582911171,513758725,vectornav,1266946389.5,0.0,0.0,0.0,0.389269560575,-0.343136638403,-9.65820217133,-0.000258386193309,-0.000121331308037,-0.000475423410535,0.0,0.0
2020/02/28/11:32:51.533973,200,1582911171,533871460,vectornav,1266946389.52,0.0,0.0,0.0,0.375059783459,-0.3784288764,-9.71634864807,0.00319246505387,-0.00022903457284,0.000795484520495,0.0,0.0
2020/02/28/11:32:51.553800,201,1582911171,553753940,vectornav,1266946389.54,0.0,0.0,0.0,0.332600623369,-0.387342602015,-9.77097511292,0.00454407325014,-0.00048626633361,-0.000939711928368,0.0,0.0
2020/02/28/11:32:51.573797,202,1582911171,573752033,vectornav,1266946389.56,0.0,0.0,0.0,0.337081640959,-0.323447167873,-9.84605312347,0.00435042660683,0.00047249160707,-0.000503229908645,0.0,0.0
2020/02/28/11:32:51.594788,203,1582911171,594750755,vectornav,1266946389.58,0.0,0.0,0.0,0.326066195965,-0.275501310825,-9.87095451355,0.0041328985244,-7.87982717156e-05,0.000916275195777,0.0,0.0
2020/02/28/11:32:51.613818,204,1582911171,613748821,vectornav,1266946389.6,0.0,0.0,0.0,0.364451676607,-0.258094668388,-9.82279396057,0.00374682247639,0.000358522403985,0.000669976696372,0.0,0.0
2020/02/28/11:32:51.634752,205,1582911171,634693413,vectornav,1266946389.62,0.0,0.0,0.0,0.41129758954,-0.29630613327,-9.85123634338,0.00128956302069,0.00202667526901,0.000861360691488,0.0,0.0
2020/02/28/11:32:51.654769,206,1582911171,654716416,vectornav,1266946389.64,0.0,0.0,0.0,0.408890038729,-0.361266791821,-9.82046031952,-0.00240324088372,0.00249334727414,0.00144616700709,0.0,0.0
2020/02/28/11:32:51.674693,207,1582911171,674661788,vectornav,1266946389.66,0.0,0.0,0.0,0.410957574844,-0.410995185375,-9.78671455383,0.00116278650239,0.00154570234008,-0.000524634495378,0.0,0.0
2020/02/28/11:32:51.694950,208,1582911171,694836409,vectornav,1266946389.68,0.0,0.0,0.0,0.428842872381,-0.44273647666,-9.74925804138,0.00465484615415,0.00258808536455,-0.000987869687378,0.0,0.0
2020/02/28/11:32:51.714748,209,1582911171,714697303,vectornav,1266946389.7,0.0,0.0,0.0,0.412049680948,-0.379551261663,-9.7234172821,0.0034226377029,0.00211696815677,-0.000895735807717,0.0,0.0
2020/02/28/11:32:51.734787,210,1582911171,734699743,vectornav,1266946389.72,0.0,0.0,0.0,0.353337436914,-0.347689956427,-9.83860969543,0.00407944014296,0.00115017034113,0.000224970281124,0.0,0.0
2020/02/28/11:32:51.754745,211,1582911171,754704935,vectornav,1266946389.74,0.0,0.0,0.0,0.44200566411,-0.237186044455,-9.76679611206,0.0109719252214,0.000714086927474,-0.00191040616482,0.0,0.0
2020/02/28/11:32:51.774723,212,1582911171,774658138,vectornav,1266946389.76,0.0,0.0,0.0,0.425198793411,-0.325848281384,-9.60768127441,0.00153793697245,0.000248226802796,0.000664392486215,0.0,0.0
2020/02/28/11:32:51.794728,213,1582911171,794622435,vectornav,1266946389.78,0.0,0.0,0.0,0.427705943584,-0.300649702549,-9.8759431839,-0.00188101676758,0.00101918331347,-0.000338717363775,0.0,0.0
2020/02/28/11:32:51.814723,214,1582911171,814658313,vectornav,1266946389.8,0.0,0.0,0.0,0.467619001865,-0.292798310518,-9.78855705261,0.00936877541244,0.00195132265799,-0.0016848789528,0.0,0.0
2020/02/28/11:32:51.834675,215,1582911171,834636777,vectornav,1266946389.82,0.0,0.0,0.0,0.532910108566,-0.285429179668,-9.66202163696,0.0055044661276,0.00284199160524,-0.000625721178949,0.0,0.0
2020/02/28/11:32:51.854696,216,1582911171,854661345,vectornav,1266946389.84,0.0,0.0,0.0,0.560193777084,-0.398161441088,-9.84910774231,-0.00276285409927,0.00135202612728,-0.000695842318237,0.0,0.0
2020/02/28/11:32:51.874676,217,1582911171,874640371,vectornav,1266946389.86,0.0,0.0,0.0,0.555848479271,-0.331417292356,-9.92907524109,0.00480386056006,0.00472001172602,8.40742141008e-05,0.0,0.0
2020/02/28/11:32:51.894641,218,1582911171,894583404,vectornav,1266946389.88,0.0,0.0,0.0,0.594825387001,-0.390237033367,-9.77468109131,0.00772520853207,0.0019651777111,-0.000469267368317,0.0,0.0
2020/02/28/11:32:51.914655,219,1582911171,914590598,vectornav,1266946389.9,0.0,0.0,0.0,0.593075871468,-0.409258306026,-9.79748916626,0.00674767559394,0.00639260094613,0.000209057703614,0.0,0.0
2020/02/28/11:32:51.934661,220,1582911171,934614156,vectornav,1266946389.92,0.0,0.0,0.0,0.649977087975,-0.38574936986,-9.81623840332,0.00646851304919,0.0064467843622,-0.000447215512395,0.0,0.0
2020/02/28/11:32:51.954636,221,1582911171,954591887,vectornav,1266946389.94,0.0,0.0,0.0,0.556148767471,-0.328671276569,-9.76599121094,0.0088062370196,0.00714611448348,0.000227214768529,0.0,0.0
2020/02/28/11:32:51.974685,222,1582911171,974604547,vectornav,1266946389.96,0.0,0.0,0.0,0.577263832092,-0.342219620943,-9.69735336304,0.0103489113972,0.00301428791136,-0.000974148511887,0.0,0.0
2020/02/28/11:32:51.994759,223,1582911171,994666715,vectornav,1266946389.98,0.0,0.0,0.0,0.581169128418,-0.250119775534,-9.68643093109,0.0110159087926,0.00685938773677,-0.000894023105502,0.0,0.0
2020/02/28/11:32:52.014672,224,1582911172,14562849,vectornav,1266946390.0,0.0,0.0,0.0,0.560960531235,-0.260406821966,-9.6936750412,0.00396663090214,0.00199476187117,-0.00132467597723,0.0,0.0
2020/02/28/11:32:52.034664,225,1582911172,34606529,vectornav,1266946390.02,0.0,0.0,0.0,0.55539637804,-0.424959272146,-9.75624084473,0.00687488354743,-0.000596033409238,-0.00152063556015,0.0,0.0
2020/02/28/11:32:52.054632,226,1582911172,54581787,vectornav,1266946390.04,0.0,0.0,0.0,0.643563807011,-0.283762484789,-9.78794574738,0.00862790457904,0.00180151150562,-0.00161120202392,0.0,0.0
2020/02/28/11:32:52.074614,227,1582911172,74550239,vectornav,1266946390.06,0.0,0.0,0.0,0.65192425251,-0.426127493382,-9.64972400665,-0.00149738229811,-4.80189919472e-06,-0.00208599399775,0.0,0.0
2020/02/28/11:32:52.094646,228,1582911172,94599730,vectornav,1266946390.08,0.0,0.0,0.0,0.61053442955,-0.358508378267,-9.90862751007,0.00171251478605,0.000143980141729,-0.00217528268695,0.0,0.0
2020/02/28/11:32:52.114625,229,1582911172,114573390,vectornav,1266946390.1,0.0,0.0,0.0,0.694126367569,-0.4893001616,-9.7081861496,0.00908423401415,0.00207172404043,-0.00119515974075,0.0,0.0
2020/02/28/11:32:52.134614,230,1582911172,134577810,vectornav,1266946390.12,0.0,0.0,0.0,0.696486413479,-0.387872308493,-9.62766551971,-0.00194559223019,0.00340173579752,-0.00116570014507,0.0,0.0
2020/02/28/11:32:52.154553,231,1582911172,154503392,vectornav,1266946390.14,0.0,0.0,0.0,0.657878398895,-0.461975932121,-9.82792568207,0.0006023941678,-0.000241948757321,-0.00180128403008,0.0,0.0
2020/02/28/11:32:52.174643,232,1582911172,174604630,vectornav,1266946390.16,0.0,0.0,0.0,0.618962407112,-0.205901578069,-9.79010295868,0.0160160474479,0.00200582575053,-0.00166444666684,0.0,0.0
2020/02/28/11:32:52.194573,233,1582911172,194518454,vectornav,1266946390.18,0.0,0.0,0.0,0.682132720947,-0.293868869543,-9.43238162994,0.00693657388911,0.000298454426229,0.000227537937462,0.0,0.0
2020/02/28/11:32:52.214527,234,1582911172,214493843,vectornav,1266946390.2,0.0,0.0,0.0,0.65048789978,-0.381433308125,-9.80155467987,-0.0142309255898,0.00202587898821,-7.46175646782e-06,0.0,0.0
2020/02/28/11:32:52.234571,235,1582911172,234495228,vectornav,1266946390.22,0.0,0.0,0.0,0.638122916222,-0.36715722084,-9.88669681549,0.00733170798048,-0.00332156801596,-0.00190473906696,0.0,0.0
2020/02/28/11:32:52.254588,236,1582911172,254555180,vectornav,1266946390.24,0.0,0.0,0.0,0.790593028069,-0.373711764812,-9.64859294891,-0.000376189826056,0.000684657134116,-0.000636898912489,0.0,0.0
2020/02/28/11:32:52.274509,237,1582911172,274463197,vectornav,1266946390.26,0.0,0.0,0.0,0.625841617584,-0.45137488842,-9.73822116852,-0.0144677460194,0.00475546717644,-0.00155243836343,0.0,0.0
2020/02/28/11:32:52.294529,238,1582911172,294454957,vectornav,1266946390.28,0.0,0.0,0.0,0.70617723465,-0.430621087551,-9.93813610077,-0.012373007834,-0.00245062587783,-0.00127167068422,0.0,0.0
2020/02/28/11:32:52.314525,239,1582911172,314477361,vectornav,1266946390.3,0.0,0.0,0.0,0.748514294624,-0.524554252625,-9.66296672821,-0.00100901303813,0.00311076105572,-0.000897482037544,0.0,0.0
2020/02/28/11:32:52.334537,240,1582911172,334463745,vectornav,1266946390.32,0.0,0.0,0.0,0.69577640295,-0.492558300495,-9.64446735382,-0.0228914879262,0.00103228306398,-0.00103066582233,0.0,0.0
2020/02/28/11:32:52.354559,241,1582911172,354486587,vectornav,1266946390.34,0.0,0.0,0.0,0.749324798584,-0.545588970184,-10.0367231369,-0.0216749664396,0.000654653180391,-0.0012123240158,0.0,0.0
2020/02/28/11:32:52.374565,242,1582911172,374526102,vectornav,1266946390.36,0.0,0.0,0.0,0.779169261456,-0.395470708609,-9.85378742218,0.00495722936466,-0.00367710832506,-0.00120867136866,0.0,0.0
2020/02/28/11:32:52.394622,243,1582911172,394557574,vectornav,1266946390.38,0.0,0.0,0.0,0.804503142834,-0.369324088097,-9.53478908539,-0.0169966258109,0.00246548233554,-0.00132077559829,0.0,0.0
2020/02/28/11:32:52.414557,244,1582911172,414484993,vectornav,1266946390.4,0.0,0.0,0.0,0.734909832478,-0.355295300484,-9.96948051453,-0.0307351388037,0.00363586447202,-0.000630118884146,0.0,0.0
2020/02/28/11:32:52.434557,245,1582911172,434466151,vectornav,1266946390.42,0.0,0.0,0.0,0.734601676464,-0.301003098488,-9.91573429108,-0.00703790737316,-0.00347973778844,-0.00187739357352,0.0,0.0
2020/02/28/11:32:52.454537,246,1582911172,454457536,vectornav,1266946390.44,0.0,0.0,0.0,0.634407818317,-0.440771400928,-9.49995326996,-0.00313493283466,0.00304672494531,-0.000235803425312,0.0,0.0
2020/02/28/11:32:52.474427,247,1582911172,474388644,vectornav,1266946390.46,0.0,0.0,0.0,0.803162336349,-0.489468365908,-9.87892055511,-0.0470676198602,0.00278467638418,-0.000700457021594,0.0,0.0
2020/02/28/11:32:52.494507,248,1582911172,494471045,vectornav,1266946390.48,0.0,0.0,0.0,0.664590001106,-0.295223265886,-10.1788711548,-0.00800718273968,-0.00203404761851,-0.00182262714952,0.0,0.0
2020/02/28/11:32:52.514471,249,1582911172,514382898,vectornav,1266946390.5,0.0,0.0,0.0,0.701939404011,-0.27454534173,-9.71409511566,0.0014815524919,0.00104793300852,-0.00143102370203,0.0,0.0
2020/02/28/11:32:52.534470,250,1582911172,534372259,vectornav,1266946390.52,0.0,0.0,0.0,0.730492293835,-0.309708356857,-9.61444187164,-0.0296999923885,0.00356225366704,-0.00135949067771,0.0,0.0
2020/02/28/11:32:52.554470,251,1582911172,554363765,vectornav,1266946390.54,0.0,0.0,0.0,0.636797189713,-0.258914917707,-10.004281044,-0.0171480197459,-7.86823220551e-05,-0.00135157443583,0.0,0.0
2020/02/28/11:32:52.574387,252,1582911172,574353834,vectornav,1266946390.56,0.0,0.0,0.0,0.736585497856,-0.292579978704,-9.66783905029,-0.00341154914349,0.0015782203991,-0.00200361199677,0.0,0.0
2020/02/28/11:32:52.594457,253,1582911172,594398347,vectornav,1266946390.58,0.0,0.0,0.0,0.705130517483,-0.166561335325,-9.71727085114,-0.0229156762362,0.00237076357007,-0.000204007141292,0.0,0.0
2020/02/28/11:32:52.614444,254,1582911172,614367017,vectornav,1266946390.6,0.0,0.0,0.0,0.767320632935,-0.365303009748,-9.89922809601,-0.0138135384768,-0.00500677619129,-0.000362219288945,0.0,0.0
2020/02/28/11:32:52.634407,255,1582911172,634375657,vectornav,1266946390.62,0.0,0.0,0.0,0.830282330513,-0.276068091393,-9.92454147339,-0.0147325573489,0.00180596718565,0.000809645280242,0.0,0.0
2020/02/28/11:32:52.654452,256,1582911172,654361742,vectornav,1266946390.64,0.0,0.0,0.0,0.787134051323,-0.037528116256,-9.58258152008,0.00496929418296,0.000247742515057,-3.08919698e-05,0.0,0.0
2020/02/28/11:32:52.674428,257,1582911172,674357577,vectornav,1266946390.66,0.0,0.0,0.0,0.663847446442,-0.315478265285,-9.7592458725,-0.0234010666609,-0.00112083228305,-0.00153402332217,0.0,0.0
2020/02/28/11:32:52.694440,258,1582911172,694375833,vectornav,1266946390.68,0.0,0.0,0.0,0.645768821239,-0.338670134544,-10.16385746,0.00898558739573,-0.00342937512323,-0.00034817494452,0.0,0.0
2020/02/28/11:32:52.714415,259,1582911172,714371952,vectornav,1266946390.7,0.0,0.0,0.0,0.710941791534,-0.402039259672,-9.59611415863,0.0152084836736,0.00159523868933,-0.00294693093747,0.0,0.0
2020/02/28/11:32:52.734402,260,1582911172,734343135,vectornav,1266946390.72,0.0,0.0,0.0,0.576235055923,-0.0755725130439,-9.6297712326,-0.0149279944599,-0.000133854802698,5.56074082851e-05,0.0,0.0
2020/02/28/11:32:52.754380,261,1582911172,754343227,vectornav,1266946390.74,0.0,0.0,0.0,0.785637676716,-0.566170930862,-10.0375089645,-0.0275857169181,0.00426071695983,-0.00166962295771,0.0,0.0
2020/02/28/11:32:52.774364,262,1582911172,774286591,vectornav,1266946390.76,0.0,0.0,0.0,0.76843804121,-0.302391588688,-10.1741847992,0.00967401918024,0.00929100811481,-0.00157782714814,0.0,0.0
2020/02/28/11:32:52.794365,263,1582911172,794309083,vectornav,1266946390.78,0.0,0.0,0.0,0.671574354172,-0.407783865929,-9.75046920776,0.0117325894535,0.00205298233777,-0.00244923960418,0.0,0.0
2020/02/28/11:32:52.814430,264,1582911172,814373521,vectornav,1266946390.8,0.0,0.0,0.0,0.736621797085,-0.19928380847,-9.88204288483,0.00104216579348,0.00630279723555,-0.00207703839988,0.0,0.0
2020/02/28/11:32:52.834454,265,1582911172,834327180,vectornav,1266946390.82,0.0,0.0,0.0,0.721768796444,-0.3258202672,-9.87463665009,0.016874987632,0.00453700590879,-0.00323413591832,0.0,0.0
2020/02/28/11:32:52.854364,266,1582911172,854315486,vectornav,1266946390.84,0.0,0.0,0.0,0.750596642494,0.00614409800619,-9.60997962952,0.027654722333,0.00510051753372,-0.000735628418624,0.0,0.0
2020/02/28/11:32:52.874404,267,1582911172,874353432,vectornav,1266946390.86,0.0,0.0,0.0,0.738090097904,-0.348025619984,-9.50844478607,0.00121056137141,0.00861750263721,-0.00257091782987,0.0,0.0
2020/02/28/11:32:52.894346,268,1582911172,894300494,vectornav,1266946390.88,0.0,0.0,0.0,0.686470091343,-0.336226165295,-9.75654506683,0.00242972001433,0.00421678228304,-0.000445241108537,0.0,0.0
2020/02/28/11:32:52.914367,269,1582911172,914269367,vectornav,1266946390.9,0.0,0.0,0.0,0.743695557117,-0.383294165134,-9.7582359314,0.0116308005527,-0.000230845529586,-0.00189484097064,0.0,0.0
2020/02/28/11:32:52.934323,270,1582911172,934284249,vectornav,1266946390.92,0.0,0.0,0.0,0.644790709019,-0.322387397289,-9.3812828064,0.0111008193344,-0.00628407346085,-0.00129256490618,0.0,0.0
2020/02/28/11:32:52.954318,271,1582911172,954271490,vectornav,1266946390.94,0.0,0.0,0.0,0.679603159428,-0.421057999134,-9.95811653137,0.0167730581015,-0.0033188094385,-0.00140926986933,0.0,0.0
2020/02/28/11:32:52.974248,272,1582911172,974214421,vectornav,1266946390.96,0.0,0.0,0.0,0.653601527214,-0.317546695471,-9.46633911133,0.0292226169258,-0.00650120712817,-0.00241655949503,0.0,0.0
2020/02/28/11:32:52.994285,273,1582911172,994208489,vectornav,1266946390.98,0.0,0.0,0.0,0.680467009544,-0.238450869918,-9.40951442719,-0.00884405337274,-0.00737397093326,-0.00220440328121,0.0,0.0
2020/02/28/11:32:53.014343,274,1582911173,14275233,vectornav,1266946391.0,0.0,0.0,0.0,0.774936795235,-0.640178561211,-10.1217155457,-0.0290776025504,-0.00693855248392,-0.00281150266528,0.0,0.0
2020/02/28/11:32:53.034341,275,1582911173,34270038,vectornav,1266946391.02,0.0,0.0,0.0,0.635277867317,-0.34812772274,-9.99554634094,0.0143768070266,-0.00510148983449,-0.00286784116179,0.0,0.0
2020/02/28/11:32:53.054312,276,1582911173,54249711,vectornav,1266946391.04,0.0,0.0,0.0,0.669195473194,-0.330107361078,-9.58880615234,0.0179721880704,-0.0115672098473,-0.00205971300602,0.0,0.0
2020/02/28/11:32:53.074272,277,1582911173,74223818,vectornav,1266946391.06,0.0,0.0,0.0,0.695131540298,-0.110798969865,-9.89714622498,0.00584919983521,-0.00687474478036,-0.00171767640859,0.0,0.0
2020/02/28/11:32:53.094358,278,1582911173,94292168,vectornav,1266946391.08,0.0,0.0,0.0,0.704724609852,-0.451297998428,-9.70624732971,0.0145497648045,-0.00231723999605,-0.00384489726275,0.0,0.0
2020/02/28/11:32:53.114268,279,1582911173,114167595,vectornav,1266946391.1,0.0,0.0,0.0,0.809833049774,-0.381994098425,-10.0528879166,-0.00855155102909,-0.00269274879247,-0.00371761154383,0.0,0.0
2020/02/28/11:32:53.134283,280,1582911173,134222596,vectornav,1266946391.12,0.0,0.0,0.0,0.872041106224,-0.613652706146,-10.0552349091,0.00751124322414,0.000798228662461,-0.00280462112278,0.0,0.0
2020/02/28/11:32:53.154301,281,1582911173,154205375,vectornav,1266946391.14,0.0,0.0,0.0,0.703003525734,-0.34107530117,-9.9021320343,-0.00930157117546,0.00677444040775,-6.09485432506e-05,0.0,0.0
2020/02/28/11:32:53.174233,282,1582911173,174187772,vectornav,1266946391.16,0.0,0.0,0.0,0.601994872093,-0.162347644567,-9.91835403442,0.00898157432675,-0.00381497293711,0.00256120786071,0.0,0.0
2020/02/28/11:32:53.194241,283,1582911173,194203876,vectornav,1266946391.18,0.0,0.0,0.0,0.749788403511,-0.165278851986,-9.84664535522,0.0243017859757,-0.00130964629352,0.00166149809957,0.0,0.0
2020/02/28/11:32:53.214279,284,1582911173,214175000,vectornav,1266946391.2,0.0,0.0,0.0,0.714065670967,-0.370856314898,-9.38864898682,-0.00870274659246,0.016549596563,0.00264614447951,0.0,0.0
2020/02/28/11:32:53.234219,285,1582911173,234179236,vectornav,1266946391.22,0.0,0.0,0.0,0.570520281792,-0.400720864534,-10.1316642761,-0.0320978835225,0.00827039405704,-0.0014142356813,0.0,0.0
2020/02/28/11:32:53.254277,286,1582911173,254200340,vectornav,1266946391.24,0.0,0.0,0.0,0.680411338806,-0.23677867651,-9.83621120453,0.0209333635867,0.000221679452807,0.000686312094331,0.0,0.0
2020/02/28/11:32:53.274241,287,1582911173,274156982,vectornav,1266946391.26,0.0,0.0,0.0,0.802730560303,-0.32868924737,-9.35850334167,0.0100228535011,0.0169373378158,-0.000362330116332,0.0,0.0
2020/02/28/11:32:53.294233,288,1582911173,294175624,vectornav,1266946391.28,0.0,0.0,0.0,0.576797366142,-0.25607997179,-9.72953414917,-0.0152783626691,0.00905770808458,-0.00229970458895,0.0,0.0
2020/02/28/11:32:53.314226,289,1582911173,314169080,vectornav,1266946391.3,0.0,0.0,0.0,0.735512971878,-0.0752969533205,-9.91019916534,0.0431374795735,-0.00691534951329,-0.00260346289724,0.0,0.0
2020/02/28/11:32:53.334172,290,1582911173,334140863,vectornav,1266946391.32,0.0,0.0,0.0,0.675610423088,-0.190155804157,-9.1667881012,0.0411251932383,-0.000430254265666,-0.00541972834617,0.0,0.0
2020/02/28/11:32:53.354258,291,1582911173,354175086,vectornav,1266946391.34,0.0,0.0,0.0,0.821524977684,-0.223232209682,-9.53756141663,-0.00525280507281,0.0099079972133,-0.00480716209859,0.0,0.0
2020/02/28/11:32:53.374157,292,1582911173,374114979,vectornav,1266946391.36,0.0,0.0,0.0,0.540279626846,-0.0452477671206,-9.5611076355,-0.0127435186878,-4.39533032477e-05,-0.00471246708184,0.0,0.0
2020/02/28/11:32:53.394162,293,1582911173,394114094,vectornav,1266946391.38,0.0,0.0,0.0,0.914734482765,-0.535687208176,-10.2059440613,-0.0226579513401,-0.00710306176916,-0.00553567986935,0.0,0.0
2020/02/28/11:32:53.414190,294,1582911173,414115106,vectornav,1266946391.4,0.0,0.0,0.0,0.572334587574,-0.195890218019,-9.71493148804,0.0247962530702,0.00344398268498,-0.00654107704759,0.0,0.0
2020/02/28/11:32:53.434143,295,1582911173,434106310,vectornav,1266946391.42,0.0,0.0,0.0,0.58742582798,-0.831776738167,-9.69532203674,-0.0178150366992,-0.00191893521696,-0.00759424176067,0.0,0.0
2020/02/28/11:32:53.454221,296,1582911173,454173595,vectornav,1266946391.44,0.0,0.0,0.0,0.498160541058,-0.431830853224,-10.2045497894,0.0155859217048,-0.00693845329806,-0.00538592785597,0.0,0.0
2020/02/28/11:32:53.474205,297,1582911173,474105743,vectornav,1266946391.46,0.0,0.0,0.0,0.756069242954,-0.322814255953,-9.41438102722,0.0546136721969,-0.00431269966066,-0.00469031091779,0.0,0.0
2020/02/28/11:32:53.494153,298,1582911173,494087594,vectornav,1266946391.48,0.0,0.0,0.0,0.772740662098,-0.105799891055,-8.8788433075,-0.00613920809701,0.00743154110387,-0.00309327989817,0.0,0.0
2020/02/28/11:32:53.514173,299,1582911173,514107431,vectornav,1266946391.5,0.0,0.0,0.0,0.860465109348,-0.146768718958,-10.4393882751,-0.0328828580678,-0.00333076063544,-0.00655739661306,0.0,0.0
2020/02/28/11:32:53.534099,300,1582911173,534039752,vectornav,1266946391.52,0.0,0.0,0.0,0.799440979958,-0.1800763309,-9.79042053223,0.0573282912374,-0.00767632620409,-0.00343610811979,0.0,0.0
2020/02/28/11:32:53.554123,301,1582911173,554047665,vectornav,1266946391.54,0.0,0.0,0.0,0.701412200928,-0.292425453663,-9.25065612793,-0.00541555974633,0.0048698829487,-0.00267742481083,0.0,0.0
2020/02/28/11:32:53.574097,302,1582911173,574057055,vectornav,1266946391.56,0.0,0.0,0.0,0.712339758873,-0.0851940512657,-10.3130302429,-0.0369846522808,0.000628135167062,7.2605907917e-06,0.0,0.0
2020/02/28/11:32:53.594159,303,1582911173,594068913,vectornav,1266946391.58,0.0,0.0,0.0,0.67164683342,-0.309393167496,-9.92266464233,0.0147686526179,0.0047285691835,0.00179051049054,0.0,0.0
2020/02/28/11:32:53.614087,304,1582911173,614032846,vectornav,1266946391.6,0.0,0.0,0.0,0.71695959568,-0.529725134373,-9.55069923401,-0.0050602639094,0.00744768511504,0.00024676322937,0.0,0.0
2020/02/28/11:32:53.634188,305,1582911173,634061771,vectornav,1266946391.62,0.0,0.0,0.0,0.578674674034,-0.694517850876,-10.0072984695,-0.0441484302282,0.0140420012176,4.58285212517e-05,0.0,0.0
