time,.header.seq,.header.stamp.secs,.header.stamp.nsecs,.header.frame_id,.Time,.Week,.Status,.RPY.x,.RPY.y,.RPY.z,.LLA.x,.LLA.y,.LLA.z,.NedVel.x,.NedVel.y,.NedVel.z,.YawUncertainty,.PitchUncertainty,.RollUncertainty,.PosUncertainty,.VelUncertainty,.SyncInTime,.SyncInCount
2020/02/28/11:32:47.614988,23995,1582911167,613976081,vectornav,1266946385.6,2094,33542,2.05727243423,-0.739279270172,5.66365385056,30.672420485,-96.3725153037,88.4090237049,0.00463683530688,0.0075608221814,0.104551039636,0.309177994728,0.0673053711653,0.0672811716795,0.737165570259,0.0952151045203,1582908092.54,0
2020/02/28/11:32:47.634053,23996,1582911167,633988794,vectornav,1266946385.62,2094,33542,2.05843424797,-0.738238692284,5.66360282898,30.6724204863,-96.3725153021,88.4069084026,0.00471104681492,0.00727386865765,0.104586139321,0.309263348579,0.0673885867,0.0673644840717,0.738042771816,0.0955090895295,1582908092.54,0
2020/02/28/11:32:47.654116,23997,1582911167,654020528,vectornav,1266946385.64,2094,774,2.05892539024,-0.737751960754,5.66315412521,30.6724204873,-96.3725153009,88.4048201971,0.00451741367579,0.00717823207378,0.104963168502,0.309348762035,0.0674717798829,0.067447707057,0.738924324512,0.0958033055067,1582908092.54,0
2020/02/28/11:32:47.673999,23998,1582911167,673934600,vectornav,1266946385.66,2094,774,2.05920982361,-0.737454414368,5.66372203827,30.6724204877,-96.3725153003,88.4027252533,0.00436210259795,0.0070450110361,0.105372399092,0.309434205294,0.0675549507141,0.0675309300423,0.739810109138,0.0960975140333,1582908092.54,0
2020/02/28/11:32:47.694077,23999,1582911167,694012751,vectornav,1266946385.68,2094,33542,2.05915474892,-0.737928926945,5.66362380981,30.6724204891,-96.3725152983,88.400642777,0.00460994616151,0.00696173962206,0.105695605278,0.309519678354,0.0676381140947,0.0676141753793,0.740700185299,0.0963920205832,1582908092.54,0
2020/02/28/11:32:47.714119,24000,1582911167,713984949,vectornav,1266946385.7,2094,33542,2.05901217461,-0.738590359688,5.66305494308,30.6724204895,-96.3725152975,88.3985735247,0.00473500415683,0.00664409901947,0.106198042631,0.309605181217,0.0677212774754,0.0676973462105,0.741594731808,0.0966865494847,1582908092.54,0
2020/02/28/11:32:47.734057,24001,1582911167,733972215,vectornav,1266946385.72,2094,33542,2.05857610703,-0.738724529743,5.66329288483,30.6724204835,-96.3725153971,88.4100332353,0.00580772012472,0.00374906975776,0.105614319444,0.309690564871,0.0672528520226,0.0672285705805,0.735540270805,0.0949816927314,1582908092.54,0
2020/02/28/11:32:47.754011,24002,1582911167,753922827,vectornav,1266946385.74,2094,8966,2.05665326118,-0.738389492035,5.6635093689,30.6724204849,-96.3725153966,88.407932742,0.0059029944241,0.00371004361659,0.106495305896,0.309776037931,0.0673360899091,0.0673118531704,0.73641294241,0.0952750742435,1582908092.54,0
2020/02/28/11:32:47.773986,24003,1582911167,773887423,vectornav,1266946385.76,2094,8966,2.05612277985,-0.738442003727,5.66346168518,30.6724204855,-96.3725153959,88.4057841887,0.00615112483501,0.00402912963182,0.106856435537,0.309167742729,0.0674192905426,0.0673950091004,0.737289726734,0.0955687761307,1582908092.54,0
2020/02/28/11:32:47.794002,24004,1582911167,793917617,vectornav,1266946385.78,2094,8966,2.05556750298,-0.73740708828,5.66270017624,30.6724204866,-96.3725153947,88.4037562876,0.00645630434155,0.00407302379608,0.107494987547,0.309253156185,0.0675024986267,0.0674782469869,0.738170862198,0.0958627611399,1582908092.54,0
2020/02/28/11:32:47.813978,24005,1582911167,813919920,vectornav,1266946385.8,2094,37638,2.05414581299,-0.736908078194,5.66222524643,30.6724204876,-96.3725153937,88.4014984016,0.00660429894924,0.00409236550331,0.107851296663,0.309338569641,0.0675856471062,0.0675614774227,0.739056229591,0.096157245338,1582908092.54,0
2020/02/28/11:32:47.834002,24006,1582911167,833916107,vectornav,1266946385.82,2094,37638,2.05428910255,-0.736291408539,5.66283798218,30.6724204897,-96.372515393,88.3993654293,0.00675066187978,0.00424837134778,0.108195856214,0.309423953295,0.0676687881351,0.0676446631551,0.739946067333,0.0964518710971,1582908092.54,0
2020/02/28/11:32:47.853965,24007,1582911167,853888382,vectornav,1266946385.84,2094,774,2.05365824699,-0.736433506012,5.66353464127,30.6724204907,-96.3725153914,88.3972107209,0.00676732510328,0.0044463807717,0.10883268714,0.309509396553,0.0677519142628,0.0677278414369,0.740840196609,0.0967466309667,1582908092.54,0
2020/02/28/11:32:47.873975,24008,1582911167,873908175,vectornav,1266946385.86,2094,774,2.05285859108,-0.737007141113,5.66305017471,30.6724204916,-96.372515391,88.3949712517,0.00709049776196,0.00461110752076,0.109297633171,0.309594869614,0.0678350403905,0.0678110048175,0.741738677025,0.0970415621996,1582908092.54,0
2020/02/28/11:32:47.893928,24009,1582911167,893857543,vectornav,1266946385.88,2094,774,2.05237102509,-0.737128138542,5.66303062439,30.6724204924,-96.3725153899,88.3928288664,0.00731116905808,0.00490387063473,0.109585635364,0.309680342674,0.0679181069136,0.0678941383958,0.742641687393,0.0973369404674,1582908092.54,0
2020/02/28/11:32:47.913913,24010,1582911167,913839760,vectornav,1266946385.9,2094,33542,2.05280470848,-0.737020134926,5.66323184967,30.6724204939,-96.3725153895,88.3906727085,0.00713048130274,0.00525419414043,0.109844468534,0.30976587534,0.0680011957884,0.0679772645235,0.743549108505,0.0976326614618,1582908092.54,0
2020/02/28/11:32:47.933939,24011,1582911167,933866232,vectornav,1266946385.92,2094,33542,2.05279541016,-0.737423360348,5.66265535355,30.6724204678,-96.372515489,88.4082045688,0.0073498673737,0.00288952607661,0.107743963599,0.309851020575,0.0673729106784,0.0673485398293,0.736847817898,0.0954010412097,1582908092.54,0
2020/02/28/11:32:47.954023,24012,1582911167,953843986,vectornav,1266946385.94,2094,774,2.05273342133,-0.737806618214,5.66198396683,30.6724204693,-96.3725154888,88.4059891572,0.00756833702326,0.00285903830081,0.108033515513,0.309936583042,0.0674560889602,0.0674318000674,0.737726271152,0.0956951677799,1582908092.54,0
2020/02/28/11:32:47.973928,24013,1582911167,973853967,vectornav,1266946385.96,2094,774,2.05332112312,-0.737954735756,5.66114425659,30.6724204699,-96.3725154881,88.4039033294,0.0077734105289,0.00296742003411,0.108573228121,0.309327214956,0.0675392746925,0.067514963448,0.738609015942,0.0959894806147,1582908092.54,0
2020/02/28/11:32:47.994001,24014,1582911167,993879913,vectornav,1266946385.98,2094,774,2.05449676514,-0.738034665585,5.66130924225,30.6724204714,-96.3725154875,88.4016124754,0.00789736956358,0.0031216936186,0.108869127929,0.309412658215,0.0676224455237,0.0675981640816,0.739496171474,0.0962838828564,1582908092.54,0
2020/02/28/11:32:48.014200,24015,1582911168,14073548,vectornav,1266946386.0,2094,33542,2.05562090874,-0.737753689289,5.66126728058,30.6724204724,-96.3725154869,88.3994645862,0.00795145705342,0.00330721959472,0.109290860593,0.309498012066,0.0677055567503,0.0676813349128,0.740387618542,0.0965787246823,1582908092.54,0
2020/02/28/11:32:48.033896,24016,1582911168,33844414,vectornav,1266946386.02,2094,33542,2.05671977997,-0.737243771553,5.66045665741,30.6724204739,-96.3725154862,88.3973237774,0.00800129771233,0.00341057032347,0.109951630235,0.309583425522,0.0677886679769,0.0677645131946,0.741283476353,0.0968735441566,1582908092.54,0
2020/02/28/11:32:48.053907,24017,1582911168,53840431,vectornav,1266946386.04,2094,774,2.05779480934,-0.737032711506,5.66006326675,30.6724204756,-96.3725154855,88.3950418537,0.00816611200571,0.00345244444907,0.110393613577,0.30966886878,0.0678717494011,0.0678476318717,0.742183625698,0.0971685349941,1582908092.54,0
2020/02/28/11:32:48.073888,24018,1582911168,73820524,vectornav,1266946386.06,2094,774,2.05850744247,-0.736944556236,5.65978908539,30.6724204772,-96.372515485,88.3928288883,0.00816021487117,0.0034341532737,0.110839396715,0.309754252434,0.0679548159242,0.0679307207465,0.743088245392,0.0974640250206,1582908092.54,0
2020/02/28/11:32:48.093982,24019,1582911168,93838380,vectornav,1266946386.08,2094,774,2.05925965309,-0.736830711365,5.66016626358,30.6724204791,-96.3725154842,88.3906153838,0.0082083567977,0.00365552026778,0.111261337996,0.309839725494,0.0680378600955,0.0680138170719,0.743997275829,0.0977597460151,1582908092.54,0
2020/02/28/11:32:48.113927,24020,1582911168,113860241,vectornav,1266946386.1,2094,33542,2.05958223343,-0.736749589443,5.66044187546,30.6724204805,-96.372515483,88.3883842257,0.00820855423808,0.00365017354488,0.111873865128,0.309925168753,0.0681209042668,0.0680969208479,0.74491071701,0.0980554074049,1582908092.54,0
2020/02/28/11:32:48.133889,24021,1582911168,133790283,vectornav,1266946386.12,2094,33542,2.05904150009,-0.736874580383,5.660384655,30.6724204819,-96.3725154818,88.3862104351,0.00835643708706,0.00384104344994,0.112393155694,0.31001073122,0.0682039186358,0.0681799724698,0.745828807354,0.098351560533,1582908092.54,0
2020/02/28/11:32:48.153828,24022,1582911168,153769796,vectornav,1266946386.14,2094,33542,2.05842995644,-0.737742006779,5.66098213196,30.6724204777,-96.3725155279,88.3955213255,0.00960638746619,0.00297696422786,0.111863866448,0.310096204281,0.0677093788981,0.0676851272583,0.739666461945,0.0965836718678,1582908092.54,0
2020/02/28/11:32:48.173823,24023,1582911168,173762670,vectornav,1266946386.16,2094,774,2.05816626549,-0.738053679466,5.66078901291,30.6724204798,-96.3725155278,88.3932157361,0.0099067427218,0.00294851325452,0.112468741834,0.310181707144,0.0677924752235,0.0677682980895,0.740561723709,0.0968785434961,1582908092.54,0
2020/02/28/11:32:48.193859,24024,1582911168,193760801,vectornav,1266946386.18,2094,774,2.05812311172,-0.737987458706,5.66120433807,30.6724204817,-96.3725155278,88.3910635858,0.010222595185,0.00288703292608,0.112729772925,0.309570729733,0.0678755640984,0.0678513422608,0.741461336613,0.0971738249063,1582908092.54,0
2020/02/28/11:32:48.213866,24025,1582911168,213753239,vectornav,1266946386.2,2094,33542,2.05843544006,-0.738325178623,5.66093111038,30.6724204835,-96.372515527,88.3887096979,0.0099970549345,0.00302420277148,0.113278284669,0.309656143188,0.0679586231709,0.0679344460368,0.742365539074,0.0974693149328,1582908092.54,0
2020/02/28/11:32:48.233808,24026,1582911168,233746675,vectornav,1266946386.22,2094,33542,2.05892181396,-0.737723469734,5.6613483429,30.6724204854,-96.372515527,88.3864869281,0.0103059262037,0.00290693156421,0.113915264606,0.309741586447,0.0680416747928,0.068017564714,0.743273854256,0.0977648571134,1582908092.54,0
2020/02/28/11:32:48.253906,24027,1582911168,253804301,vectornav,1266946386.24,2094,33542,2.05972671509,-0.737656652927,5.66169881821,30.6724204869,-96.3725155259,88.3841607836,0.0106736049056,0.0032222289592,0.114201664925,0.309826999903,0.0681246966124,0.068100579083,0.74418669939,0.0980608388782,1582908092.54,0
2020/02/28/11:32:48.273812,24028,1582911168,273716555,vectornav,1266946386.26,2094,774,2.05961847305,-0.737444996834,5.66200399399,30.6724204887,-96.3725155256,88.3819516641,0.0104177594185,0.00351613853127,0.114549711347,0.309912502766,0.0682077258825,0.0681836754084,0.745104134083,0.0983569994569,1582908092.54,0
2020/02/28/11:32:48.293825,24029,1582911168,293720312,vectornav,1266946386.28,2094,774,2.05928897858,-0.736847996712,5.66178131104,30.6724204907,-96.3725155237,88.3796251348,0.0102607160807,0.00371763948351,0.114924959838,0.309997975826,0.0682907029986,0.0682667046785,0.746026039124,0.0986534878612,1582908092.54,0
2020/02/28/11:32:48.313936,24030,1582911168,313811868,vectornav,1266946386.3,2094,33542,2.05925059319,-0.736608445644,5.66182661057,30.6724204924,-96.3725155232,88.3772976964,0.0105403475463,0.00406302977353,0.115106500685,0.310083448887,0.0683736726642,0.0683496892452,0.746952474117,0.0989503487945,1582908092.54,0
2020/02/28/11:32:48.334873,24031,1582911168,334787454,vectornav,1266946386.32,2094,33542,2.05884337425,-0.736322581768,5.66211223602,30.6724204746,-96.3725155989,88.3856653034,0.0108087398112,0.00253791734576,0.114679679275,0.310168594122,0.0678460747004,0.0678218156099,0.740701317787,0.0970924720168,1582908092.54,0
2020/02/28/11:32:48.353835,24032,1582911168,353716094,vectornav,1266946386.34,2094,33542,2.05913186073,-0.73614180088,5.66202306747,30.6724204767,-96.3725155984,88.3833398537,0.0108380243182,0.00253527984023,0.114927776158,0.31025415659,0.067929148674,0.0679048746824,0.741603851318,0.0973879396915,1582908092.54,0
2020/02/28/11:32:48.373791,24033,1582911168,373722804,vectornav,1266946386.36,2094,774,2.05963134766,-0.73640358448,5.66144704819,30.6724204788,-96.3725155975,88.381017234,0.0108113698661,0.0025402829051,0.115567736328,0.30964243412,0.0680122002959,0.0679879412055,0.742510735989,0.0976835042238,1582908092.54,0
2020/02/28/11:32:48.393753,24034,1582911168,393696551,vectornav,1266946386.38,2094,774,2.05919742584,-0.735782623291,5.66081285477,30.6724204809,-96.3725155974,88.37872327,0.0108098573983,0.00268204230815,0.116109251976,0.309727817774,0.0680952370167,0.068071000278,0.743422210217,0.0979791358113,1582908092.54,0
2020/02/28/11:32:48.413827,24035,1582911168,413728438,vectornav,1266946386.4,2094,774,2.05927419662,-0.736038684845,5.66044282913,30.6724204826,-96.3725155967,88.3763757965,0.0106558836997,0.00279747880995,0.116594538093,0.309813261032,0.0681782364845,0.0681540742517,0.744338095188,0.0982749983668,1582908092.54,0
2020/02/28/11:32:48.433769,24036,1582911168,433675073,vectornav,1266946386.42,2094,33542,2.06014990807,-0.736759901047,5.66007709503,30.6724204847,-96.372515596,88.3740417574,0.0105266086757,0.00281098857522,0.117024712265,0.309898674488,0.0682612285018,0.0682370811701,0.745258569717,0.0985713675618,1582908092.54,0
2020/02/28/11:32:48.454745,24037,1582911168,454677892,vectornav,1266946386.44,2094,33542,2.06002473831,-0.736670076847,5.65958404541,30.6724204864,-96.3725155955,88.3716973198,0.010450720787,0.00284617580473,0.117335349321,0.309984147549,0.0683441907167,0.0683200806379,0.746183514595,0.0988679081202,1582908092.54,0
2020/02/28/11:32:48.474756,24038,1582911168,474667806,vectornav,1266946386.46,2094,774,2.05961537361,-0.736908018589,5.65948581696,30.6724204881,-96.3725155941,88.3694357753,0.0105234980583,0.00275276694447,0.11769849062,0.310069620609,0.0684271380305,0.0684031099081,0.74711304903,0.0991648435593,1582908092.54,0
2020/02/28/11:32:48.493786,24039,1582911168,493706436,vectornav,1266946386.48,2094,774,2.06049633026,-0.737457156181,5.66001415253,30.6724204901,-96.3725155933,88.3670599793,0.0108334049582,0.00293764006346,0.118415154517,0.310155123472,0.0685100853443,0.0684860944748,0.748047113419,0.0994618460536,1582908092.54,0
2020/02/28/11:32:48.514754,24040,1582911168,514671178,vectornav,1266946386.5,2094,774,2.06088471413,-0.737092733383,5.66019010544,30.6724204922,-96.3725155934,88.3646119422,0.0112745650113,0.00290524028242,0.118738271296,0.310240656137,0.0685930103064,0.068569034338,0.748985767365,0.0997588783503,1582908092.54,0
2020/02/28/11:32:48.534930,24041,1582911168,534803929,vectornav,1266946386.52,2094,33542,2.06089186668,-0.737319946289,5.66033172607,30.6724204896,-96.3725155796,88.3737051836,0.0122994370759,0.00467284023762,0.118335917592,0.31032577157,0.0680047050118,0.0679804459214,0.7424903512,0.0977123379707,1582908092.54,0
2020/02/28/11:32:48.554805,24042,1582911168,554707588,vectornav,1266946386.54,2094,33542,2.06091189384,-0.736884891987,5.66094732285,30.6724204913,-96.3725155793,88.3714032788,0.0127623490989,0.00456512160599,0.118743993342,0.310411244631,0.0680877268314,0.0680635347962,0.743402481079,0.0980079323053,1582908092.54,0
2020/02/28/11:32:48.574729,24043,1582911168,574668604,vectornav,1266946386.56,2094,33542,2.06143569946,-0.73696243763,5.66078710556,30.6724204935,-96.3725155783,88.3690136704,0.0129746347666,0.00464779883623,0.119208447635,0.309798568487,0.0681707188487,0.0681464746594,0.744319200516,0.0983037725091,1582908092.54,0
2020/02/28/11:32:48.594728,24044,1582911168,594653432,vectornav,1266946386.58,2094,774,2.06136989594,-0.736569285393,5.66148090363,30.6724204964,-96.3725155773,88.3666599867,0.0129761882126,0.00487468857318,0.11954548955,0.309884011745,0.0682537257671,0.0682295262814,0.745240390301,0.0985999777913,1582908092.54,0
2020/02/28/11:32:48.614733,24045,1582911168,614660550,vectornav,1266946386.6,2094,774,2.06187081337,-0.736415028572,5.66192293167,30.6724204985,-96.3725155758,88.3641524924,0.0129896812141,0.00485407933593,0.119955308735,0.309969365597,0.0683366730809,0.0683124810457,0.746166229248,0.0988964736462,1582908092.54,0
2020/02/28/11:32:48.634767,24046,1582911168,634641653,vectornav,1266946386.62,2094,33542,2.0622150898,-0.736010313034,5.6614985466,30.672420501,-96.3725155756,88.3617720528,0.0129847750068,0.00506393052638,0.120427951217,0.310054808855,0.0684196129441,0.068395473063,0.747096300125,0.0991932302713,1582908092.54,0
2020/02/28/11:32:48.654776,24047,1582911168,654674594,vectornav,1266946386.64,2094,33542,2.06177783012,-0.735813677311,5.66172599792,30.6724205036,-96.372515574,88.3593502457,0.0129141174257,0.00517173483968,0.120183736086,0.310140311718,0.0685025379062,0.0684784576297,0.748031198978,0.0994903147221,1582908092.54,0
2020/02/28/11:32:48.674708,24048,1582911168,674637401,vectornav,1266946386.66,2094,33542,2.06161475182,-0.735663950443,5.66139507294,30.6724205061,-96.3725155731,88.356985847,0.012969635427,0.00506818573922,0.120287016034,0.310225695372,0.0685854405165,0.0685613974929,0.74897056818,0.099787928164,1582908092.54,0
2020/02/28/11:32:48.694708,24049,1582911168,694632833,vectornav,1266946386.68,2094,6918,2.06221389771,-0.736065089703,5.66091775894,30.6724205081,-96.3725155719,88.3546349877,0.0129483453929,0.00506873615086,0.120568007231,0.310311198235,0.068668320775,0.0686443448067,0.749914646149,0.100085400045,1582908092.54,0
2020/02/28/11:32:48.714652,24050,1582911168,714579451,vectornav,1266946386.7,2094,6918,2.06179499626,-0.736054837704,5.66058969498,30.6724205103,-96.3725155717,88.3522118847,0.0127179957926,0.00522278249264,0.120640970767,0.310396701097,0.068751193583,0.0687272697687,0.750863313675,0.100383333862,1582908092.54,0
2020/02/28/11:32:48.734671,24051,1582911168,734605264,vectornav,1266946386.72,2094,6918,2.06167674065,-0.736093878746,5.66036987305,30.6724205126,-96.3725155696,88.3496549026,0.0127373337746,0.00544926803559,0.121080197394,0.310460805893,0.068813316524,0.0687894225121,0.75157803297,0.100606918335,1582908092.54,0
2020/02/28/11:32:48.754665,24052,1582911168,754600593,vectornav,1266946386.74,2094,33542,2.06110692024,-0.736625611782,5.65980291367,30.6724205032,-96.3725156223,88.3627191287,0.0133667625487,0.00439127441496,0.1200093925,0.3105674088,0.0682458505034,0.0682216286659,0.7452891469,0.0986422225833,1582908092.54,0
2020/02/28/11:32:48.774701,24053,1582911168,774587910,vectornav,1266946386.76,2094,33542,2.06089496613,-0.737103044987,5.66047239304,30.6724205057,-96.3725156207,88.3603025217,0.0135569125414,0.00469756312668,0.120503410697,0.309953600168,0.0683288052678,0.0683045461774,0.746215999126,0.0989383384585,1582908092.54,0
2020/02/28/11:32:48.794696,24054,1582911168,794592611,vectornav,1266946386.78,2094,774,2.06041574478,-0.737139880657,5.66054582596,30.6724205084,-96.3725156195,88.3579077083,0.0134770460427,0.0047452673316,0.121318057179,0.310038983822,0.068411745131,0.0683875158429,0.747147321701,0.0992348790169,1582908092.54,0
2020/02/28/11:32:48.814680,24055,1582911168,814589856,vectornav,1266946386.8,2094,774,2.06050682068,-0.736807227135,5.66088914871,30.6724205109,-96.3725156198,88.3554913569,0.0135284438729,0.00477929133922,0.121888868511,0.31012442708,0.0684946551919,0.0684704482555,0.748083293438,0.0995311737061,1582908092.54,0
2020/02/28/11:32:48.834674,24056,1582911168,834615050,vectornav,1266946386.82,2094,774,2.06104230881,-0.736762106419,5.66183042526,30.6724205135,-96.3725156183,88.3531060279,0.0134185999632,0.00466504786164,0.121914513409,0.310209721327,0.0685775354505,0.0685533806682,0.749023854733,0.0998283848166,1582908092.54,0
2020/02/28/11:32:48.854682,24057,1582911168,854604526,vectornav,1266946386.84,2094,33542,2.06150555611,-0.735519349575,5.66201972961,30.6724205159,-96.3725156173,88.350549009,0.0136177912354,0.00439899414778,0.121508732438,0.310295164585,0.068660415709,0.0686363130808,0.749969005585,0.100126095116,1582908092.54,0
2020/02/28/11:32:48.874691,24058,1582911168,874628141,vectornav,1266946386.86,2094,33542,2.06217002869,-0.734055578709,5.66227626801,30.6724205182,-96.3725156167,88.3481351595,0.0136245340109,0.00421859510243,0.12092346698,0.310380637646,0.0687432661653,0.0687191784382,0.750918865204,0.100424528122,1582908092.54,0
2020/02/28/11:32:48.894644,24059,1582911168,894543636,vectornav,1266946386.88,2094,774,2.06269145012,-0.733944892883,5.66215896606,30.6724205209,-96.3725156158,88.3457250715,0.0132115148008,0.00398127269,0.120396591723,0.310466140509,0.0688261091709,0.0688020810485,0.751873314381,0.100722998381,1582908092.54,0
2020/02/28/11:32:48.914665,24060,1582911168,914578654,vectornav,1266946386.9,2094,774,2.06298017502,-0.733758509159,5.66228961945,30.672420523,-96.3725156149,88.3434074505,0.012704860419,0.00395395047963,0.120991148055,0.310551702976,0.0689089521766,0.0688849687576,0.752832472324,0.101021386683,1582908092.54,0
2020/02/28/11:32:48.934602,24061,1582911168,934521706,vectornav,1266946386.92,2094,774,2.06233310699,-0.734800338745,5.66265583038,30.6724205256,-96.3725156129,88.3408293929,0.0120479278266,0.00424428563565,0.12201680243,0.310615837574,0.0689710602164,0.0689470916986,0.753554940224,0.101244799793,1582908092.54,0
2020/02/28/11:32:48.954674,24062,1582911168,954584002,vectornav,1266946386.94,2094,33542,2.06148409843,-0.735231280327,5.66179180145,30.6724204381,-96.3725155902,88.3609653873,0.00849946960807,0.00650742463768,0.120531521738,0.31072229147,0.0681365281343,0.0681121870875,0.746141254902,0.0983946323395,1582908092.54,0
2020/02/28/11:32:48.974641,24063,1582911168,974583045,vectornav,1266946386.96,2094,33542,2.06045603752,-0.73687762022,5.66185235977,30.6724204394,-96.3725155892,88.3585342114,0.00853369757533,0.00718619115651,0.122095704079,0.310107499361,0.068219512701,0.0681951493025,0.747066378593,0.0986894518137,1582908092.54,0
2020/02/28/11:32:48.994642,24064,1582911168,994525703,vectornav,1266946386.98,2094,33542,2.05888223648,-0.737588167191,5.6623210907,30.6724204406,-96.3725155878,88.3561090321,0.00875359773636,0.00762725342065,0.123267635703,0.31019282341,0.0683024451137,0.0682781115174,0.747995972633,0.0989846438169,1582908092.54,0
2020/02/28/11:32:49.014640,24065,1582911169,14527816,vectornav,1266946387.0,2094,774,2.05800557137,-0.738241970539,5.66239738464,30.6724204427,-96.3725155853,88.3536686721,0.0093637779355,0.0078291669488,0.123903155327,0.310278236866,0.0683853700757,0.068361081183,0.748930156231,0.0992804095149,1582908092.54,0
2020/02/28/11:32:49.034635,24066,1582911169,34535624,vectornav,1266946387.02,2094,774,2.05762243271,-0.738413274288,5.66250753403,30.6724204444,-96.3725155848,88.3512203185,0.0101919323206,0.00780362263322,0.123978897929,0.31036362052,0.068468272686,0.0684440359473,0.749868869781,0.0995771586895,1582908092.54,0
2020/02/28/11:32:49.054705,24067,1582911169,54582888,vectornav,1266946387.04,2094,33542,2.05801010132,-0.73794144392,5.66264486313,30.6724204461,-96.3725155826,88.3486496567,0.0110631920397,0.00817266199738,0.123688697815,0.310449063778,0.0685511603951,0.0685269460082,0.750812232494,0.0998740643263,1582908092.54,0
2020/02/28/11:32:49.074632,24068,1582911169,74541511,vectornav,1266946387.06,2094,33542,2.05882978439,-0.737701773643,5.66307163239,30.672420448,-96.3725155814,88.3461896565,0.0118902139366,0.00865211430937,0.123664177954,0.310534596443,0.0686340555549,0.0686098858714,0.751760184765,0.100171379745,1582908092.54,0
2020/02/28/11:32:49.094578,24069,1582911169,94467285,vectornav,1266946387.08,2094,33542,2.0607984066,-0.73743134737,5.66400384903,30.6724204503,-96.3725155792,88.3436988221,0.0124535039067,0.00923992879689,0.123779132962,0.310620099306,0.0687169209123,0.0686927735806,0.752712726593,0.100469082594,1582908092.54,0
2020/02/28/11:32:49.114609,24070,1582911169,114496001,vectornav,1266946387.1,2094,774,2.06203269958,-0.737941086292,5.66481733322,30.6724204524,-96.3725155774,88.3412382232,0.0129929892719,0.0096928011626,0.123914368451,0.310705572367,0.0687997415662,0.0687756687403,0.753669917583,0.100766703486,1582908092.54,0
2020/02/28/11:32:49.134591,24071,1582911169,134511206,vectornav,1266946387.12,2094,774,2.06323242188,-0.738017678261,5.66527414322,30.6724204548,-96.372515575,88.3388469741,0.0133722759783,0.0103308586404,0.12436118722,0.31079107523,0.0688825547695,0.0688585266471,0.754631876945,0.101064637303,1582908092.54,0
2020/02/28/11:32:49.154758,24072,1582911169,154602377,vectornav,1266946387.14,2094,774,2.06392049789,-0.73829883337,5.66544723511,30.6724204345,-96.3725156266,88.3512741547,0.0137282013893,0.00918722525239,0.12251573801,0.310876339674,0.0683140605688,0.0682897344232,0.748146951199,0.0990875139832,1582908092.54,0
2020/02/28/11:32:49.174618,24073,1582911169,174512488,vectornav,1266946387.16,2094,33542,2.0648059845,-0.738896727562,5.66525697708,30.6724204374,-96.3725156247,88.3488293574,0.0140601247549,0.0091300746426,0.122740849853,0.310260504484,0.0683969929814,0.0683726295829,0.74908298254,0.0993840321898,1582908092.54,0
2020/02/28/11:32:49.194595,24074,1582911169,194468833,vectornav,1266946387.18,2094,33542,2.0658121109,-0.739948153496,5.66519117355,30.67242044,-96.3725156232,88.3463836387,0.0144970528781,0.00921682454646,0.122852146626,0.310345888138,0.0684799104929,0.0684555396438,0.750023663044,0.0996805131435,1582908092.54,0
2020/02/28/11:32:49.214587,24075,1582911169,214512645,vectornav,1266946387.2,2094,774,2.06617617607,-0.740270376205,5.66479587555,30.6724204421,-96.3725156216,88.343977592,0.0148765929043,0.00891011953354,0.123315751553,0.310431301594,0.0685627683997,0.0685384497046,0.750968813896,0.099977299571,1582908092.54,0
2020/02/28/11:32:49.234555,24076,1582911169,234468442,vectornav,1266946387.22,2094,774,2.06746196747,-0.739703595638,5.6638417244,30.6724204454,-96.3725156191,88.3414402761,0.0150275081396,0.00870421715081,0.124080970883,0.31051671505,0.0686456263065,0.0686213970184,0.751918673515,0.1002741009,1582908092.54,0
2020/02/28/11:32:49.254583,24077,1582911169,254472380,vectornav,1266946387.24,2094,774,2.06870746613,-0.738295853138,5.6634349823,30.672420448,-96.372515617,88.338952388,0.0148846693337,0.0089159021154,0.125104576349,0.310602098703,0.0687284618616,0.0687042921782,0.752873182297,0.100570753217,1582908092.54,0
2020/02/28/11:32:49.274556,24078,1582911169,274495248,vectornav,1266946387.26,2094,33542,2.06926965714,-0.737448632717,5.6623749733,30.6724204505,-96.372515615,88.3364593617,0.0146722458303,0.00932169146836,0.126297235489,0.310687541962,0.0688112825155,0.0687871202826,0.753832519054,0.100867919624,1582908092.54,0
2020/02/28/11:32:49.294618,24079,1582911169,294523629,vectornav,1266946387.28,2094,33542,2.06920909882,-0.737117350101,5.66139507294,30.6724204529,-96.3725156133,88.3339011107,0.0142230130732,0.0095631070435,0.127009049058,0.31077298522,0.0688940882683,0.0688699409366,0.754796087742,0.101164937019,1582908092.54,0
2020/02/28/11:32:49.314529,24080,1582911169,314472477,vectornav,1266946387.3,2094,774,2.06876802444,-0.736538529396,5.66091775894,30.6724204552,-96.3725156112,88.331402584,0.0140623338521,0.00970839895308,0.128017127514,0.310858428478,0.0689768493176,0.0689527615905,0.755764603615,0.10146252811,1582908092.54,0
2020/02/28/11:32:49.334539,24081,1582911169,334478235,vectornav,1266946387.32,2094,774,2.06778240204,-0.737195849419,5.66099262238,30.6724204,-96.3725156565,88.3509866265,0.0119407773018,0.00891820061952,0.125669836998,0.31094366312,0.0683782324195,0.0683538243175,0.749181032181,0.0993973240256,1582908092.54,0
2020/02/28/11:32:49.354522,24082,1582911169,354440952,vectornav,1266946387.34,2094,774,2.06665420532,-0.737403571606,5.66053104401,30.6724204022,-96.3725156541,88.3484582156,0.011487018317,0.00897125154734,0.125781267881,0.311029165983,0.0684611201286,0.068436793983,0.750122606754,0.0996936485171,1582908092.54,0
2020/02/28/11:32:49.374647,24083,1582911169,374494368,vectornav,1266946387.36,2094,33542,2.06615257263,-0.737892329693,5.66087961197,30.6724204044,-96.3725156524,88.3459494987,0.0114719644189,0.00905566383153,0.125589564443,0.310412377119,0.0685440003872,0.0685195922852,0.751068711281,0.0999902412295,1582908092.54,0
2020/02/28/11:32:49.394493,24084,1582911169,394423931,vectornav,1266946387.38,2094,33542,2.06537866592,-0.739045023918,5.66170406342,30.6724204064,-96.3725156501,88.3434535781,0.0109640322626,0.00874912459403,0.125383660197,0.310497760773,0.0686268508434,0.0686024799943,0.752019405365,0.100287526846,1582908092.54,0
2020/02/28/11:32:49.414493,24085,1582911169,414408301,vectornav,1266946387.4,2094,33542,2.06570911407,-0.739304304123,5.66261339188,30.672420408,-96.3725156488,88.3410485706,0.0110442005098,0.00912431720644,0.125018060207,0.310583084822,0.0687096789479,0.0686853826046,0.752974748611,0.100585065782,1582908092.54,0
2020/02/28/11:32:49.434514,24086,1582911169,434449608,vectornav,1266946387.42,2094,774,2.06563448906,-0.739056944847,5.66300153732,30.6724204105,-96.3725156471,88.3384431202,0.0109659619629,0.0091770356521,0.125098437071,0.31066852808,0.0687924847007,0.0687682330608,0.753934800625,0.100882783532,1582908092.54,0
2020/02/28/11:32:49.454501,24087,1582911169,454422576,vectornav,1266946387.44,2094,774,2.0663895607,-0.739125490189,5.66332435608,30.6724204124,-96.3725156455,88.3360024657,0.0108115710318,0.00922821741551,0.125635027885,0.310753911734,0.0688752681017,0.0688510611653,0.754899501801,0.101180240512,1582908092.54,0
2020/02/28/11:32:49.474634,24088,1582911169,474482669,vectornav,1266946387.46,2094,33542,2.06677770615,-0.739402592182,5.6642832756,30.6724204135,-96.3725156433,88.3334629897,0.0108701586723,0.00942007638514,0.12622384727,0.31083932519,0.0689580366015,0.0689338892698,0.755868911743,0.101477958262,1582908092.54,0
2020/02/28/11:32:49.494501,24089,1582911169,494386956,vectornav,1266946387.48,2094,33542,2.06540203094,-0.738738358021,5.6640868187,30.6724204158,-96.3725156411,88.3308786039,0.0108223222196,0.00953214801848,0.127425402403,0.310924828053,0.0690408051014,0.0690166950226,0.756843090057,0.101775661111,1582908092.54,0
2020/02/28/11:32:49.514493,24090,1582911169,514418644,vectornav,1266946387.5,2094,33542,2.06563162804,-0.739914953709,5.66399860382,30.6724204178,-96.3725156394,88.3283061918,0.0107308551669,0.00969536788762,0.13019785285,0.311010301113,0.0691235661507,0.0690994784236,0.757821917534,0.102072253823,1582908092.54,0
2020/02/28/11:32:49.534486,24091,1582911169,534365285,vectornav,1266946387.52,2094,774,2.06512665749,-0.740927457809,5.66349411011,30.6724203223,-96.372515709,88.3511257935,0.00727676227689,0.00778038892895,0.128190353513,0.311095565557,0.0683246925473,0.0683002248406,0.750386357307,0.0993471369147,1582908092.54,0
2020/02/28/11:32:49.554500,24092,1582911169,554398338,vectornav,1266946387.54,2094,774,2.06370639801,-0.741500258446,5.66340494156,30.6724203235,-96.3725157075,88.3485810881,0.00792891159654,0.0080663273111,0.128386378288,0.31118106842,0.0684075802565,0.0683831349015,0.751329064369,0.0996426418424,1582908092.54,0
2020/02/28/11:32:49.574521,24093,1582911169,574437405,vectornav,1266946387.56,2094,33542,2.06413936615,-0.742334425449,5.66287088394,30.6724203247,-96.372515706,88.3460088496,0.00903583690524,0.00830640550703,0.128093540668,0.31056317687,0.068490460515,0.0684659704566,0.752276360989,0.0999387353659,1582908092.54,0
2020/02/28/11:32:49.594489,24094,1582911169,594400664,vectornav,1266946387.58,2094,33542,2.06448960304,-0.743098139763,5.66286468506,30.6724203264,-96.3725157041,88.3434578147,0.0096277333796,0.00839319545776,0.126801550388,0.310648649931,0.068573333323,0.0685488730669,0.753228247166,0.100236065686,1582908092.54,0
2020/02/28/11:32:49.614556,24095,1582911169,614481661,vectornav,1266946387.6,2094,33542,2.06484389305,-0.741402208805,5.66230964661,30.6724203284,-96.3725157016,88.3409737482,0.0103901997209,0.00841319840401,0.125174000859,0.310734003782,0.0686561688781,0.0686317384243,0.7541847229,0.100534297526,1582908092.54,0
2020/02/28/11:32:49.634448,24096,1582911169,634371422,vectornav,1266946387.62,2094,774,2.066229105,-0.740156829357,5.66228532791,30.6724203304,-96.3725156998,88.3384612669,0.0108177661896,0.00908587034792,0.124817050993,0.310819387436,0.0687389820814,0.068714633584,0.755145847797,0.100832045078,1582908092.54,0
2020/02/28/11:32:49.654457,24097,1582911169,654403800,vectornav,1266946387.64,2094,774,2.0666847229,-0.738468170166,5.66294670105,30.672420332,-96.3725156989,88.335970181,0.010720577091,0.00970861315727,0.124909251928,0.310904830694,0.0688217803836,0.0687974616885,0.756111681461,0.101129554212,1582908092.54,0
2020/02/28/11:32:49.674491,24098,1582911169,674423866,vectornav,1266946387.66,2094,774,2.06640052795,-0.738125622272,5.66388463974,30.6724203341,-96.3725156958,88.3335270972,0.0108046382666,0.00991118047386,0.126244202256,0.310990303755,0.0689045637846,0.0688802972436,0.757082223892,0.101426690817,1582908092.54,0
2020/02/28/11:32:49.694435,24099,1582911169,694295867,vectornav,1266946387.68,2094,33542,2.06661534309,-0.738695085049,5.66481876373,30.6724203367,-96.3725156942,88.3309839201,0.0107457749546,0.0101166302338,0.128164559603,0.311075806618,0.0689873322845,0.0689631253481,0.758057355881,0.101723104715,1582908092.54,0
2020/02/28/11:32:49.714426,24100,1582911169,714362026,vectornav,1266946387.7,2094,33542,2.06589365005,-0.740221560001,5.66559743881,30.6724203381,-96.3725156915,88.3283469266,0.0106896981597,0.00979498866946,0.130357533693,0.311161249876,0.0690700635314,0.0690459311008,0.759037315845,0.102019578218,1582908092.54,0
2020/02/28/11:32:49.734392,24101,1582911169,734314062,vectornav,1266946387.72,2094,33542,2.06539988518,-0.742603182793,5.66697311401,30.6724203401,-96.3725156891,88.3256385849,0.0107954032719,0.0093643059954,0.131575882435,0.311225384474,0.069132104516,0.0691079944372,0.759775340557,0.102242276073,1582908092.54,0
2020/02/28/11:32:49.754446,24102,1582911169,754340459,vectornav,1266946387.74,2094,774,2.06577968597,-0.743871569633,5.66735601425,30.6724202553,-96.3725157585,88.3503045182,0.00797042250633,0.00629502534866,0.12777736783,0.311331897974,0.0685167610645,0.0684922933578,0.753194630146,0.100122831762,1582908092.54,0
2020/02/28/11:32:49.774438,24103,1582911169,774319155,vectornav,1266946387.76,2094,774,2.06676888466,-0.743570148945,5.66732931137,30.6724202567,-96.3725157573,88.3477511841,0.00817099958658,0.0058063371107,0.127588108182,0.31071293354,0.0685995966196,0.0685750693083,0.754150092602,0.100419387221,1582908092.54,0
2020/02/28/11:32:49.794349,24104,1582911169,794291978,vectornav,1266946387.78,2094,33542,2.06775927544,-0.742632687092,5.66702032089,30.6724202584,-96.3725157556,88.3452267612,0.00834733620286,0.00567313749343,0.126779466867,0.310798197985,0.0686823874712,0.0686579197645,0.755110323429,0.100716412067,1582908092.54,0
2020/02/28/11:32:49.814423,24105,1582911169,814309967,vectornav,1266946387.8,2094,33542,2.06766605377,-0.740596354008,5.66698694229,30.6724202599,-96.3725157544,88.3427016353,0.0084481947124,0.0058390153572,0.125695198774,0.310883611441,0.0687651857734,0.0687407776713,0.756075203419,0.101014249027,1582908092.54,0
2020/02/28/11:32:49.834347,24106,1582911169,834275323,vectornav,1266946387.82,2094,33542,2.06655812263,-0.738754153252,5.66629886627,30.6724202612,-96.3725157536,88.3401710414,0.00833992287517,0.00649859756231,0.125359401107,0.310969084501,0.068847976625,0.068823620677,0.757044672966,0.101312182844,1582908092.54,0
2020/02/28/11:32:49.854391,24107,1582911169,854275230,vectornav,1266946387.84,2094,774,2.06542611122,-0.73741132021,5.66611480713,30.6724202627,-96.3725157522,88.3376632713,0.00787252560258,0.00744750816375,0.125666856766,0.311054557562,0.0689307525754,0.0689064487815,0.758018910885,0.101609662175,1582908092.54,0
2020/02/28/11:32:49.874357,24108,1582911169,874298540,vectornav,1266946387.86,2094,774,2.06417059898,-0.737381517887,5.66653394699,30.6724202638,-96.3725157505,88.3352520792,0.00710485130548,0.00812081526965,0.127123877406,0.311139971018,0.0690134912729,0.0689892396331,0.758997917175,0.101906955242,1582908092.54,0
2020/02/28/11:32:49.894389,24109,1582911169,894273366,vectornav,1266946387.88,2094,33542,2.06348323822,-0.738682091236,5.66667318344,30.6724202653,-96.372515749,88.3325936694,0.00682396441698,0.00828522350639,0.127983734012,0.311225384474,0.0690962076187,0.0690719932318,0.759981632233,0.102204062045,1582908092.54,0
2020/02/28/11:32:49.914422,24110,1582911169,914284138,vectornav,1266946387.9,2094,33542,2.06316971779,-0.740198910236,5.66720676422,30.6724202664,-96.3725157463,88.3300714443,0.00658042728901,0.00829224288464,0.12891304493,0.311310887337,0.0691789314151,0.0691547244787,0.760970056057,0.102501660585,1582908092.54,0
2020/02/28/11:32:49.934348,24111,1582911169,934287874,vectornav,1266946387.92,2094,33542,2.06482124329,-0.741884350777,5.66807317734,30.6724201692,-96.3725157719,88.3561566593,0.00295852869749,0.00800258573145,0.125309243798,0.311396181583,0.0685582756996,0.0685338079929,0.754218578339,0.100365482271,1582908092.54,0
2020/02/28/11:32:49.954331,24112,1582911169,954255058,vectornav,1266946387.94,2094,774,2.06649518013,-0.743319571018,5.66795635223,30.6724201697,-96.3725157707,88.3535720763,0.00292040035129,0.00829990766943,0.125873312354,0.311481714249,0.068641088903,0.0686166584492,0.755178749561,0.100661553442,1582908092.54,0
2020/02/28/11:32:49.974263,24113,1582911169,974205663,vectornav,1266946387.96,2094,774,2.06736397743,-0.743226528168,5.66829013824,30.6724201699,-96.3725157688,88.3510910865,0.00325312465429,0.00823728274554,0.125543132424,0.310861706734,0.0687239021063,0.0686993971467,0.756143629551,0.100958295166,1582908092.54,0
2020/02/28/11:32:49.994269,24114,1582911169,994199347,vectornav,1266946387.98,2094,774,2.06801319122,-0.742399394512,5.66850996017,30.6724201705,-96.3725157678,88.3485632495,0.00330731645226,0.00832059327513,0.125554457307,0.310947030783,0.0688066780567,0.0687822327018,0.757113099098,0.101255074143,1582908092.54,0
2020/02/28/11:32:50.014343,24115,1582911170,14248013,vectornav,1266946388.0,2094,33542,2.06792283058,-0.74149286747,5.66840314865,30.6724201718,-96.3725157663,88.3461008907,0.00338215008378,0.00819741003215,0.125560596585,0.311032384634,0.068889439106,0.0688650533557,0.758087396622,0.101552508771,1582908092.54,0
2020/02/28/11:32:50.034282,24116,1582911170,34210112,vectornav,1266946388.02,2094,33542,2.06775665283,-0.740513920784,5.66725158691,30.6724201718,-96.3725157638,88.3435614917,0.00353053212166,0.00786540098488,0.125587776303,0.31111779809,0.0689721852541,0.068947814405,0.759066343307,0.101849913597,1582908092.54,0
2020/02/28/11:32:50.054332,24117,1582911170,54226984,vectornav,1266946388.04,2094,774,2.06690454483,-0.739756643772,5.66736698151,30.6724201728,-96.3725157633,88.3410939722,0.00349126756191,0.00750378798693,0.125761210918,0.311203181744,0.0690549090505,0.069030597806,0.760049939156,0.102147623897,1582908092.54,0
2020/02/28/11:32:50.074254,24118,1582911170,74187016,vectornav,1266946388.06,2094,774,2.06612873077,-0.740065574646,5.66667032242,30.672420173,-96.3725157615,88.3385182621,0.00344941392541,0.00717773102224,0.126416310668,0.311288625002,0.0691376179457,0.0691133439541,0.76103836298,0.102445349097,1582908092.54,0
2020/02/28/11:32:50.094303,24119,1582911170,94216844,vectornav,1266946388.08,2094,774,2.0651371479,-0.740850865841,5.66591882706,30.6724201739,-96.3725157597,88.3359626976,0.00369753688574,0.00713541824371,0.127038687468,0.311374038458,0.0692203119397,0.0691960528493,0.762031555176,0.10274322331,1582908092.54,0
2020/02/28/11:32:50.114257,24120,1582911170,114172353,vectornav,1266946388.1,2094,33542,2.06448101997,-0.741566598415,5.66521787643,30.6724201744,-96.3725157579,88.3334189404,0.0037390217185,0.00724514666945,0.127760589123,0.311459511518,0.0693029761314,0.0692787915468,0.763029515743,0.103041164577,1582908092.54,0
2020/02/28/11:32:50.134336,24121,1582911170,134219601,vectornav,1266946388.12,2094,33542,2.06309485435,-0.742358744144,5.66536951065,30.6724201753,-96.3725157559,88.3308792567,0.00412289425731,0.00742394756526,0.128268897533,0.311545014381,0.069385625422,0.0693614855409,0.764032244682,0.103339500725,1582908092.54,0
2020/02/28/11:32:50.154289,24122,1582911170,154171889,vectornav,1266946388.14,2094,33542,2.0618891716,-0.74298542738,5.66525411606,30.6724201621,-96.3725157385,88.3534381962,0.00494566932321,0.00866108946502,0.125330328941,0.311630308628,0.068615861237,0.0685913488269,0.756581842899,0.10071054101,1582908092.54,0
2020/02/28/11:32:50.174264,24123,1582911170,174161149,vectornav,1266946388.16,2094,774,2.06057214737,-0.742689371109,5.66639280319,30.6724201635,-96.3725157367,88.3510084908,0.00543656200171,0.00916493497789,0.125752091408,0.311009168625,0.068698681891,0.0686741471291,0.757549285889,0.101006515324,1582908092.54,0
2020/02/28/11:32:50.194208,24124,1582911170,194145208,vectornav,1266946388.18,2094,774,2.05949854851,-0.742183744907,5.66730260849,30.6724201639,-96.3725157341,88.3484634833,0.00594734027982,0.00951804220676,0.126030415297,0.311094492674,0.0687814503908,0.0687569603324,0.758521318436,0.101303003728,1582908092.54,0
2020/02/28/11:32:50.214240,24125,1582911170,214161043,vectornav,1266946388.2,2094,33542,2.05792665482,-0.741629004478,5.66805410385,30.6724201654,-96.3725157333,88.3459661716,0.00636188685894,0.00973826833069,0.126485809684,0.31117990613,0.0688642039895,0.0688397660851,0.759498119354,0.101599730551,1582908092.54,0
2020/02/28/11:32:50.234241,24126,1582911170,234145738,vectornav,1266946388.22,2094,33542,2.05831623077,-0.740918815136,5.66829252243,30.6724201658,-96.3725157309,88.3433782991,0.00675445795059,0.00988632999361,0.127207756042,0.311265259981,0.0689469352365,0.0689224973321,0.760479569435,0.101896308362,1582908092.54,0
2020/02/28/11:32:50.254316,24127,1582911170,254201893,vectornav,1266946388.24,2094,33542,2.05857300758,-0.740928769112,5.66951847076,30.672420167,-96.3725157284,88.3408783521,0.00691381841898,0.00984376017004,0.127597689629,0.311350673437,0.0690296664834,0.0690052807331,0.761465787888,0.1021932289,1582908092.54,0
2020/02/28/11:32:50.274250,24128,1582911170,274156995,vectornav,1266946388.26,2094,774,2.05912971497,-0.740266501904,5.66930437088,30.6724201691,-96.3725157264,88.3382539989,0.0071653239429,0.00988312717527,0.127691954374,0.311436116695,0.0691123828292,0.0690880119801,0.762456655502,0.102490864694,1582908092.54,0
2020/02/28/11:32:50.294221,24129,1582911170,294129412,vectornav,1266946388.28,2094,774,2.06014370918,-0.740511059761,5.6692404747,30.67242017,-96.3725157246,88.3356958872,0.00722794979811,0.0102366432548,0.127804249525,0.311521619558,0.0691950693727,0.0691707655787,0.763452351093,0.102788552642,1582908092.54,0
2020/02/28/11:32:50.314226,24130,1582911170,314139056,vectornav,1266946388.3,2094,33542,2.06058883667,-0.740712285042,5.66825675964,30.6724201717,-96.3725157221,88.3331396598,0.00733481347561,0.0104159200564,0.127873390913,0.311607122421,0.069277741015,0.069253474474,0.764452815056,0.103086821735,1582908092.54,0
2020/02/28/11:32:50.334194,24131,1582911170,334137605,vectornav,1266946388.32,2094,33542,2.06011295319,-0.740643501282,5.66802787781,30.6724201082,-96.3725157211,88.352211727,0.00565679743886,0.0111178075895,0.124870024621,0.311692237854,0.0686454251409,0.0686208605766,0.757575273514,0.100908897817,1582908092.54,0
2020/02/28/11:32:50.354200,24132,1582911170,354101744,vectornav,1266946388.34,2094,33542,2.06230545044,-0.741214334965,5.66759872437,30.6724201097,-96.3725157186,88.3497124292,0.00641853734851,0.0116247860715,0.124862715602,0.311777770519,0.0687282010913,0.0687036886811,0.758546710014,0.101204819977,1582908092.54,0
2020/02/28/11:32:50.374265,24133,1582911170,374176212,vectornav,1266946388.36,2094,774,2.0616350174,-0.740991353989,5.66706466675,30.6724201112,-96.3725157164,88.3472032726,0.0118410922587,0.0121173933148,0.125740304589,0.311155945063,0.0688109844923,0.0687864050269,0.759522795677,0.101501382887,1582908092.54,0
2020/02/28/11:32:50.394166,24134,1582911170,394077671,vectornav,1266946388.38,2094,774,2.06507301331,-0.738983929157,5.66738796234,30.6724201138,-96.3725157137,88.3446888642,0.0184046179056,0.0137708587572,0.124846354127,0.311241328716,0.0688937231898,0.0688692033291,0.760503530502,0.101797796786,1582908092.54,0
2020/02/28/11:32:50.414217,24135,1582911170,414087991,vectornav,1266946388.4,2094,774,2.06393814087,-0.734896957874,5.66652441025,30.6724201177,-96.3725157106,88.3422204265,0.0263538435102,0.014615396969,0.12300362438,0.311326682568,0.068976432085,0.0689519867301,0.761489033699,0.102096609771,1582908092.54,0
2020/02/28/11:32:50.434209,24136,1582911170,434143555,vectornav,1266946388.42,2094,33542,2.06341481209,-0.728923916817,5.66642808914,30.6724201232,-96.3725157078,88.3397494001,0.0328944995999,0.0148008856922,0.124453127384,0.311412066221,0.0690591409802,0.0690347254276,0.762479245663,0.102394491434,1582908092.54,0
2020/02/28/11:32:50.454195,24137,1582911170,454122410,vectornav,1266946388.44,2094,33542,2.06563067436,-0.724526762962,5.66605234146,30.6724201296,-96.3725157042,88.337251651,0.0369072258472,0.0155887212604,0.127658233047,0.311497479677,0.0691418200731,0.0691174566746,0.763474166393,0.102690070868,1582908092.54,0
2020/02/28/11:32:50.474149,24138,1582911170,474073720,vectornav,1266946388.46,2094,774,2.06610631943,-0.724787294865,5.66570329666,30.6724201364,-96.3725157014,88.3346348725,0.0383762568235,0.0153304934502,0.132293954492,0.311582922935,0.0692244842649,0.0692001730204,0.764473974705,0.102985098958,1582908092.54,0
2020/02/28/11:32:50.494209,24139,1582911170,494108706,vectornav,1266946388.48,2094,774,2.0676214695,-0.728194415569,5.66577100754,30.6724201432,-96.372515698,88.3319529657,0.0375938937068,0.0154186729342,0.135273188353,0.311668395996,0.0693071484566,0.0692828521132,0.765478491783,0.103279970586,1582908092.54,0
2020/02/28/11:32:50.514167,24140,1582911170,514073937,vectornav,1266946388.5,2094,774,2.07200789452,-0.733204126358,5.66592741013,30.6724201499,-96.3725156948,88.3292355004,0.0364068001509,0.0157953538001,0.135098457336,0.311753839254,0.069389782846,0.0693655237556,0.766487896442,0.103576876223,1582908092.54,0
2020/02/28/11:32:50.534180,24141,1582911170,534060952,vectornav,1266946388.52,2094,33542,2.07387781143,-0.737997353077,5.66626834869,30.672420052,-96.3725157509,88.3492421294,0.0339198559523,0.0139388488606,0.13001050055,0.311838805676,0.0686047077179,0.0685800388455,0.758932232857,0.100899107754,1582908092.54,0
2020/02/28/11:32:50.554199,24142,1582911170,554118616,vectornav,1266946388.54,2094,33542,2.07496333122,-0.741442799568,5.66755104065,30.6724200584,-96.3725157477,88.3467068102,0.0378341451287,0.0152777973562,0.126101866364,0.311924308538,0.0686874836683,0.0686628893018,0.759905457497,0.101197145879,1582908092.54,0
2020/02/28/11:32:50.574226,24143,1582911170,574145174,vectornav,1266946388.56,2094,774,2.07367253304,-0.740617513657,5.66875886917,30.672420066,-96.3725157452,88.3442354011,0.0439224205911,0.0161612480879,0.121600084007,0.311301410198,0.0687702596188,0.068745598197,0.760883271694,0.101496584713,1582908092.54,0
2020/02/28/11:32:50.594154,24144,1582911170,594060773,vectornav,1266946388.58,2094,774,2.07110667229,-0.73594635725,5.66972875595,30.6724200743,-96.3725157417,88.3418241708,0.0517214648426,0.016843508929,0.118694283068,0.311386823654,0.0688529983163,0.0688283741474,0.761865854263,0.10179644078,1582908092.54,0
2020/02/28/11:32:50.614168,24145,1582911170,614033835,vectornav,1266946388.6,2094,774,2.06639528275,-0.728709876537,5.67025518417,30.6724200843,-96.3725157379,88.3394596156,0.0593870133162,0.0171863455325,0.118123926222,0.311472207308,0.0689357295632,0.0689111202955,0.76285302639,0.102094851434,1582908092.54,0
2020/02/28/11:32:50.634154,24146,1582911170,634058587,vectornav,1266946388.62,2094,33542,2.06368041039,-0.720975041389,5.67013692856,30.6724200956,-96.3725157342,88.3370724796,0.0658934488893,0.0171858631074,0.120973013341,0.311557620764,0.0690184384584,0.068993896246,0.763845026493,0.102390870452,1582908092.54,0
2020/02/28/11:32:50.654087,24147,1582911170,654012449,vectornav,1266946388.64,2094,33542,2.06221914291,-0.716606318951,5.67050600052,30.6724201079,-96.3725157307,88.3346055782,0.0695494636893,0.0165629088879,0.126172155142,0.31164303422,0.0691011175513,0.0690766721964,0.764841675758,0.102685160935,1582908092.54,0
2020/02/28/11:32:50.674103,24148,1582911170,674040438,vectornav,1266946388.66,2094,33542,2.0625398159,-0.715164899826,5.67051506042,30.6724201205,-96.372515727,88.3320585691,0.0717648416758,0.0163165088743,0.131438612938,0.311728447676,0.069183781743,0.0691593661904,0.765843093395,0.102978810668,1582908092.54,0
2020/02/28/11:32:50.694255,24149,1582911170,694069875,vectornav,1266946388.68,2094,774,2.06474876404,-0.717838168144,5.66954803467,30.6724201339,-96.3725157244,88.3293747177,0.0736758485436,0.016431119293,0.135218515992,0.311813831329,0.0692664384842,0.0692420676351,0.766849339008,0.10327257216,1582908092.54,0
2020/02/28/11:32:50.714087,24150,1582911170,713999676,vectornav,1266946388.7,2094,774,2.06706047058,-0.723380088806,5.66787528992,30.6724201475,-96.3725157208,88.3266397575,0.0762540176511,0.0174304265529,0.136670306325,0.311899363995,0.0693490803242,0.0693247392774,0.767860293388,0.103568434715,1582908092.54,0
2020/02/28/11:32:50.734066,24151,1582911170,733982689,vectornav,1266946388.72,2094,33542,2.06692028046,-0.729069054127,5.66662836075,30.6724200372,-96.3725157776,88.3423565549,0.0765546411276,0.0168028101325,0.132444173098,0.311983734369,0.0685547813773,0.0685300081968,0.760212779045,0.100850537419,1582908092.54,0
2020/02/28/11:32:50.754051,24152,1582911170,753984905,vectornav,1266946388.74,2094,33542,2.06523895264,-0.732222676277,5.66563558578,30.6724200511,-96.3725157741,88.3397537161,0.0832898765802,0.0191958229989,0.129056990147,0.312069237232,0.0686375647783,0.0686128288507,0.761186957359,0.101147688925,1582908092.54,0
2020/02/28/11:32:50.774263,24153,1582911170,774176419,vectornav,1266946388.76,2094,33542,2.06147909164,-0.732098519802,5.66531229019,30.6724200668,-96.3725157696,88.3372146087,0.0917128324509,0.0213853325695,0.125287085772,0.311445146799,0.068720318377,0.0686955600977,0.762165784836,0.101446770132,1582908092.54,0
2020/02/28/11:32:50.794056,24154,1582911170,793988824,vectornav,1266946388.78,2094,774,2.05671429634,-0.728030145168,5.66572904587,30.6724200845,-96.3725157653,88.3347359565,0.100005760789,0.0227217879146,0.12217245996,0.311530530453,0.0688030645251,0.0687783434987,0.763149261475,0.101745963097,1582908092.54,0
2020/02/28/11:32:50.814046,24155,1582911170,813973875,vectornav,1266946388.8,2094,774,2.05300450325,-0.721994817257,5.66600179672,30.6724201031,-96.3725157604,88.3323043879,0.10740608722,0.0232244860381,0.121276885271,0.311615884304,0.0688857808709,0.068861104548,0.76413744688,0.102044120431,1582908092.54,0
2020/02/28/11:32:50.834057,24156,1582911170,833982103,vectornav,1266946388.82,2094,774,2.05096173286,-0.716735720634,5.66660022736,30.6724201231,-96.3725157559,88.3298757554,0.113591887057,0.0231758393347,0.122875079513,0.311701267958,0.0689684972167,0.0689438357949,0.765130341053,0.10234066844,1582908092.54,0
2020/02/28/11:32:50.854047,24157,1582911170,853974123,vectornav,1266946388.84,2094,33542,2.05190181732,-0.713277220726,5.66671895981,30.672420144,-96.3725157507,88.3273821541,0.118216648698,0.022623218596,0.12590572238,0.311786711216,0.0690511837602,0.0690265893936,0.766127884388,0.102636039257,1582908092.54,0
2020/02/28/11:32:50.874076,24158,1582911170,873967771,vectornav,1266946388.86,2094,33542,2.05493283272,-0.712142944336,5.6665186882,30.6724201657,-96.372515746,88.3248318128,0.122122898698,0.022685021162,0.128917247057,0.311872065067,0.0691338405013,0.06910931319,0.767130196095,0.102930665016,1582908092.54,0
2020/02/28/11:32:50.894129,24159,1582911170,894032777,vectornav,1266946388.88,2094,774,2.05862951279,-0.713279128075,5.66604137421,30.6724201882,-96.3725157413,88.3222294333,0.126944854856,0.0234702136368,0.131332620978,0.311957448721,0.0692164897919,0.0691919848323,0.768137335777,0.103226199746,1582908092.54,0
2020/02/28/11:32:50.914024,24160,1582911170,913967215,vectornav,1266946388.9,2094,774,2.06211328506,-0.715864121914,5.66651058197,30.6724202114,-96.3725157362,88.319599263,0.132826030254,0.0247388705611,0.131826192141,0.312042891979,0.0692991241813,0.0692746415734,0.769149124622,0.103522889316,1582908092.54,0
2020/02/28/11:32:50.934036,24161,1582911170,933946631,vectornav,1266946388.92,2094,774,2.06366014481,-0.717463493347,5.66678667068,30.6724201973,-96.3725156928,88.3364634101,0.139537274837,0.028157312423,0.127735137939,0.312125176191,0.0680819377303,0.0680568814278,0.759567022324,0.0993641838431,1582908092.54,0
2020/02/28/11:32:50.954062,24162,1582911170,953925503,vectornav,1266946388.94,2094,33542,2.06258225441,-0.717206895351,5.66689157486,30.6724202237,-96.3725156866,88.3339138294,0.148264810443,0.0299932733178,0.126168936491,0.31221061945,0.0681648030877,0.068139821291,0.760521829128,0.0996591895819,1582908092.54,0
2020/02/28/11:32:50.974022,24163,1582911170,973935106,vectornav,1266946388.96,2094,33542,2.05930399895,-0.715441644192,5.6660656929,30.6724202506,-96.37251568,88.3314157326,0.156708598137,0.0318079143763,0.124374642968,0.311585754156,0.0682476758957,0.068222604692,0.761481165886,0.0999547615647,1582908092.54,0
2020/02/28/11:32:50.994103,24164,1582911170,994006481,vectornav,1266946388.98,2094,33542,2.0547349453,-0.71250140667,5.66588544846,30.6724202801,-96.3725156733,88.3289303018,0.164808243513,0.0324690416455,0.123451188207,0.311671078205,0.0683305040002,0.0683054551482,0.762444972992,0.100250445306,1582908092.54,0
2020/02/28/11:32:51.014046,24165,1582911171,13929738,vectornav,1266946389.0,2094,774,2.05113077164,-0.710643708706,5.666056633,30.6724203104,-96.3725156665,88.3264555691,0.171714186668,0.0326051451266,0.124014131725,0.311756491661,0.0684133395553,0.0683883503079,0.763413310051,0.100545287132,1582908092.54,0
2020/02/28/11:32:51.034018,24166,1582911171,33894612,vectornav,1266946389.02,2094,774,2.04943108559,-0.708332061768,5.66569519043,30.6724203419,-96.3725156598,88.3239602318,0.177738383412,0.0317477509379,0.125636711717,0.311841905117,0.0684961602092,0.0684712082148,0.764386177063,0.100839532912,1582908092.54,0
2020/02/28/11:32:51.054017,24167,1582911171,53924786,vectornav,1266946389.04,2094,33542,2.04858231544,-0.707803487778,5.66582250595,30.672420375,-96.3725156533,88.3214778851,0.183720141649,0.0313959270716,0.127795159817,0.311927318573,0.0685789436102,0.0685540512204,0.765363693237,0.101133406162,1582908092.54,0
2020/02/28/11:32:51.074015,24168,1582911171,73937989,vectornav,1266946389.06,2094,33542,2.04872202873,-0.708989202976,5.66515493393,30.6724204079,-96.3725156473,88.3189451841,0.189560994506,0.0313539244235,0.129528522491,0.312012761831,0.0686617195606,0.0686368569732,0.766345739365,0.101427309215,1582908092.54,0
2020/02/28/11:32:51.094047,24169,1582911171,93957857,vectornav,1266946389.08,2094,33542,2.05000805855,-0.711418449879,5.66443395615,30.6724204431,-96.3725156408,88.3162841,0.196390092373,0.032138556242,0.131234407425,0.31209820509,0.0687444657087,0.0687196403742,0.76733237505,0.101721644402,1582908092.54,0
2020/02/28/11:32:51.113967,24170,1582911171,113891565,vectornav,1266946389.1,2094,774,2.04947400093,-0.713208556175,5.6641497612,30.6724204791,-96.3725156337,88.3136112377,0.204719722271,0.0334061831236,0.132128536701,0.312183618546,0.0688271820545,0.068802408874,0.76832395792,0.102017045021,1582908092.54,0
2020/02/28/11:32:51.133956,24171,1582911171,133894493,vectornav,1266946389.12,2094,774,2.04769778252,-0.713169813156,5.66437911987,30.6724205197,-96.3725154886,88.3400439349,0.214785411954,0.040009714663,0.12712725997,0.312261223793,0.0673177316785,0.0672922953963,0.757196843624,0.0967487469316,1582908092.54,0
2020/02/28/11:32:51.153961,24172,1582911171,153892292,vectornav,1266946389.14,2094,33542,2.04466414452,-0.712030589581,5.66454982758,30.6724205594,-96.3725154804,88.3375182339,0.223713859916,0.0411379672587,0.126262962818,0.312346726656,0.0674007982016,0.0673754066229,0.758115649223,0.0970408320427,1582908092.54,0
2020/02/28/11:32:51.173983,24173,1582911171,173899898,vectornav,1266946389.16,2094,33542,2.0410490036,-0.709390759468,5.66425991058,30.6724206,-96.3725154715,88.3350015975,0.231964349747,0.0421582609415,0.125282227993,0.311721026897,0.0674838349223,0.0674584060907,0.759038746357,0.0973331108689,1582908092.54,0
2020/02/28/11:32:51.193981,24174,1582911171,193882363,vectornav,1266946389.18,2094,33542,2.03722023964,-0.706433713436,5.66432142258,30.6724206428,-96.3725154628,88.3324950851,0.239110171795,0.0427175834775,0.124975994229,0.311806350946,0.0675668492913,0.0675414949656,0.759966015816,0.0976255610585,1582908092.54,0
2020/02/28/11:32:51.213934,24175,1582911171,213865198,vectornav,1266946389.2,2094,774,2.03436732292,-0.703767240047,5.66429853439,30.6724206861,-96.3725154535,88.330018968,0.24603395164,0.0432772710919,0.125179335475,0.311891764402,0.0676498487592,0.0676245167851,0.760897696018,0.0979176908731,1582908092.54,0
2020/02/28/11:32:51.233913,24176,1582911171,233842693,vectornav,1266946389.22,2094,774,2.02998423576,-0.701272428036,5.6638212204,30.6724207313,-96.3725154447,88.3274915623,0.252769589424,0.043926410377,0.125618964434,0.311977207661,0.0677328407764,0.0677075237036,0.761833667755,0.098209887743,1582908092.54,0
2020/02/28/11:32:51.253906,24177,1582911171,253839816,vectornav,1266946389.24,2094,774,2.02637386322,-0.700159907341,5.66288328171,30.6724207776,-96.3725154355,88.3249711377,0.259620815516,0.0447763726115,0.126268714666,0.312062561512,0.0678157806396,0.067790530622,0.762773990631,0.0985021591187,1582908092.54,0
2020/02/28/11:32:51.273904,24178,1582911171,273815763,vectornav,1266946389.26,2094,33542,2.02309894562,-0.699334383011,5.66239213943,30.6724208251,-96.3725154261,88.3224340371,0.267496317625,0.0457699224353,0.127421617508,0.312147945166,0.0678987130523,0.0678735226393,0.763718605042,0.0987944528461,1582908092.54,0
2020/02/28/11:32:51.293883,24179,1582911171,293810560,vectornav,1266946389.28,2094,33542,2.01872611046,-0.699653148651,5.66123199463,30.6724208738,-96.3725154168,88.3199622225,0.275997638702,0.0466794222593,0.128988474607,0.312233358622,0.067981608212,0.0679564848542,0.764667630196,0.0990867838264,1582908092.54,0
2020/02/28/11:32:51.314029,24180,1582911171,313895765,vectornav,1266946389.3,2094,774,2.01469731331,-0.699898123741,5.66111087799,30.6724209247,-96.3725154067,88.3172815875,0.285166114569,0.0478137806058,0.129991620779,0.312318831682,0.0680645257235,0.0680394023657,0.765621244907,0.0993797853589,1582908092.54,0
2020/02/28/11:32:51.333890,24181,1582911171,333812072,vectornav,1266946389.32,2094,774,2.01344871521,-0.700524389744,5.66139602661,30.6724210139,-96.3725155502,88.3463023411,0.296824634075,0.0430518239737,0.125177204609,0.312392681837,0.0668163299561,0.0667906776071,0.755451202393,0.0948784947395,1582908092.54,0
2020/02/28/11:32:51.353936,24182,1582911171,353865434,vectornav,1266946389.34,2094,774,2.01334381104,-0.700811624527,5.66188621521,30.6724210675,-96.3725155413,88.3437858176,0.305764228106,0.0444316193461,0.126205801964,0.3124781847,0.0668995082378,0.0668739080429,0.756343007088,0.0951683744788,1582908092.54,0
2020/02/28/11:32:51.373918,24183,1582911171,373849247,vectornav,1266946389.36,2094,33542,2.01314282417,-0.700771510601,5.66185331345,30.6724211238,-96.3725155321,88.3412475996,0.314111471176,0.0460841245949,0.125593557954,0.311851322651,0.0669826716185,0.0669570341706,0.757238805294,0.0954585373402,1582908092.54,0
