time,.header.seq,.header.stamp.secs,.header.stamp.nsecs,.header.frame_id,.status.status,.status.service,.latitude,.longitude,.altitude,.position_covariance,.position_covariance_type
2020/02/28/11:32:47.615121,23989,0,0,,0,0,30.672420485,-96.3725153037,88.4090237049,"(0.0, 0.7371655702590942, 0.0, 0.0, 0.0, 0.0, 0.0, 0.0, 0.0)",0
2020/02/28/11:32:47.634121,23990,0,0,,0,0,30.6724204863,-96.3725153021,88.4069084026,"(0.0, 0.7380427718162537, 0.0, 0.0, 0.0, 0.0, 0.0, 0.0, 0.0)",0
2020/02/28/11:32:47.654272,23991,0,0,,0,0,30.6724204873,-96.3725153009,88.4048201971,"(0.0, 0.7389243245124817, 0.0, 0.0, 0.0, 0.0, 0.0, 0.0, 0.0)",0
2020/02/28/11:32:47.674078,23992,0,0,,0,0,30.6724204877,-96.3725153003,88.4027252533,"(0.0, 0.7398101091384888, 0.0, 0.0, 0.0, 0.0, 0.0, 0.0, 0.0)",0
2020/02/28/11:32:47.694161,23993,0,0,,0,0,30.6724204891,-96.3725152983,88.400642777,"(0.0, 0.7407001852989197, 0.0, 0.0, 0.0, 0.0, 0.0, 0.0, 0.0)",0
2020/02/28/11:32:47.714180,23994,0,0,,0,0,30.6724204895,-96.3725152975,88.3985735247,"(0.0, 0.7415947318077087, 0.0, 0.0, 0.0, 0.0, 0.0, 0.0, 0.0)",0
2020/02/28/11:32:47.734132,23995,0,0,,0,0,30.6724204835,-96.3725153971,88.4100332353,"(0.0, 0.7355402708053589, 0.0, 0.0, 0.0, 0.0, 0.0, 0.0, 0.0)",0
2020/02/28/11:32:47.754108,23996,0,0,,0,0,30.6724204849,-96.3725153966,88.407932742,"(0.0, 0.7364129424095154, 0.0, 0.0, 0.0, 0.0, 0.0, 0.0, 0.0)",0
2020/02/28/11:32:47.774031,23997,0,0,,0,0,30.6724204855,-96.3725153959,88.4057841887,"(0.0, 0.7372897267341614, 0.0, 0.0, 0.0, 0.0, 0.0, 0.0, 0.0)",0
2020/02/28/11:32:47.794061,23998,0,0,,0,0,30.6724204866,-96.3725153947,88.4037562876,"(0.0, 0.738170862197876, 0.0, 0.0, 0.0, 0.0, 0.0, 0.0, 0.0)",0
2020/02/28/11:32:47.814109,23999,0,0,,0,0,30.6724204876,-96.3725153937,88.4014984016,"(0.0, 0.7390562295913696, 0.0, 0.0, 0.0, 0.0, 0.0, 0.0, 0.0)",0
2020/02/28/11:32:47.834099,24000,0,0,,0,0,30.6724204897,-96.372515393,88.3993654293,"(0.0, 0.7399460673332214, 0.0, 0.0, 0.0, 0.0, 0.0, 0.0, 0.0)",0
2020/02/28/11:32:47.854029,24001,0,0,,0,0,30.6724204907,-96.3725153914,88.3972107209,"(0.0, 0.7408401966094971, 0.0, 0.0, 0.0, 0.0, 0.0, 0.0, 0.0)",0
2020/02/28/11:32:47.874070,24002,0,0,,0,0,30.6724204916,-96.372515391,88.3949712517,"(0.0, 0.7417386770248413, 0.0, 0.0, 0.0, 0.0, 0.0, 0.0, 0.0)",0
2020/02/28/11:32:47.893993,24003,0,0,,0,0,30.6724204924,-96.3725153899,88.3928288664,"(0.0, 0.7426416873931885, 0.0, 0.0, 0.0, 0.0, 0.0, 0.0, 0.0)",0
2020/02/28/11:32:47.913994,24004,0,0,,0,0,30.6724204939,-96.3725153895,88.3906727085,"(0.0, 0.743549108505249, 0.0, 0.0, 0.0, 0.0, 0.0, 0.0, 0.0)",0
2020/02/28/11:32:47.934014,24005,0,0,,0,0,30.6724204678,-96.372515489,88.4082045688,"(0.0, 0.7368478178977966, 0.0, 0.0, 0.0, 0.0, 0.0, 0.0, 0.0)",0
2020/02/28/11:32:47.954123,24006,0,0,,0,0,30.6724204693,-96.3725154888,88.4059891572,"(0.0, 0.7377262711524963, 0.0, 0.0, 0.0, 0.0, 0.0, 0.0, 0.0)",0
2020/02/28/11:32:47.974043,24007,0,0,,0,0,30.6724204699,-96.3725154881,88.4039033294,"(0.0, 0.7386090159416199, 0.0, 0.0, 0.0, 0.0, 0.0, 0.0, 0.0)",0
2020/02/28/11:32:47.994185,24008,0,0,,0,0,30.6724204714,-96.3725154875,88.4016124754,"(0.0, 0.7394961714744568, 0.0, 0.0, 0.0, 0.0, 0.0, 0.0, 0.0)",0
2020/02/28/11:32:48.014288,24009,0,0,,0,0,30.6724204724,-96.3725154869,88.3994645862,"(0.0, 0.7403876185417175, 0.0, 0.0, 0.0, 0.0, 0.0, 0.0, 0.0)",0
2020/02/28/11:32:48.033988,24010,0,0,,0,0,30.6724204739,-96.3725154862,88.3973237774,"(0.0, 0.7412834763526917, 0.0, 0.0, 0.0, 0.0, 0.0, 0.0, 0.0)",0
2020/02/28/11:32:48.053999,24011,0,0,,0,0,30.6724204756,-96.3725154855,88.3950418537,"(0.0, 0.7421836256980896, 0.0, 0.0, 0.0, 0.0, 0.0, 0.0, 0.0)",0
2020/02/28/11:32:48.074008,24012,0,0,,0,0,30.6724204772,-96.372515485,88.3928288883,"(0.0, 0.7430882453918457, 0.0, 0.0, 0.0, 0.0, 0.0, 0.0, 0.0)",0
2020/02/28/11:32:48.094097,24013,0,0,,0,0,30.6724204791,-96.3725154842,88.3906153838,"(0.0, 0.7439972758293152, 0.0, 0.0, 0.0, 0.0, 0.0, 0.0, 0.0)",0
2020/02/28/11:32:48.114020,24014,0,0,,0,0,30.6724204805,-96.372515483,88.3883842257,"(0.0, 0.744910717010498, 0.0, 0.0, 0.0, 0.0, 0.0, 0.0, 0.0)",0
2020/02/28/11:32:48.133938,24015,0,0,,0,0,30.6724204819,-96.3725154818,88.3862104351,"(0.0, 0.7458288073539734, 0.0, 0.0, 0.0, 0.0, 0.0, 0.0, 0.0)",0
2020/02/28/11:32:48.153914,24016,0,0,,0,0,30.6724204777,-96.3725155279,88.3955213255,"(0.0, 0.7396664619445801, 0.0, 0.0, 0.0, 0.0, 0.0, 0.0, 0.0)",0
2020/02/28/11:32:48.173906,24017,0,0,,0,0,30.6724204798,-96.3725155278,88.3932157361,"(0.0, 0.7405617237091064, 0.0, 0.0, 0.0, 0.0, 0.0, 0.0, 0.0)",0
2020/02/28/11:32:48.193981,24018,0,0,,0,0,30.6724204817,-96.3725155278,88.3910635858,"(0.0, 0.7414613366127014, 0.0, 0.0, 0.0, 0.0, 0.0, 0.0, 0.0)",0
2020/02/28/11:32:48.214026,24019,0,0,,0,0,30.6724204835,-96.372515527,88.3887096979,"(0.0, 0.7423655390739441, 0.0, 0.0, 0.0, 0.0, 0.0, 0.0, 0.0)",0
2020/02/28/11:32:48.233892,24020,0,0,,0,0,30.6724204854,-96.372515527,88.3864869281,"(0.0, 0.7432738542556763, 0.0, 0.0, 0.0, 0.0, 0.0, 0.0, 0.0)",0
2020/02/28/11:32:48.254018,24021,0,0,,0,0,30.6724204869,-96.3725155259,88.3841607836,"(0.0, 0.7441866993904114, 0.0, 0.0, 0.0, 0.0, 0.0, 0.0, 0.0)",0
2020/02/28/11:32:48.273892,24022,0,0,,0,0,30.6724204887,-96.3725155256,88.3819516641,"(0.0, 0.7451041340827942, 0.0, 0.0, 0.0, 0.0, 0.0, 0.0, 0.0)",0
2020/02/28/11:32:48.293906,24023,0,0,,0,0,30.6724204907,-96.3725155237,88.3796251348,"(0.0, 0.7460260391235352, 0.0, 0.0, 0.0, 0.0, 0.0, 0.0, 0.0)",0
2020/02/28/11:32:48.314090,24024,0,0,,0,0,30.6724204924,-96.3725155232,88.3772976964,"(0.0, 0.746952474117279, 0.0, 0.0, 0.0, 0.0, 0.0, 0.0, 0.0)",0
2020/02/28/11:32:48.334962,24025,0,0,,0,0,30.6724204746,-96.3725155989,88.3856653034,"(0.0, 0.7407013177871704, 0.0, 0.0, 0.0, 0.0, 0.0, 0.0, 0.0)",0
2020/02/28/11:32:48.353999,24026,0,0,,0,0,30.6724204767,-96.3725155984,88.3833398537,"(0.0, 0.7416038513183594, 0.0, 0.0, 0.0, 0.0, 0.0, 0.0, 0.0)",0
2020/02/28/11:32:48.373927,24027,0,0,,0,0,30.6724204788,-96.3725155975,88.381017234,"(0.0, 0.7425107359886169, 0.0, 0.0, 0.0, 0.0, 0.0, 0.0, 0.0)",0
2020/02/28/11:32:48.393879,24028,0,0,,0,0,30.6724204809,-96.3725155974,88.37872327,"(0.0, 0.7434222102165222, 0.0, 0.0, 0.0, 0.0, 0.0, 0.0, 0.0)",0
2020/02/28/11:32:48.413954,24029,0,0,,0,0,30.6724204826,-96.3725155967,88.3763757965,"(0.0, 0.7443380951881409, 0.0, 0.0, 0.0, 0.0, 0.0, 0.0, 0.0)",0
2020/02/28/11:32:48.433828,24030,0,0,,0,0,30.6724204847,-96.372515596,88.3740417574,"(0.0, 0.7452585697174072, 0.0, 0.0, 0.0, 0.0, 0.0, 0.0, 0.0)",0
2020/02/28/11:32:48.454860,24031,0,0,,0,0,30.6724204864,-96.3725155955,88.3716973198,"(0.0, 0.7461835145950317, 0.0, 0.0, 0.0, 0.0, 0.0, 0.0, 0.0)",0
2020/02/28/11:32:48.474854,24032,0,0,,0,0,30.6724204881,-96.3725155941,88.3694357753,"(0.0, 0.747113049030304, 0.0, 0.0, 0.0, 0.0, 0.0, 0.0, 0.0)",0
2020/02/28/11:32:48.493881,24033,0,0,,0,0,30.6724204901,-96.3725155933,88.3670599793,"(0.0, 0.7480471134185791, 0.0, 0.0, 0.0, 0.0, 0.0, 0.0, 0.0)",0
2020/02/28/11:32:48.514858,24034,0,0,,0,0,30.6724204922,-96.3725155934,88.3646119422,"(0.0, 0.748985767364502, 0.0, 0.0, 0.0, 0.0, 0.0, 0.0, 0.0)",0
2020/02/28/11:32:48.535075,24035,0,0,,0,0,30.6724204896,-96.3725155796,88.3737051836,"(0.0, 0.7424903512001038, 0.0, 0.0, 0.0, 0.0, 0.0, 0.0, 0.0)",0
2020/02/28/11:32:48.554894,24036,0,0,,0,0,30.6724204913,-96.3725155793,88.3714032788,"(0.0, 0.7434024810791016, 0.0, 0.0, 0.0, 0.0, 0.0, 0.0, 0.0)",0
2020/02/28/11:32:48.574841,24037,0,0,,0,0,30.6724204935,-96.3725155783,88.3690136704,"(0.0, 0.7443192005157471, 0.0, 0.0, 0.0, 0.0, 0.0, 0.0, 0.0)",0
2020/02/28/11:32:48.594838,24038,0,0,,0,0,30.6724204964,-96.3725155773,88.3666599867,"(0.0, 0.7452403903007507, 0.0, 0.0, 0.0, 0.0, 0.0, 0.0, 0.0)",0
2020/02/28/11:32:48.614860,24039,0,0,,0,0,30.6724204985,-96.3725155758,88.3641524924,"(0.0, 0.7461662292480469, 0.0, 0.0, 0.0, 0.0, 0.0, 0.0, 0.0)",0
2020/02/28/11:32:48.634899,24040,0,0,,0,0,30.672420501,-96.3725155756,88.3617720528,"(0.0, 0.7470963001251221, 0.0, 0.0, 0.0, 0.0, 0.0, 0.0, 0.0)",0
2020/02/28/11:32:48.654832,24041,0,0,,0,0,30.6724205036,-96.372515574,88.3593502457,"(0.0, 0.7480311989784241, 0.0, 0.0, 0.0, 0.0, 0.0, 0.0, 0.0)",0
2020/02/28/11:32:48.674855,24042,0,0,,0,0,30.6724205061,-96.3725155731,88.356985847,"(0.0, 0.7489705681800842, 0.0, 0.0, 0.0, 0.0, 0.0, 0.0, 0.0)",0
2020/02/28/11:32:48.694780,24043,0,0,,0,0,30.6724205081,-96.3725155719,88.3546349877,"(0.0, 0.7499146461486816, 0.0, 0.0, 0.0, 0.0, 0.0, 0.0, 0.0)",0
2020/02/28/11:32:48.714757,24044,0,0,,0,0,30.6724205103,-96.3725155717,88.3522118847,"(0.0, 0.7508633136749268, 0.0, 0.0, 0.0, 0.0, 0.0, 0.0, 0.0)",0
2020/02/28/11:32:48.734760,24045,0,0,,0,0,30.6724205126,-96.3725155696,88.3496549026,"(0.0, 0.7515780329704285, 0.0, 0.0, 0.0, 0.0, 0.0, 0.0, 0.0)",0
2020/02/28/11:32:48.754757,24046,0,0,,0,0,30.6724205032,-96.3725156223,88.3627191287,"(0.0, 0.745289146900177, 0.0, 0.0, 0.0, 0.0, 0.0, 0.0, 0.0)",0
2020/02/28/11:32:48.774830,24047,0,0,,0,0,30.6724205057,-96.3725156207,88.3603025217,"(0.0, 0.7462159991264343, 0.0, 0.0, 0.0, 0.0, 0.0, 0.0, 0.0)",0
2020/02/28/11:32:48.794800,24048,0,0,,0,0,30.6724205084,-96.3725156195,88.3579077083,"(0.0, 0.7471473217010498, 0.0, 0.0, 0.0, 0.0, 0.0, 0.0, 0.0)",0
2020/02/28/11:32:48.814754,24049,0,0,,0,0,30.6724205109,-96.3725156198,88.3554913569,"(0.0, 0.7480832934379578, 0.0, 0.0, 0.0, 0.0, 0.0, 0.0, 0.0)",0
2020/02/28/11:32:48.834755,24050,0,0,,0,0,30.6724205135,-96.3725156183,88.3531060279,"(0.0, 0.7490238547325134, 0.0, 0.0, 0.0, 0.0, 0.0, 0.0, 0.0)",0
2020/02/28/11:32:48.854761,24051,0,0,,0,0,30.6724205159,-96.3725156173,88.350549009,"(0.0, 0.7499690055847168, 0.0, 0.0, 0.0, 0.0, 0.0, 0.0, 0.0)",0
2020/02/28/11:32:48.874794,24052,0,0,,0,0,30.6724205182,-96.3725156167,88.3481351595,"(0.0, 0.7509188652038574, 0.0, 0.0, 0.0, 0.0, 0.0, 0.0, 0.0)",0
2020/02/28/11:32:48.894708,24053,0,0,,0,0,30.6724205209,-96.3725156158,88.3457250715,"(0.0, 0.7518733143806458, 0.0, 0.0, 0.0, 0.0, 0.0, 0.0, 0.0)",0
2020/02/28/11:32:48.914770,24054,0,0,,0,0,30.672420523,-96.3725156149,88.3434074505,"(0.0, 0.7528324723243713, 0.0, 0.0, 0.0, 0.0, 0.0, 0.0, 0.0)",0
2020/02/28/11:32:48.934702,24055,0,0,,0,0,30.6724205256,-96.3725156129,88.3408293929,"(0.0, 0.7535549402236938, 0.0, 0.0, 0.0, 0.0, 0.0, 0.0, 0.0)",0
2020/02/28/11:32:48.954748,24056,0,0,,0,0,30.6724204381,-96.3725155902,88.3609653873,"(0.0, 0.746141254901886, 0.0, 0.0, 0.0, 0.0, 0.0, 0.0, 0.0)",0
2020/02/28/11:32:48.974748,24057,0,0,,0,0,30.6724204394,-96.3725155892,88.3585342114,"(0.0, 0.7470663785934448, 0.0, 0.0, 0.0, 0.0, 0.0, 0.0, 0.0)",0
2020/02/28/11:32:48.994683,24058,0,0,,0,0,30.6724204406,-96.3725155878,88.3561090321,"(0.0, 0.7479959726333618, 0.0, 0.0, 0.0, 0.0, 0.0, 0.0, 0.0)",0
2020/02/28/11:32:49.014810,24059,0,0,,0,0,30.6724204427,-96.3725155853,88.3536686721,"(0.0, 0.7489301562309265, 0.0, 0.0, 0.0, 0.0, 0.0, 0.0, 0.0)",0
2020/02/28/11:32:49.034754,24060,0,0,,0,0,30.6724204444,-96.3725155848,88.3512203185,"(0.0, 0.7498688697814941, 0.0, 0.0, 0.0, 0.0, 0.0, 0.0, 0.0)",0
2020/02/28/11:32:49.054839,24061,0,0,,0,0,30.6724204461,-96.3725155826,88.3486496567,"(0.0, 0.7508122324943542, 0.0, 0.0, 0.0, 0.0, 0.0, 0.0, 0.0)",0
2020/02/28/11:32:49.074750,24062,0,0,,0,0,30.672420448,-96.3725155814,88.3461896565,"(0.0, 0.7517601847648621, 0.0, 0.0, 0.0, 0.0, 0.0, 0.0, 0.0)",0
2020/02/28/11:32:49.094691,24063,0,0,,0,0,30.6724204503,-96.3725155792,88.3436988221,"(0.0, 0.7527127265930176, 0.0, 0.0, 0.0, 0.0, 0.0, 0.0, 0.0)",0
2020/02/28/11:32:49.114689,24064,0,0,,0,0,30.6724204524,-96.3725155774,88.3412382232,"(0.0, 0.7536699175834656, 0.0, 0.0, 0.0, 0.0, 0.0, 0.0, 0.0)",0
2020/02/28/11:32:49.134696,24065,0,0,,0,0,30.6724204548,-96.372515575,88.3388469741,"(0.0, 0.7546318769454956, 0.0, 0.0, 0.0, 0.0, 0.0, 0.0, 0.0)",0
2020/02/28/11:32:49.154916,24066,0,0,,0,0,30.6724204345,-96.3725156266,88.3512741547,"(0.0, 0.7481469511985779, 0.0, 0.0, 0.0, 0.0, 0.0, 0.0, 0.0)",0
2020/02/28/11:32:49.174694,24067,0,0,,0,0,30.6724204374,-96.3725156247,88.3488293574,"(0.0, 0.7490829825401306, 0.0, 0.0, 0.0, 0.0, 0.0, 0.0, 0.0)",0
2020/02/28/11:32:49.194674,24068,0,0,,0,0,30.67242044,-96.3725156232,88.3463836387,"(0.0, 0.7500236630439758, 0.0, 0.0, 0.0, 0.0, 0.0, 0.0, 0.0)",0
2020/02/28/11:32:49.214700,24069,0,0,,0,0,30.6724204421,-96.3725156216,88.343977592,"(0.0, 0.7509688138961792, 0.0, 0.0, 0.0, 0.0, 0.0, 0.0, 0.0)",0
2020/02/28/11:32:49.234662,24070,0,0,,0,0,30.6724204454,-96.3725156191,88.3414402761,"(0.0, 0.7519186735153198, 0.0, 0.0, 0.0, 0.0, 0.0, 0.0, 0.0)",0
2020/02/28/11:32:49.254701,24071,0,0,,0,0,30.672420448,-96.372515617,88.338952388,"(0.0, 0.7528731822967529, 0.0, 0.0, 0.0, 0.0, 0.0, 0.0, 0.0)",0
2020/02/28/11:32:49.274652,24072,0,0,,0,0,30.6724204505,-96.372515615,88.3364593617,"(0.0, 0.7538325190544128, 0.0, 0.0, 0.0, 0.0, 0.0, 0.0, 0.0)",0
2020/02/28/11:32:49.294711,24073,0,0,,0,0,30.6724204529,-96.3725156133,88.3339011107,"(0.0, 0.7547960877418518, 0.0, 0.0, 0.0, 0.0, 0.0, 0.0, 0.0)",0
2020/02/28/11:32:49.314618,24074,0,0,,0,0,30.6724204552,-96.3725156112,88.331402584,"(0.0, 0.7557646036148071, 0.0, 0.0, 0.0, 0.0, 0.0, 0.0, 0.0)",0
2020/02/28/11:32:49.334668,24075,0,0,,0,0,30.6724204,-96.3725156565,88.3509866265,"(0.0, 0.7491810321807861, 0.0, 0.0, 0.0, 0.0, 0.0, 0.0, 0.0)",0
2020/02/28/11:32:49.354658,24076,0,0,,0,0,30.6724204022,-96.3725156541,88.3484582156,"(0.0, 0.750122606754303, 0.0, 0.0, 0.0, 0.0, 0.0, 0.0, 0.0)",0
2020/02/28/11:32:49.374757,24077,0,0,,0,0,30.6724204044,-96.3725156524,88.3459494987,"(0.0, 0.7510687112808228, 0.0, 0.0, 0.0, 0.0, 0.0, 0.0, 0.0)",0
2020/02/28/11:32:49.394565,24078,0,0,,0,0,30.6724204064,-96.3725156501,88.3434535781,"(0.0, 0.7520194053649902, 0.0, 0.0, 0.0, 0.0, 0.0, 0.0, 0.0)",0
2020/02/28/11:32:49.414583,24079,0,0,,0,0,30.672420408,-96.3725156488,88.3410485706,"(0.0, 0.7529747486114502, 0.0, 0.0, 0.0, 0.0, 0.0, 0.0, 0.0)",0
2020/02/28/11:32:49.434594,24080,0,0,,0,0,30.6724204105,-96.3725156471,88.3384431202,"(0.0, 0.7539348006248474, 0.0, 0.0, 0.0, 0.0, 0.0, 0.0, 0.0)",0
2020/02/28/11:32:49.454592,24081,0,0,,0,0,30.6724204124,-96.3725156455,88.3360024657,"(0.0, 0.7548995018005371, 0.0, 0.0, 0.0, 0.0, 0.0, 0.0, 0.0)",0
2020/02/28/11:32:49.474689,24082,0,0,,0,0,30.6724204135,-96.3725156433,88.3334629897,"(0.0, 0.7558689117431641, 0.0, 0.0, 0.0, 0.0, 0.0, 0.0, 0.0)",0
2020/02/28/11:32:49.494597,24083,0,0,,0,0,30.6724204158,-96.3725156411,88.3308786039,"(0.0, 0.756843090057373, 0.0, 0.0, 0.0, 0.0, 0.0, 0.0, 0.0)",0
2020/02/28/11:32:49.514591,24084,0,0,,0,0,30.6724204178,-96.3725156394,88.3283061918,"(0.0, 0.7578219175338745, 0.0, 0.0, 0.0, 0.0, 0.0, 0.0, 0.0)",0
2020/02/28/11:32:49.534585,24085,0,0,,0,0,30.6724203223,-96.372515709,88.3511257935,"(0.0, 0.7503863573074341, 0.0, 0.0, 0.0, 0.0, 0.0, 0.0, 0.0)",0
2020/02/28/11:32:49.554579,24086,0,0,,0,0,30.6724203235,-96.3725157075,88.3485810881,"(0.0, 0.7513290643692017, 0.0, 0.0, 0.0, 0.0, 0.0, 0.0, 0.0)",0
2020/02/28/11:32:49.574585,24087,0,0,,0,0,30.6724203247,-96.372515706,88.3460088496,"(0.0, 0.7522763609886169, 0.0, 0.0, 0.0, 0.0, 0.0, 0.0, 0.0)",0
2020/02/28/11:32:49.594632,24088,0,0,,0,0,30.6724203264,-96.3725157041,88.3434578147,"(0.0, 0.7532282471656799, 0.0, 0.0, 0.0, 0.0, 0.0, 0.0, 0.0)",0
2020/02/28/11:32:49.614707,24089,0,0,,0,0,30.6724203284,-96.3725157016,88.3409737482,"(0.0, 0.7541847229003906, 0.0, 0.0, 0.0, 0.0, 0.0, 0.0, 0.0)",0
2020/02/28/11:32:49.634571,24090,0,0,,0,0,30.6724203304,-96.3725156998,88.3384612669,"(0.0, 0.7551458477973938, 0.0, 0.0, 0.0, 0.0, 0.0, 0.0, 0.0)",0
2020/02/28/11:32:49.654536,24091,0,0,,0,0,30.672420332,-96.3725156989,88.335970181,"(0.0, 0.7561116814613342, 0.0, 0.0, 0.0, 0.0, 0.0, 0.0, 0.0)",0
2020/02/28/11:32:49.674583,24092,0,0,,0,0,30.6724203341,-96.3725156958,88.3335270972,"(0.0, 0.7570822238922119, 0.0, 0.0, 0.0, 0.0, 0.0, 0.0, 0.0)",0
2020/02/28/11:32:49.694561,24093,0,0,,0,0,30.6724203367,-96.3725156942,88.3309839201,"(0.0, 0.7580573558807373, 0.0, 0.0, 0.0, 0.0, 0.0, 0.0, 0.0)",0
2020/02/28/11:32:49.714516,24094,0,0,,0,0,30.6724203381,-96.3725156915,88.3283469266,"(0.0, 0.7590373158454895, 0.0, 0.0, 0.0, 0.0, 0.0, 0.0, 0.0)",0
2020/02/28/11:32:49.734473,24095,0,0,,0,0,30.6724203401,-96.3725156891,88.3256385849,"(0.0, 0.7597753405570984, 0.0, 0.0, 0.0, 0.0, 0.0, 0.0, 0.0)",0
2020/02/28/11:32:49.754575,24096,0,0,,0,0,30.6724202553,-96.3725157585,88.3503045182,"(0.0, 0.7531946301460266, 0.0, 0.0, 0.0, 0.0, 0.0, 0.0, 0.0)",0
2020/02/28/11:32:49.774588,24097,0,0,,0,0,30.6724202567,-96.3725157573,88.3477511841,"(0.0, 0.7541500926017761, 0.0, 0.0, 0.0, 0.0, 0.0, 0.0, 0.0)",0
2020/02/28/11:32:49.794443,24098,0,0,,0,0,30.6724202584,-96.3725157556,88.3452267612,"(0.0, 0.7551103234291077, 0.0, 0.0, 0.0, 0.0, 0.0, 0.0, 0.0)",0
2020/02/28/11:32:49.814491,24099,0,0,,0,0,30.6724202599,-96.3725157544,88.3427016353,"(0.0, 0.7560752034187317, 0.0, 0.0, 0.0, 0.0, 0.0, 0.0, 0.0)",0
2020/02/28/11:32:49.834503,24100,0,0,,0,0,30.6724202612,-96.3725157536,88.3401710414,"(0.0, 0.7570446729660034, 0.0, 0.0, 0.0, 0.0, 0.0, 0.0, 0.0)",0
2020/02/28/11:32:49.854495,24101,0,0,,0,0,30.6724202627,-96.3725157522,88.3376632713,"(0.0, 0.7580189108848572, 0.0, 0.0, 0.0, 0.0, 0.0, 0.0, 0.0)",0
2020/02/28/11:32:49.874444,24102,0,0,,0,0,30.6724202638,-96.3725157505,88.3352520792,"(0.0, 0.758997917175293, 0.0, 0.0, 0.0, 0.0, 0.0, 0.0, 0.0)",0
2020/02/28/11:32:49.894474,24103,0,0,,0,0,30.6724202653,-96.372515749,88.3325936694,"(0.0, 0.759981632232666, 0.0, 0.0, 0.0, 0.0, 0.0, 0.0, 0.0)",0
2020/02/28/11:32:49.914536,24104,0,0,,0,0,30.6724202664,-96.3725157463,88.3300714443,"(0.0, 0.7609700560569763, 0.0, 0.0, 0.0, 0.0, 0.0, 0.0, 0.0)",0
2020/02/28/11:32:49.934472,24105,0,0,,0,0,30.6724201692,-96.3725157719,88.3561566593,"(0.0, 0.754218578338623, 0.0, 0.0, 0.0, 0.0, 0.0, 0.0, 0.0)",0
2020/02/28/11:32:49.954394,24106,0,0,,0,0,30.6724201697,-96.3725157707,88.3535720763,"(0.0, 0.7551787495613098, 0.0, 0.0, 0.0, 0.0, 0.0, 0.0, 0.0)",0
2020/02/28/11:32:49.974372,24107,0,0,,0,0,30.6724201699,-96.3725157688,88.3510910865,"(0.0, 0.7561436295509338, 0.0, 0.0, 0.0, 0.0, 0.0, 0.0, 0.0)",0
2020/02/28/11:32:49.994366,24108,0,0,,0,0,30.6724201705,-96.3725157678,88.3485632495,"(0.0, 0.7571130990982056, 0.0, 0.0, 0.0, 0.0, 0.0, 0.0, 0.0)",0
2020/02/28/11:32:50.014454,24109,0,0,,0,0,30.6724201718,-96.3725157663,88.3461008907,"(0.0, 0.7580873966217041, 0.0, 0.0, 0.0, 0.0, 0.0, 0.0, 0.0)",0
2020/02/28/11:32:50.034370,24110,0,0,,0,0,30.6724201718,-96.3725157638,88.3435614917,"(0.0, 0.7590663433074951, 0.0, 0.0, 0.0, 0.0, 0.0, 0.0, 0.0)",0
2020/02/28/11:32:50.054458,24111,0,0,,0,0,30.6724201728,-96.3725157633,88.3410939722,"(0.0, 0.7600499391555786, 0.0, 0.0, 0.0, 0.0, 0.0, 0.0, 0.0)",0
2020/02/28/11:32:50.074328,24112,0,0,,0,0,30.672420173,-96.3725157615,88.3385182621,"(0.0, 0.7610383629798889, 0.0, 0.0, 0.0, 0.0, 0.0, 0.0, 0.0)",0
2020/02/28/11:32:50.094380,24113,0,0,,0,0,30.6724201739,-96.3725157597,88.3359626976,"(0.0, 0.7620315551757812, 0.0, 0.0, 0.0, 0.0, 0.0, 0.0, 0.0)",0
2020/02/28/11:32:50.114343,24114,0,0,,0,0,30.6724201744,-96.3725157579,88.3334189404,"(0.0, 0.7630295157432556, 0.0, 0.0, 0.0, 0.0, 0.0, 0.0, 0.0)",0
2020/02/28/11:32:50.134453,24115,0,0,,0,0,30.6724201753,-96.3725157559,88.3308792567,"(0.0, 0.764032244682312, 0.0, 0.0, 0.0, 0.0, 0.0, 0.0, 0.0)",0
2020/02/28/11:32:50.154428,24116,0,0,,0,0,30.6724201621,-96.3725157385,88.3534381962,"(0.0, 0.7565818428993225, 0.0, 0.0, 0.0, 0.0, 0.0, 0.0, 0.0)",0
2020/02/28/11:32:50.174362,24117,0,0,,0,0,30.6724201635,-96.3725157367,88.3510084908,"(0.0, 0.7575492858886719, 0.0, 0.0, 0.0, 0.0, 0.0, 0.0, 0.0)",0
2020/02/28/11:32:50.194293,24118,0,0,,0,0,30.6724201639,-96.3725157341,88.3484634833,"(0.0, 0.758521318435669, 0.0, 0.0, 0.0, 0.0, 0.0, 0.0, 0.0)",0
2020/02/28/11:32:50.214358,24119,0,0,,0,0,30.6724201654,-96.3725157333,88.3459661716,"(0.0, 0.759498119354248, 0.0, 0.0, 0.0, 0.0, 0.0, 0.0, 0.0)",0
2020/02/28/11:32:50.234307,24120,0,0,,0,0,30.6724201658,-96.3725157309,88.3433782991,"(0.0, 0.7604795694351196, 0.0, 0.0, 0.0, 0.0, 0.0, 0.0, 0.0)",0
2020/02/28/11:32:50.254382,24121,0,0,,0,0,30.672420167,-96.3725157284,88.3408783521,"(0.0, 0.7614657878875732, 0.0, 0.0, 0.0, 0.0, 0.0, 0.0, 0.0)",0
2020/02/28/11:32:50.274339,24122,0,0,,0,0,30.6724201691,-96.3725157264,88.3382539989,"(0.0, 0.7624566555023193, 0.0, 0.0, 0.0, 0.0, 0.0, 0.0, 0.0)",0
2020/02/28/11:32:50.294374,24123,0,0,,0,0,30.67242017,-96.3725157246,88.3356958872,"(0.0, 0.7634523510932922, 0.0, 0.0, 0.0, 0.0, 0.0, 0.0, 0.0)",0
2020/02/28/11:32:50.314287,24124,0,0,,0,0,30.6724201717,-96.3725157221,88.3331396598,"(0.0, 0.7644528150558472, 0.0, 0.0, 0.0, 0.0, 0.0, 0.0, 0.0)",0
2020/02/28/11:32:50.334318,24125,0,0,,0,0,30.6724201082,-96.3725157211,88.352211727,"(0.0, 0.757575273513794, 0.0, 0.0, 0.0, 0.0, 0.0, 0.0, 0.0)",0
2020/02/28/11:32:50.354279,24126,0,0,,0,0,30.6724201097,-96.3725157186,88.3497124292,"(0.0, 0.7585467100143433, 0.0, 0.0, 0.0, 0.0, 0.0, 0.0, 0.0)",0
2020/02/28/11:32:50.374425,24127,0,0,,0,0,30.6724201112,-96.3725157164,88.3472032726,"(0.0, 0.7595227956771851, 0.0, 0.0, 0.0, 0.0, 0.0, 0.0, 0.0)",0
2020/02/28/11:32:50.394218,24128,0,0,,0,0,30.6724201138,-96.3725157137,88.3446888642,"(0.0, 0.7605035305023193, 0.0, 0.0, 0.0, 0.0, 0.0, 0.0, 0.0)",0
2020/02/28/11:32:50.414271,24129,0,0,,0,0,30.6724201177,-96.3725157106,88.3422204265,"(0.0, 0.7614890336990356, 0.0, 0.0, 0.0, 0.0, 0.0, 0.0, 0.0)",0
2020/02/28/11:32:50.434297,24130,0,0,,0,0,30.6724201232,-96.3725157078,88.3397494001,"(0.0, 0.7624792456626892, 0.0, 0.0, 0.0, 0.0, 0.0, 0.0, 0.0)",0
2020/02/28/11:32:50.454274,24131,0,0,,0,0,30.6724201296,-96.3725157042,88.337251651,"(0.0, 0.76347416639328, 0.0, 0.0, 0.0, 0.0, 0.0, 0.0, 0.0)",0
2020/02/28/11:32:50.474358,24132,0,0,,0,0,30.6724201364,-96.3725157014,88.3346348725,"(0.0, 0.7644739747047424, 0.0, 0.0, 0.0, 0.0, 0.0, 0.0, 0.0)",0
2020/02/28/11:32:50.494266,24133,0,0,,0,0,30.6724201432,-96.372515698,88.3319529657,"(0.0, 0.7654784917831421, 0.0, 0.0, 0.0, 0.0, 0.0, 0.0, 0.0)",0
2020/02/28/11:32:50.514249,24134,0,0,,0,0,30.6724201499,-96.3725156948,88.3292355004,"(0.0, 0.7664878964424133, 0.0, 0.0, 0.0, 0.0, 0.0, 0.0, 0.0)",0
2020/02/28/11:32:50.534345,24135,0,0,,0,0,30.672420052,-96.3725157509,88.3492421294,"(0.0, 0.7589322328567505, 0.0, 0.0, 0.0, 0.0, 0.0, 0.0, 0.0)",0
2020/02/28/11:32:50.554312,24136,0,0,,0,0,30.6724200584,-96.3725157477,88.3467068102,"(0.0, 0.7599054574966431, 0.0, 0.0, 0.0, 0.0, 0.0, 0.0, 0.0)",0
2020/02/28/11:32:50.574303,24137,0,0,,0,0,30.672420066,-96.3725157452,88.3442354011,"(0.0, 0.7608832716941833, 0.0, 0.0, 0.0, 0.0, 0.0, 0.0, 0.0)",0
2020/02/28/11:32:50.594228,24138,0,0,,0,0,30.6724200743,-96.3725157417,88.3418241708,"(0.0, 0.7618658542633057, 0.0, 0.0, 0.0, 0.0, 0.0, 0.0, 0.0)",0
2020/02/28/11:32:50.614248,24139,0,0,,0,0,30.6724200843,-96.3725157379,88.3394596156,"(0.0, 0.7628530263900757, 0.0, 0.0, 0.0, 0.0, 0.0, 0.0, 0.0)",0
2020/02/28/11:32:50.634305,24140,0,0,,0,0,30.6724200956,-96.3725157342,88.3370724796,"(0.0, 0.7638450264930725, 0.0, 0.0, 0.0, 0.0, 0.0, 0.0, 0.0)",0
2020/02/28/11:32:50.654174,24141,0,0,,0,0,30.6724201079,-96.3725157307,88.3346055782,"(0.0, 0.7648416757583618, 0.0, 0.0, 0.0, 0.0, 0.0, 0.0, 0.0)",0
2020/02/28/11:32:50.674176,24142,0,0,,0,0,30.6724201205,-96.372515727,88.3320585691,"(0.0, 0.7658430933952332, 0.0, 0.0, 0.0, 0.0, 0.0, 0.0, 0.0)",0
2020/02/28/11:32:50.694352,24143,0,0,,0,0,30.6724201339,-96.3725157244,88.3293747177,"(0.0, 0.7668493390083313, 0.0, 0.0, 0.0, 0.0, 0.0, 0.0, 0.0)",0
2020/02/28/11:32:50.714217,24144,0,0,,0,0,30.6724201475,-96.3725157208,88.3266397575,"(0.0, 0.7678602933883667, 0.0, 0.0, 0.0, 0.0, 0.0, 0.0, 0.0)",0
2020/02/28/11:32:50.734132,24145,0,0,,0,0,30.6724200372,-96.3725157776,88.3423565549,"(0.0, 0.760212779045105, 0.0, 0.0, 0.0, 0.0, 0.0, 0.0, 0.0)",0
2020/02/28/11:32:50.754169,24146,0,0,,0,0,30.6724200511,-96.3725157741,88.3397537161,"(0.0, 0.761186957359314, 0.0, 0.0, 0.0, 0.0, 0.0, 0.0, 0.0)",0
2020/02/28/11:32:50.774357,24147,0,0,,0,0,30.6724200668,-96.3725157696,88.3372146087,"(0.0, 0.7621657848358154, 0.0, 0.0, 0.0, 0.0, 0.0, 0.0, 0.0)",0
2020/02/28/11:32:50.794134,24148,0,0,,0,0,30.6724200845,-96.3725157653,88.3347359565,"(0.0, 0.7631492614746094, 0.0, 0.0, 0.0, 0.0, 0.0, 0.0, 0.0)",0
2020/02/28/11:32:50.814125,24149,0,0,,0,0,30.6724201031,-96.3725157604,88.3323043879,"(0.0, 0.7641374468803406, 0.0, 0.0, 0.0, 0.0, 0.0, 0.0, 0.0)",0
2020/02/28/11:32:50.834148,24150,0,0,,0,0,30.6724201231,-96.3725157559,88.3298757554,"(0.0, 0.765130341053009, 0.0, 0.0, 0.0, 0.0, 0.0, 0.0, 0.0)",0
2020/02/28/11:32:50.854128,24151,0,0,,0,0,30.672420144,-96.3725157507,88.3273821541,"(0.0, 0.76612788438797, 0.0, 0.0, 0.0, 0.0, 0.0, 0.0, 0.0)",0
2020/02/28/11:32:50.874181,24152,0,0,,0,0,30.6724201657,-96.372515746,88.3248318128,"(0.0, 0.7671301960945129, 0.0, 0.0, 0.0, 0.0, 0.0, 0.0, 0.0)",0
2020/02/28/11:32:50.894190,24153,0,0,,0,0,30.6724201882,-96.3725157413,88.3222294333,"(0.0, 0.7681373357772827, 0.0, 0.0, 0.0, 0.0, 0.0, 0.0, 0.0)",0
2020/02/28/11:32:50.914162,24154,0,0,,0,0,30.6724202114,-96.3725157362,88.319599263,"(0.0, 0.769149124622345, 0.0, 0.0, 0.0, 0.0, 0.0, 0.0, 0.0)",0
2020/02/28/11:32:50.934120,24155,0,0,,0,0,30.6724201973,-96.3725156928,88.3364634101,"(0.0, 0.7595670223236084, 0.0, 0.0, 0.0, 0.0, 0.0, 0.0, 0.0)",0
2020/02/28/11:32:50.954203,24156,0,0,,0,0,30.6724202237,-96.3725156866,88.3339138294,"(0.0, 0.7605218291282654, 0.0, 0.0, 0.0, 0.0, 0.0, 0.0, 0.0)",0
2020/02/28/11:32:50.974182,24157,0,0,,0,0,30.6724202506,-96.37251568,88.3314157326,"(0.0, 0.7614811658859253, 0.0, 0.0, 0.0, 0.0, 0.0, 0.0, 0.0)",0
2020/02/28/11:32:50.994226,24158,0,0,,0,0,30.6724202801,-96.3725156733,88.3289303018,"(0.0, 0.7624449729919434, 0.0, 0.0, 0.0, 0.0, 0.0, 0.0, 0.0)",0
2020/02/28/11:32:51.014164,24159,0,0,,0,0,30.6724203104,-96.3725156665,88.3264555691,"(0.0, 0.7634133100509644, 0.0, 0.0, 0.0, 0.0, 0.0, 0.0, 0.0)",0
2020/02/28/11:32:51.034101,24160,0,0,,0,0,30.6724203419,-96.3725156598,88.3239602318,"(0.0, 0.7643861770629883, 0.0, 0.0, 0.0, 0.0, 0.0, 0.0, 0.0)",0
2020/02/28/11:32:51.054189,24161,0,0,,0,0,30.672420375,-96.3725156533,88.3214778851,"(0.0, 0.7653636932373047, 0.0, 0.0, 0.0, 0.0, 0.0, 0.0, 0.0)",0
2020/02/28/11:32:51.074112,24162,0,0,,0,0,30.6724204079,-96.3725156473,88.3189451841,"(0.0, 0.766345739364624, 0.0, 0.0, 0.0, 0.0, 0.0, 0.0, 0.0)",0
2020/02/28/11:32:51.094128,24163,0,0,,0,0,30.6724204431,-96.3725156408,88.3162841,"(0.0, 0.7673323750495911, 0.0, 0.0, 0.0, 0.0, 0.0, 0.0, 0.0)",0
2020/02/28/11:32:51.114077,24164,0,0,,0,0,30.6724204791,-96.3725156337,88.3136112377,"(0.0, 0.7683239579200745, 0.0, 0.0, 0.0, 0.0, 0.0, 0.0, 0.0)",0
2020/02/28/11:32:51.134067,24165,0,0,,0,0,30.6724205197,-96.3725154886,88.3400439349,"(0.0, 0.757196843624115, 0.0, 0.0, 0.0, 0.0, 0.0, 0.0, 0.0)",0
2020/02/28/11:32:51.154128,24166,0,0,,0,0,30.6724205594,-96.3725154804,88.3375182339,"(0.0, 0.7581156492233276, 0.0, 0.0, 0.0, 0.0, 0.0, 0.0, 0.0)",0
2020/02/28/11:32:51.174117,24167,0,0,,0,0,30.6724206,-96.3725154715,88.3350015975,"(0.0, 0.7590387463569641, 0.0, 0.0, 0.0, 0.0, 0.0, 0.0, 0.0)",0
2020/02/28/11:32:51.194140,24168,0,0,,0,0,30.6724206428,-96.3725154628,88.3324950851,"(0.0, 0.7599660158157349, 0.0, 0.0, 0.0, 0.0, 0.0, 0.0, 0.0)",0
2020/02/28/11:32:51.214022,24169,0,0,,0,0,30.6724206861,-96.3725154535,88.330018968,"(0.0, 0.760897696018219, 0.0, 0.0, 0.0, 0.0, 0.0, 0.0, 0.0)",0
2020/02/28/11:32:51.234000,24170,0,0,,0,0,30.6724207313,-96.3725154447,88.3274915623,"(0.0, 0.761833667755127, 0.0, 0.0, 0.0, 0.0, 0.0, 0.0, 0.0)",0
2020/02/28/11:32:51.253987,24171,0,0,,0,0,30.6724207776,-96.3725154355,88.3249711377,"(0.0, 0.7627739906311035, 0.0, 0.0, 0.0, 0.0, 0.0, 0.0, 0.0)",0
2020/02/28/11:32:51.273978,24172,0,0,,0,0,30.6724208251,-96.3725154261,88.3224340371,"(0.0, 0.7637186050415039, 0.0, 0.0, 0.0, 0.0, 0.0, 0.0, 0.0)",0
2020/02/28/11:32:51.293997,24173,0,0,,0,0,30.6724208738,-96.3725154168,88.3199622225,"(0.0, 0.7646676301956177, 0.0, 0.0, 0.0, 0.0, 0.0, 0.0, 0.0)",0
2020/02/28/11:32:51.314160,24174,0,0,,0,0,30.6724209247,-96.3725154067,88.3172815875,"(0.0, 0.7656212449073792, 0.0, 0.0, 0.0, 0.0, 0.0, 0.0, 0.0)",0
2020/02/28/11:32:51.333967,24175,0,0,,0,0,30.6724210139,-96.3725155502,88.3463023411,"(0.0, 0.7554512023925781, 0.0, 0.0, 0.0, 0.0, 0.0, 0.0, 0.0)",0
2020/02/28/11:32:51.354006,24176,0,0,,0,0,30.6724210675,-96.3725155413,88.3437858176,"(0.0, 0.7563430070877075, 0.0, 0.0, 0.0, 0.0, 0.0, 0.0, 0.0)",0
2020/02/28/11:32:51.373981,24177,0,0,,0,0,30.6724211238,-96.3725155321,88.3412475996,"(0.0, 0.7572388052940369, 0.0, 0.0, 0.0, 0.0, 0.0, 0.0, 0.0)",0
2020/02/28/11:32:51.394030,24178,0,0,,0,0,30.6724211809,-96.3725155226,88.3387820317,"(0.0, 0.7581387162208557, 0.0, 0.0, 0.0, 0.0, 0.0, 0.0, 0.0)",0
2020/02/28/11:32:51.413930,24179,0,0,,0,0,30.67242124,-96.3725155123,88.3362880503,"(0.0, 0.7590427994728088, 0.0, 0.0, 0.0, 0.0, 0.0, 0.0, 0.0)",0
2020/02/28/11:32:51.433988,24180,0,0,,0,0,30.6724213009,-96.3725155023,88.3339015757,"(0.0, 0.759951114654541, 0.0, 0.0, 0.0, 0.0, 0.0, 0.0, 0.0)",0
2020/02/28/11:32:51.453989,24181,0,0,,0,0,30.6724213629,-96.3725154913,88.3314252624,"(0.0, 0.7608635425567627, 0.0, 0.0, 0.0, 0.0, 0.0, 0.0, 0.0)",0
2020/02/28/11:32:51.473994,24182,0,0,,0,0,30.6724214264,-96.3725154804,88.3289582257,"(0.0, 0.7617801427841187, 0.0, 0.0, 0.0, 0.0, 0.0, 0.0, 0.0)",0
2020/02/28/11:32:51.494021,24183,0,0,,0,0,30.6724214911,-96.3725154687,88.3264131441,"(0.0, 0.7627009153366089, 0.0, 0.0, 0.0, 0.0, 0.0, 0.0, 0.0)",0
2020/02/28/11:32:51.513932,24184,0,0,,0,0,30.6724215578,-96.3725154576,88.3239740587,"(0.0, 0.7636260390281677, 0.0, 0.0, 0.0, 0.0, 0.0, 0.0, 0.0)",0
2020/02/28/11:32:51.534081,24185,0,0,,0,0,30.672421627,-96.3725154457,88.3211959112,"(0.0, 0.7643225193023682, 0.0, 0.0, 0.0, 0.0, 0.0, 0.0, 0.0)",0
2020/02/28/11:32:51.553970,24186,0,0,,0,0,30.6724216036,-96.3725154484,88.340291393,"(0.0, 0.7547346949577332, 0.0, 0.0, 0.0, 0.0, 0.0, 0.0, 0.0)",0
2020/02/28/11:32:51.573861,24187,0,0,,0,0,30.6724216751,-96.372515437,88.3377459659,"(0.0, 0.7556067705154419, 0.0, 0.0, 0.0, 0.0, 0.0, 0.0, 0.0)",0
2020/02/28/11:32:51.594887,24188,0,0,,0,0,30.672421748,-96.3725154253,88.3352221272,"(0.0, 0.7564830183982849, 0.0, 0.0, 0.0, 0.0, 0.0, 0.0, 0.0)",0
2020/02/28/11:32:51.613886,24189,0,0,,0,0,30.672421823,-96.3725154131,88.3327153208,"(0.0, 0.7573629021644592, 0.0, 0.0, 0.0, 0.0, 0.0, 0.0, 0.0)",0
2020/02/28/11:32:51.634842,24190,0,0,,0,0,30.6724218997,-96.3725154006,88.3302396116,"(0.0, 0.7582469582557678, 0.0, 0.0, 0.0, 0.0, 0.0, 0.0, 0.0)",0
2020/02/28/11:32:51.654879,24191,0,0,,0,0,30.6724219787,-96.3725153874,88.3277806424,"(0.0, 0.7591351866722107, 0.0, 0.0, 0.0, 0.0, 0.0, 0.0, 0.0)",0
2020/02/28/11:32:51.674769,24192,0,0,,0,0,30.672422059,-96.3725153735,88.3253113432,"(0.0, 0.7600273489952087, 0.0, 0.0, 0.0, 0.0, 0.0, 0.0, 0.0)",0
2020/02/28/11:32:51.694962,24193,0,0,,0,0,30.6724221414,-96.3725153603,88.3228469977,"(0.0, 0.7609235644340515, 0.0, 0.0, 0.0, 0.0, 0.0, 0.0, 0.0)",0
2020/02/28/11:32:51.714828,24194,0,0,,0,0,30.6724222257,-96.3725153472,88.3203755209,"(0.0, 0.7618239521980286, 0.0, 0.0, 0.0, 0.0, 0.0, 0.0, 0.0)",0
2020/02/28/11:32:51.734878,24195,0,0,,0,0,30.6724223223,-96.3725152077,88.3508113842,"(0.0, 0.7518625259399414, 0.0, 0.0, 0.0, 0.0, 0.0, 0.0, 0.0)",0
2020/02/28/11:32:51.754887,24196,0,0,,0,0,30.6724224108,-96.372515193,88.348457919,"(0.0, 0.7527042031288147, 0.0, 0.0, 0.0, 0.0, 0.0, 0.0, 0.0)",0
2020/02/28/11:32:51.774815,24197,0,0,,0,0,30.6724225004,-96.3725151783,88.3460726572,"(0.0, 0.7535496950149536, 0.0, 0.0, 0.0, 0.0, 0.0, 0.0, 0.0)",0
2020/02/28/11:32:51.794806,24198,0,0,,0,0,30.6724225926,-96.3725151627,88.3436144323,"(0.0, 0.7543991208076477, 0.0, 0.0, 0.0, 0.0, 0.0, 0.0, 0.0)",0
2020/02/28/11:32:51.814783,24199,0,0,,0,0,30.672422687,-96.3725151468,88.341167895,"(0.0, 0.7552522420883179, 0.0, 0.0, 0.0, 0.0, 0.0, 0.0, 0.0)",0
2020/02/28/11:32:51.834749,24200,0,0,,0,0,30.672422783,-96.3725151303,88.3387053643,"(0.0, 0.7561092972755432, 0.0, 0.0, 0.0, 0.0, 0.0, 0.0, 0.0)",0
2020/02/28/11:32:51.854762,24201,0,0,,0,0,30.6724228812,-96.3725151136,88.336225503,"(0.0, 0.756970226764679, 0.0, 0.0, 0.0, 0.0, 0.0, 0.0, 0.0)",0
2020/02/28/11:32:51.874738,24202,0,0,,0,0,30.6724229823,-96.3725150966,88.3337540462,"(0.0, 0.7578350901603699, 0.0, 0.0, 0.0, 0.0, 0.0, 0.0, 0.0)",0
2020/02/28/11:32:51.894732,24203,0,0,,0,0,30.6724230858,-96.3725150793,88.3313222021,"(0.0, 0.7587038278579712, 0.0, 0.0, 0.0, 0.0, 0.0, 0.0, 0.0)",0
2020/02/28/11:32:51.914781,24204,0,0,,0,0,30.6724231916,-96.372515062,88.328896787,"(0.0, 0.7595765590667725, 0.0, 0.0, 0.0, 0.0, 0.0, 0.0, 0.0)",0
2020/02/28/11:32:51.934734,24205,0,0,,0,0,30.6724233003,-96.3725150444,88.3263610175,"(0.0, 0.7602337002754211, 0.0, 0.0, 0.0, 0.0, 0.0, 0.0, 0.0)",0
2020/02/28/11:32:51.954722,24206,0,0,,0,0,30.6724234177,-96.3725151466,88.345934983,"(0.0, 0.7506545782089233, 0.0, 0.0, 0.0, 0.0, 0.0, 0.0, 0.0)",0
2020/02/28/11:32:51.974738,24207,0,0,,0,0,30.6724235316,-96.3725151295,88.3435712174,"(0.0, 0.7514747977256775, 0.0, 0.0, 0.0, 0.0, 0.0, 0.0, 0.0)",0
2020/02/28/11:32:51.994795,24208,0,0,,0,0,30.6724236478,-96.3725151121,88.3411639469,"(0.0, 0.7522987127304077, 0.0, 0.0, 0.0, 0.0, 0.0, 0.0, 0.0)",0
2020/02/28/11:32:52.014726,24209,0,0,,0,0,30.6724237666,-96.3725150939,88.3387309844,"(0.0, 0.753126323223114, 0.0, 0.0, 0.0, 0.0, 0.0, 0.0, 0.0)",0
2020/02/28/11:32:52.034749,24210,0,0,,0,0,30.6724238877,-96.3725150756,88.336250316,"(0.0, 0.7539576888084412, 0.0, 0.0, 0.0, 0.0, 0.0, 0.0, 0.0)",0
2020/02/28/11:32:52.054695,24211,0,0,,0,0,30.6724240111,-96.3725150567,88.3337454522,"(0.0, 0.7547928690910339, 0.0, 0.0, 0.0, 0.0, 0.0, 0.0, 0.0)",0
2020/02/28/11:32:52.074691,24212,0,0,,0,0,30.6724241365,-96.3725150376,88.33131381,"(0.0, 0.7556316256523132, 0.0, 0.0, 0.0, 0.0, 0.0, 0.0, 0.0)",0
2020/02/28/11:32:52.094822,24213,0,0,,0,0,30.6724242664,-96.3725150179,88.3287849821,"(0.0, 0.7564743757247925, 0.0, 0.0, 0.0, 0.0, 0.0, 0.0, 0.0)",0
2020/02/28/11:32:52.114668,24214,0,0,,0,0,30.6724243975,-96.3725149983,88.3261872693,"(0.0, 0.7573209404945374, 0.0, 0.0, 0.0, 0.0, 0.0, 0.0, 0.0)",0
2020/02/28/11:32:52.134685,24215,0,0,,0,0,30.6724245317,-96.3725149785,88.3236560961,"(0.0, 0.7581713795661926, 0.0, 0.0, 0.0, 0.0, 0.0, 0.0, 0.0)",0
2020/02/28/11:32:52.154654,24216,0,0,,0,0,30.6724245294,-96.3725147334,88.3595413354,"(0.0, 0.7482946515083313, 0.0, 0.0, 0.0, 0.0, 0.0, 0.0, 0.0)",0
2020/02/28/11:32:52.174721,24217,0,0,,0,0,30.6724246683,-96.3725147116,88.3569882674,"(0.0, 0.749087929725647, 0.0, 0.0, 0.0, 0.0, 0.0, 0.0, 0.0)",0
2020/02/28/11:32:52.194705,24218,0,0,,0,0,30.67242481,-96.3725146893,88.3545276033,"(0.0, 0.7498847842216492, 0.0, 0.0, 0.0, 0.0, 0.0, 0.0, 0.0)",0
2020/02/28/11:32:52.214606,24219,0,0,,0,0,30.6724249547,-96.3725146664,88.3519933595,"(0.0, 0.7506852746009827, 0.0, 0.0, 0.0, 0.0, 0.0, 0.0, 0.0)",0
2020/02/28/11:32:52.234653,24220,0,0,,0,0,30.6724251022,-96.3725146432,88.3494440907,"(0.0, 0.7514892816543579, 0.0, 0.0, 0.0, 0.0, 0.0, 0.0, 0.0)",0
2020/02/28/11:32:52.254675,24221,0,0,,0,0,30.6724252517,-96.3725146189,88.3469216038,"(0.0, 0.7522969841957092, 0.0, 0.0, 0.0, 0.0, 0.0, 0.0, 0.0)",0
2020/02/28/11:32:52.274583,24222,0,0,,0,0,30.672425405,-96.3725145955,88.3443032808,"(0.0, 0.7531083226203918, 0.0, 0.0, 0.0, 0.0, 0.0, 0.0, 0.0)",0
2020/02/28/11:32:52.294648,24223,0,0,,0,0,30.672425561,-96.3725145713,88.3417113025,"(0.0, 0.7539234161376953, 0.0, 0.0, 0.0, 0.0, 0.0, 0.0, 0.0)",0
2020/02/28/11:32:52.314604,24224,0,0,,0,0,30.6724257199,-96.3725145468,88.3391287253,"(0.0, 0.7547420859336853, 0.0, 0.0, 0.0, 0.0, 0.0, 0.0, 0.0)",0
2020/02/28/11:32:52.334569,24225,0,0,,0,0,30.6724258819,-96.3725145227,88.3363857844,"(0.0, 0.7553586363792419, 0.0, 0.0, 0.0, 0.0, 0.0, 0.0, 0.0)",0
2020/02/28/11:32:52.354637,24226,0,0,,0,0,30.6724258009,-96.3725148367,88.352457403,"(0.0, 0.746558427810669, 0.0, 0.0, 0.0, 0.0, 0.0, 0.0, 0.0)",0
2020/02/28/11:32:52.374655,24227,0,0,,0,0,30.6724259671,-96.3725148154,88.3498637759,"(0.0, 0.7473323345184326, 0.0, 0.0, 0.0, 0.0, 0.0, 0.0, 0.0)",0
2020/02/28/11:32:52.394776,24228,0,0,,0,0,30.6724261361,-96.3725147935,88.3472682976,"(0.0, 0.748109757900238, 0.0, 0.0, 0.0, 0.0, 0.0, 0.0, 0.0)",0
2020/02/28/11:32:52.414618,24229,0,0,,0,0,30.6724263086,-96.3725147716,88.3446500546,"(0.0, 0.7488906979560852, 0.0, 0.0, 0.0, 0.0, 0.0, 0.0, 0.0)",0
2020/02/28/11:32:52.434728,24230,0,0,,0,0,30.6724264838,-96.3725147493,88.3420407547,"(0.0, 0.7496751546859741, 0.0, 0.0, 0.0, 0.0, 0.0, 0.0, 0.0)",0
2020/02/28/11:32:52.454607,24231,0,0,,0,0,30.6724266624,-96.3725147264,88.3394151367,"(0.0, 0.7504632472991943, 0.0, 0.0, 0.0, 0.0, 0.0, 0.0, 0.0)",0
2020/02/28/11:32:52.474523,24232,0,0,,0,0,30.6724268437,-96.3725147036,88.3370531052,"(0.0, 0.7512548565864563, 0.0, 0.0, 0.0, 0.0, 0.0, 0.0, 0.0)",0
2020/02/28/11:32:52.494598,24233,0,0,,0,0,30.6724270277,-96.3725146807,88.3341769876,"(0.0, 0.7520500421524048, 0.0, 0.0, 0.0, 0.0, 0.0, 0.0, 0.0)",0
2020/02/28/11:32:52.514551,24234,0,0,,0,0,30.6724272155,-96.3725146569,88.3316700989,"(0.0, 0.7528489232063293, 0.0, 0.0, 0.0, 0.0, 0.0, 0.0, 0.0)",0
2020/02/28/11:32:52.534582,24235,0,0,,0,0,30.672427307,-96.372514646,88.3700647946,"(0.0, 0.7442064881324768, 0.0, 0.0, 0.0, 0.0, 0.0, 0.0, 0.0)",0
2020/02/28/11:32:52.554493,24236,0,0,,0,0,30.6724274991,-96.3725146224,88.3677149548,"(0.0, 0.7449601292610168, 0.0, 0.0, 0.0, 0.0, 0.0, 0.0, 0.0)",0
2020/02/28/11:32:52.574470,24237,0,0,,0,0,30.6724276936,-96.372514598,88.3653608959,"(0.0, 0.7457171678543091, 0.0, 0.0, 0.0, 0.0, 0.0, 0.0, 0.0)",0
2020/02/28/11:32:52.594548,24238,0,0,,0,0,30.672427892,-96.3725145734,88.3629387175,"(0.0, 0.7464776635169983, 0.0, 0.0, 0.0, 0.0, 0.0, 0.0, 0.0)",0
2020/02/28/11:32:52.614600,24239,0,0,,0,0,30.6724280929,-96.372514548,88.3605185028,"(0.0, 0.7472416162490845, 0.0, 0.0, 0.0, 0.0, 0.0, 0.0, 0.0)",0
2020/02/28/11:32:52.634539,24240,0,0,,0,0,30.6724282969,-96.372514522,88.3581059442,"(0.0, 0.7480089664459229, 0.0, 0.0, 0.0, 0.0, 0.0, 0.0, 0.0)",0
2020/02/28/11:32:52.654558,24241,0,0,,0,0,30.6724285037,-96.3725144955,88.3557150601,"(0.0, 0.7487800121307373, 0.0, 0.0, 0.0, 0.0, 0.0, 0.0, 0.0)",0
2020/02/28/11:32:52.674452,24242,0,0,,0,0,30.6724287134,-96.3725144681,88.3533122626,"(0.0, 0.7495543360710144, 0.0, 0.0, 0.0, 0.0, 0.0, 0.0, 0.0)",0
2020/02/28/11:32:52.694523,24243,0,0,,0,0,30.672428926,-96.3725144406,88.3508863621,"(0.0, 0.7503324151039124, 0.0, 0.0, 0.0, 0.0, 0.0, 0.0, 0.0)",0
2020/02/28/11:32:52.714495,24244,0,0,,0,0,30.6724291415,-96.3725144122,88.3485045002,"(0.0, 0.7511139512062073, 0.0, 0.0, 0.0, 0.0, 0.0, 0.0, 0.0)",0
2020/02/28/11:32:52.734502,24245,0,0,,0,0,30.6724293595,-96.372514384,88.3460032367,"(0.0, 0.7517024278640747, 0.0, 0.0, 0.0, 0.0, 0.0, 0.0, 0.0)",0
2020/02/28/11:32:52.754535,24246,0,0,,0,0,30.6724294756,-96.3725144288,88.367452316,"(0.0, 0.7432611584663391, 0.0, 0.0, 0.0, 0.0, 0.0, 0.0, 0.0)",0
2020/02/28/11:32:52.774397,24247,0,0,,0,0,30.6724296986,-96.3725144004,88.3652327876,"(0.0, 0.7440012693405151, 0.0, 0.0, 0.0, 0.0, 0.0, 0.0, 0.0)",0
2020/02/28/11:32:52.794423,24248,0,0,,0,0,30.6724299247,-96.3725143716,88.3630894108,"(0.0, 0.7447447776794434, 0.0, 0.0, 0.0, 0.0, 0.0, 0.0, 0.0)",0
2020/02/28/11:32:52.814521,24249,0,0,,0,0,30.6724301531,-96.3725143421,88.3609584626,"(0.0, 0.7454916834831238, 0.0, 0.0, 0.0, 0.0, 0.0, 0.0, 0.0)",0
2020/02/28/11:32:52.834521,24250,0,0,,0,0,30.672430385,-96.3725143126,88.3588346834,"(0.0, 0.7462420463562012, 0.0, 0.0, 0.0, 0.0, 0.0, 0.0, 0.0)",0
2020/02/28/11:32:52.854465,24251,0,0,,0,0,30.6724306194,-96.3725142822,88.3567039648,"(0.0, 0.7469958066940308, 0.0, 0.0, 0.0, 0.0, 0.0, 0.0, 0.0)",0
2020/02/28/11:32:52.874469,24252,0,0,,0,0,30.6724308566,-96.3725142501,88.3545558057,"(0.0, 0.7477531433105469, 0.0, 0.0, 0.0, 0.0, 0.0, 0.0, 0.0)",0
2020/02/28/11:32:52.894465,24253,0,0,,0,0,30.6724310967,-96.3725142181,88.3523132678,"(0.0, 0.7485138773918152, 0.0, 0.0, 0.0, 0.0, 0.0, 0.0, 0.0)",0
2020/02/28/11:32:52.914407,24254,0,0,,0,0,30.6724313397,-96.3725141853,88.3500330555,"(0.0, 0.7492781281471252, 0.0, 0.0, 0.0, 0.0, 0.0, 0.0, 0.0)",0
2020/02/28/11:32:52.934404,24255,0,0,,0,0,30.6724315854,-96.3725141523,88.3476008992,"(0.0, 0.7498536109924316, 0.0, 0.0, 0.0, 0.0, 0.0, 0.0, 0.0)",0
2020/02/28/11:32:52.954384,24256,0,0,,0,0,30.6724318689,-96.3725138436,88.3957656471,"(0.0, 0.7412433624267578, 0.0, 0.0, 0.0, 0.0, 0.0, 0.0, 0.0)",0
2020/02/28/11:32:52.974320,24257,0,0,,0,0,30.67243212,-96.3725138073,88.3934409074,"(0.0, 0.7419642210006714, 0.0, 0.0, 0.0, 0.0, 0.0, 0.0, 0.0)",0
2020/02/28/11:32:52.994353,24258,0,0,,0,0,30.6724323738,-96.372513771,88.3910574836,"(0.0, 0.7426884770393372, 0.0, 0.0, 0.0, 0.0, 0.0, 0.0, 0.0)",0
2020/02/28/11:32:53.014423,24259,0,0,,0,0,30.6724326307,-96.3725137342,88.3886246388,"(0.0, 0.7434160113334656, 0.0, 0.0, 0.0, 0.0, 0.0, 0.0, 0.0)",0
2020/02/28/11:32:53.034483,24260,0,0,,0,0,30.6724328909,-96.3725136978,88.3862222861,"(0.0, 0.7441468834877014, 0.0, 0.0, 0.0, 0.0, 0.0, 0.0, 0.0)",0
2020/02/28/11:32:53.054382,24261,0,0,,0,0,30.6724331535,-96.3725136614,88.3838407476,"(0.0, 0.7448812127113342, 0.0, 0.0, 0.0, 0.0, 0.0, 0.0, 0.0)",0
2020/02/28/11:32:53.074374,24262,0,0,,0,0,30.6724334193,-96.3725136255,88.3814727555,"(0.0, 0.7456188797950745, 0.0, 0.0, 0.0, 0.0, 0.0, 0.0, 0.0)",0
2020/02/28/11:32:53.094487,24263,0,0,,0,0,30.6724336882,-96.372513589,88.3791546472,"(0.0, 0.7463599443435669, 0.0, 0.0, 0.0, 0.0, 0.0, 0.0, 0.0)",0
2020/02/28/11:32:53.114302,24264,0,0,,0,0,30.6724339593,-96.3725135529,88.3768727463,"(0.0, 0.7471045255661011, 0.0, 0.0, 0.0, 0.0, 0.0, 0.0, 0.0)",0
2020/02/28/11:32:53.134334,24265,0,0,,0,0,30.6724342349,-96.372513516,88.3746474837,"(0.0, 0.7478525638580322, 0.0, 0.0, 0.0, 0.0, 0.0, 0.0, 0.0)",0
2020/02/28/11:32:53.154354,24266,0,0,,0,0,30.6724345471,-96.3725134049,88.4177380386,"(0.0, 0.7399030923843384, 0.0, 0.0, 0.0, 0.0, 0.0, 0.0, 0.0)",0
2020/02/28/11:32:53.174332,24267,0,0,,0,0,30.6724348281,-96.3725133663,88.4157366513,"(0.0, 0.7406123876571655, 0.0, 0.0, 0.0, 0.0, 0.0, 0.0, 0.0)",0
2020/02/28/11:32:53.194344,24268,0,0,,0,0,30.6724351125,-96.3725133273,88.4137376514,"(0.0, 0.7413250207901001, 0.0, 0.0, 0.0, 0.0, 0.0, 0.0, 0.0)",0
2020/02/28/11:32:53.214282,24269,0,0,,0,0,30.6724353996,-96.3725132878,88.4117952699,"(0.0, 0.7420408725738525, 0.0, 0.0, 0.0, 0.0, 0.0, 0.0, 0.0)",0
2020/02/28/11:32:53.234322,24270,0,0,,0,0,30.6724356895,-96.3725132475,88.4097982349,"(0.0, 0.7427600622177124, 0.0, 0.0, 0.0, 0.0, 0.0, 0.0, 0.0)",0
2020/02/28/11:32:53.254414,24271,0,0,,0,0,30.6724359823,-96.3725132074,88.4078266304,"(0.0, 0.7434827089309692, 0.0, 0.0, 0.0, 0.0, 0.0, 0.0, 0.0)",0
2020/02/28/11:32:53.274297,24272,0,0,,0,0,30.6724362779,-96.3725131671,88.4058549972,"(0.0, 0.7442086338996887, 0.0, 0.0, 0.0, 0.0, 0.0, 0.0, 0.0)",0
2020/02/28/11:32:53.294395,24273,0,0,,0,0,30.6724365766,-96.3725131269,88.4038232155,"(0.0, 0.7449379563331604, 0.0, 0.0, 0.0, 0.0, 0.0, 0.0, 0.0)",0
2020/02/28/11:32:53.314319,24274,0,0,,0,0,30.6724368781,-96.3725130863,88.4020130921,"(0.0, 0.7456707954406738, 0.0, 0.0, 0.0, 0.0, 0.0, 0.0, 0.0)",0
2020/02/28/11:32:53.334244,24275,0,0,,0,0,30.6724369338,-96.3725131828,88.4468126777,"(0.0, 0.7380669116973877, 0.0, 0.0, 0.0, 0.0, 0.0, 0.0, 0.0)",0
2020/02/28/11:32:53.354322,24276,0,0,,0,0,30.672437238,-96.3725131422,88.4444773977,"(0.0, 0.7387636303901672, 0.0, 0.0, 0.0, 0.0, 0.0, 0.0, 0.0)",0
2020/02/28/11:32:53.374209,24277,0,0,,0,0,30.6724375453,-96.3725131011,88.4423472839,"(0.0, 0.7394635677337646, 0.0, 0.0, 0.0, 0.0, 0.0, 0.0, 0.0)",0
2020/02/28/11:32:53.394244,24278,0,0,,0,0,30.6724378555,-96.3725130584,88.4401751242,"(0.0, 0.7401668429374695, 0.0, 0.0, 0.0, 0.0, 0.0, 0.0, 0.0)",0
2020/02/28/11:32:53.414199,24279,0,0,,0,0,30.6724381691,-96.3725130156,88.438074725,"(0.0, 0.740873396396637, 0.0, 0.0, 0.0, 0.0, 0.0, 0.0, 0.0)",0
2020/02/28/11:32:53.434296,24280,0,0,,0,0,30.6724384843,-96.3725129726,88.4360085025,"(0.0, 0.7415833473205566, 0.0, 0.0, 0.0, 0.0, 0.0, 0.0, 0.0)",0
2020/02/28/11:32:53.454331,24281,0,0,,0,0,30.6724388037,-96.3725129307,88.4339346271,"(0.0, 0.742296576499939, 0.0, 0.0, 0.0, 0.0, 0.0, 0.0, 0.0)",0
2020/02/28/11:32:53.474258,24282,0,0,,0,0,30.6724391251,-96.3725128887,88.4320817587,"(0.0, 0.7430130839347839, 0.0, 0.0, 0.0, 0.0, 0.0, 0.0, 0.0)",0
2020/02/28/11:32:53.494272,24283,0,0,,0,0,30.6724394495,-96.372512847,88.4298511453,"(0.0, 0.7437331676483154, 0.0, 0.0, 0.0, 0.0, 0.0, 0.0, 0.0)",0
2020/02/28/11:32:53.514238,24284,0,0,,0,0,30.6724397773,-96.3725128053,88.4276598501,"(0.0, 0.7444565296173096, 0.0, 0.0, 0.0, 0.0, 0.0, 0.0, 0.0)",0
2020/02/28/11:32:53.534171,24285,0,0,,0,0,30.6724402767,-96.3725129843,88.4603404668,"(0.0, 0.736483097076416, 0.0, 0.0, 0.0, 0.0, 0.0, 0.0, 0.0)",0
2020/02/28/11:32:53.554185,24286,0,0,,0,0,30.6724406118,-96.3725129424,88.4581055315,"(0.0, 0.737166166305542, 0.0, 0.0, 0.0, 0.0, 0.0, 0.0, 0.0)",0
2020/02/28/11:32:53.574213,24287,0,0,,0,0,30.6724409505,-96.3725128999,88.4564394471,"(0.0, 0.7378523945808411, 0.0, 0.0, 0.0, 0.0, 0.0, 0.0, 0.0)",0
2020/02/28/11:32:53.594295,24288,0,0,,0,0,30.6724412917,-96.3725128569,88.4539876124,"(0.0, 0.7385419011116028, 0.0, 0.0, 0.0, 0.0, 0.0, 0.0, 0.0)",0
2020/02/28/11:32:53.614140,24289,0,0,,0,0,30.6724416361,-96.3725128136,88.4520065789,"(0.0, 0.7392346858978271, 0.0, 0.0, 0.0, 0.0, 0.0, 0.0, 0.0)",0
2020/02/28/11:32:53.634273,24290,0,0,,0,0,30.6724419833,-96.3725127702,88.4503106237,"(0.0, 0.7399307489395142, 0.0, 0.0, 0.0, 0.0, 0.0, 0.0, 0.0)",0
2020/02/28/11:32:53.654155,24291,0,0,,0,0,30.6724423334,-96.3725127276,88.4480714132,"(0.0, 0.740630030632019, 0.0, 0.0, 0.0, 0.0, 0.0, 0.0, 0.0)",0
2020/02/28/11:32:53.674084,24292,0,0,,0,0,30.6724426861,-96.3725126857,88.4462006758,"(0.0, 0.7413326501846313, 0.0, 0.0, 0.0, 0.0, 0.0, 0.0, 0.0)",0
2020/02/28/11:32:53.694154,24293,0,0,,0,0,30.672443042,-96.3725126447,88.4443034441,"(0.0, 0.7420387268066406, 0.0, 0.0, 0.0, 0.0, 0.0, 0.0, 0.0)",0
2020/02/28/11:32:53.714053,24294,0,0,,0,0,30.6724434004,-96.3725126032,88.4423323162,"(0.0, 0.7427483797073364, 0.0, 0.0, 0.0, 0.0, 0.0, 0.0, 0.0)",0
2020/02/28/11:32:53.734116,24295,0,0,,0,0,30.6724437302,-96.3725123977,88.4550400204,"(0.0, 0.7355378866195679, 0.0, 0.0, 0.0, 0.0, 0.0, 0.0, 0.0)",0
2020/02/28/11:32:53.754098,24296,0,0,,0,0,30.6724440931,-96.372512354,88.4529402573,"(0.0, 0.7362142205238342, 0.0, 0.0, 0.0, 0.0, 0.0, 0.0, 0.0)",0
2020/02/28/11:32:53.774159,24297,0,0,,0,0,30.6724444594,-96.3725123092,88.4506868999,"(0.0, 0.7368937730789185, 0.0, 0.0, 0.0, 0.0, 0.0, 0.0, 0.0)",0
2020/02/28/11:32:53.794226,24298,0,0,,0,0,30.6724448282,-96.3725122642,88.4484331561,"(0.0, 0.7375766038894653, 0.0, 0.0, 0.0, 0.0, 0.0, 0.0, 0.0)",0
2020/02/28/11:32:53.814133,24299,0,0,,0,0,30.6724451988,-96.3725122183,88.446288933,"(0.0, 0.7382626533508301, 0.0, 0.0, 0.0, 0.0, 0.0, 0.0, 0.0)",0
2020/02/28/11:32:53.834116,24300,0,0,,0,0,30.6724455712,-96.3725121713,88.444318397,"(0.0, 0.7389520406723022, 0.0, 0.0, 0.0, 0.0, 0.0, 0.0, 0.0)",0
2020/02/28/11:32:53.854074,24301,0,0,,0,0,30.6724459463,-96.3725121241,88.442609279,"(0.0, 0.7396447062492371, 0.0, 0.0, 0.0, 0.0, 0.0, 0.0, 0.0)",0
2020/02/28/11:32:53.874095,24302,0,0,,0,0,30.6724463235,-96.3725120764,88.4412365579,"(0.0, 0.7403407096862793, 0.0, 0.0, 0.0, 0.0, 0.0, 0.0, 0.0)",0
2020/02/28/11:32:53.894062,24303,0,0,,0,0,30.6724467028,-96.3725120286,88.4400327988,"(0.0, 0.7410401105880737, 0.0, 0.0, 0.0, 0.0, 0.0, 0.0, 0.0)",0
2020/02/28/11:32:53.914174,24304,0,0,,0,0,30.6724470847,-96.3725119807,88.4389970237,"(0.0, 0.7417429089546204, 0.0, 0.0, 0.0, 0.0, 0.0, 0.0, 0.0)",0
2020/02/28/11:32:53.934058,24305,0,0,,0,0,30.6724476067,-96.3725120046,88.4545773682,"(0.0, 0.7341193556785583, 0.0, 0.0, 0.0, 0.0, 0.0, 0.0, 0.0)",0
2020/02/28/11:32:53.954039,24306,0,0,,0,0,30.6724479945,-96.3725119582,88.4536249181,"(0.0, 0.7347843050956726, 0.0, 0.0, 0.0, 0.0, 0.0, 0.0, 0.0)",0
2020/02/28/11:32:53.974063,24307,0,0,,0,0,30.6724483846,-96.3725119096,88.4525373206,"(0.0, 0.73545241355896, 0.0, 0.0, 0.0, 0.0, 0.0, 0.0, 0.0)",0
2020/02/28/11:32:53.994062,24308,0,0,,0,0,30.6724487768,-96.3725118625,88.4513110192,"(0.0, 0.73612380027771, 0.0, 0.0, 0.0, 0.0, 0.0, 0.0, 0.0)",0
2020/02/28/11:32:54.014101,24309,0,0,,0,0,30.6724491713,-96.3725118134,88.4496926726,"(0.0, 0.7367984056472778, 0.0, 0.0, 0.0, 0.0, 0.0, 0.0, 0.0)",0
2020/02/28/11:32:54.034018,24310,0,0,,0,0,30.6724495675,-96.3725117628,88.4476175359,"(0.0, 0.7374762296676636, 0.0, 0.0, 0.0, 0.0, 0.0, 0.0, 0.0)",0
2020/02/28/11:32:54.054118,24311,0,0,,0,0,30.6724499664,-96.3725117125,88.4457180873,"(0.0, 0.7381573915481567, 0.0, 0.0, 0.0, 0.0, 0.0, 0.0, 0.0)",0
2020/02/28/11:32:54.073977,24312,0,0,,0,0,30.6724503663,-96.3725116603,88.4432143816,"(0.0, 0.7388418912887573, 0.0, 0.0, 0.0, 0.0, 0.0, 0.0, 0.0)",0
2020/02/28/11:32:54.094108,24313,0,0,,0,0,30.6724507676,-96.3725116088,88.4405922741,"(0.0, 0.7395296692848206, 0.0, 0.0, 0.0, 0.0, 0.0, 0.0, 0.0)",0
2020/02/28/11:32:54.114003,24314,0,0,,0,0,30.6724511707,-96.3725115572,88.4372239239,"(0.0, 0.7402207851409912, 0.0, 0.0, 0.0, 0.0, 0.0, 0.0, 0.0)",0
2020/02/28/11:32:54.133970,24315,0,0,,0,0,30.6724515753,-96.3725115066,88.4343086523,"(0.0, 0.7409152984619141, 0.0, 0.0, 0.0, 0.0, 0.0, 0.0, 0.0)",0
2020/02/28/11:32:54.154060,24316,0,0,,0,0,30.6724520507,-96.3725114209,88.4479064094,"(0.0, 0.7338590025901794, 0.0, 0.0, 0.0, 0.0, 0.0, 0.0, 0.0)",0
2020/02/28/11:32:54.173932,24317,0,0,,0,0,30.6724524593,-96.3725113723,88.4446794274,"(0.0, 0.7345214486122131, 0.0, 0.0, 0.0, 0.0, 0.0, 0.0, 0.0)",0
2020/02/28/11:32:54.193939,24318,0,0,,0,0,30.6724528699,-96.3725113236,88.4417348988,"(0.0, 0.7351869344711304, 0.0, 0.0, 0.0, 0.0, 0.0, 0.0, 0.0)",0
2020/02/28/11:32:54.213973,24319,0,0,,0,0,30.6724532837,-96.372511275,88.4395481087,"(0.0, 0.7358558177947998, 0.0, 0.0, 0.0, 0.0, 0.0, 0.0, 0.0)",0
2020/02/28/11:32:54.234080,24320,0,0,,0,0,30.6724536978,-96.3725112257,88.4367995206,"(0.0, 0.7365279197692871, 0.0, 0.0, 0.0, 0.0, 0.0, 0.0, 0.0)",0
2020/02/28/11:32:54.253902,24321,0,0,,0,0,30.6724541134,-96.3725111747,88.4351739818,"(0.0, 0.7372033596038818, 0.0, 0.0, 0.0, 0.0, 0.0, 0.0, 0.0)",0
2020/02/28/11:32:54.273908,24322,0,0,,0,0,30.6724545312,-96.3725111225,88.4330057404,"(0.0, 0.7378820776939392, 0.0, 0.0, 0.0, 0.0, 0.0, 0.0, 0.0)",0
2020/02/28/11:32:54.293885,24323,0,0,,0,0,30.6724549499,-96.3725110696,88.4309778409,"(0.0, 0.7385641932487488, 0.0, 0.0, 0.0, 0.0, 0.0, 0.0, 0.0)",0
2020/02/28/11:32:54.313958,24324,0,0,,0,0,30.672455371,-96.3725110158,88.4292492541,"(0.0, 0.7392496466636658, 0.0, 0.0, 0.0, 0.0, 0.0, 0.0, 0.0)",0
2020/02/28/11:32:54.333897,24325,0,0,,0,0,30.6724560636,-96.3725107068,88.4138652384,"(0.0, 0.739766001701355, 0.0, 0.0, 0.0, 0.0, 0.0, 0.0, 0.0)",0
2020/02/28/11:32:54.353889,24326,0,0,,0,0,30.6724564925,-96.3725106495,88.4115509936,"(0.0, 0.7327151298522949, 0.0, 0.0, 0.0, 0.0, 0.0, 0.0, 0.0)",0
2020/02/28/11:32:54.373901,24327,0,0,,0,0,30.6724569217,-96.3725105934,88.4093026691,"(0.0, 0.733369767665863, 0.0, 0.0, 0.0, 0.0, 0.0, 0.0, 0.0)",0
2020/02/28/11:32:54.393981,24328,0,0,,0,0,30.6724573538,-96.3725105389,88.4070628802,"(0.0, 0.7340275645256042, 0.0, 0.0, 0.0, 0.0, 0.0, 0.0, 0.0)",0
2020/02/28/11:32:54.413976,24329,0,0,,0,0,30.6724577876,-96.372510485,88.4048762568,"(0.0, 0.7346886992454529, 0.0, 0.0, 0.0, 0.0, 0.0, 0.0, 0.0)",0
2020/02/28/11:32:54.433872,24330,0,0,,0,0,30.6724582227,-96.372510432,88.4022659208,"(0.0, 0.7353529930114746, 0.0, 0.0, 0.0, 0.0, 0.0, 0.0, 0.0)",0
2020/02/28/11:32:54.454893,24331,0,0,,0,0,30.6724586585,-96.3725103796,88.3999012844,"(0.0, 0.7360206246376038, 0.0, 0.0, 0.0, 0.0, 0.0, 0.0, 0.0)",0
2020/02/28/11:32:54.473901,24332,0,0,,0,0,30.6724590954,-96.3725103274,88.3977786414,"(0.0, 0.7366915941238403, 0.0, 0.0, 0.0, 0.0, 0.0, 0.0, 0.0)",0
2020/02/28/11:32:54.493915,24333,0,0,,0,0,30.6724595343,-96.3725102759,88.3960187286,"(0.0, 0.7373659014701843, 0.0, 0.0, 0.0, 0.0, 0.0, 0.0, 0.0)",0
2020/02/28/11:32:54.513837,24334,0,0,,0,0,30.6724599734,-96.3725102237,88.3938682307,"(0.0, 0.7380435466766357, 0.0, 0.0, 0.0, 0.0, 0.0, 0.0, 0.0)",0
2020/02/28/11:32:54.534228,24335,0,0,,0,0,30.6724603222,-96.3725100548,88.3951135403,"(0.0, 0.7313962578773499, 0.0, 0.0, 0.0, 0.0, 0.0, 0.0, 0.0)",0
2020/02/28/11:32:54.554886,24336,0,0,,0,0,30.672460763,-96.3725099999,88.393113771,"(0.0, 0.7320451736450195, 0.0, 0.0, 0.0, 0.0, 0.0, 0.0, 0.0)",0
2020/02/28/11:32:54.574796,24337,0,0,,0,0,30.6724612054,-96.3725099442,88.3911614008,"(0.0, 0.7326971888542175, 0.0, 0.0, 0.0, 0.0, 0.0, 0.0, 0.0)",0
2020/02/28/11:32:54.594895,24338,0,0,,0,0,30.6724616488,-96.3725098881,88.3893283112,"(0.0, 0.7333524823188782, 0.0, 0.0, 0.0, 0.0, 0.0, 0.0, 0.0)",0
2020/02/28/11:32:54.613838,24339,0,0,,0,0,30.6724620933,-96.3725098313,88.3874863544,"(0.0, 0.7340111136436462, 0.0, 0.0, 0.0, 0.0, 0.0, 0.0, 0.0)",0
2020/02/28/11:32:54.634866,24340,0,0,,0,0,30.6724625385,-96.3725097743,88.3852544217,"(0.0, 0.7346729636192322, 0.0, 0.0, 0.0, 0.0, 0.0, 0.0, 0.0)",0
2020/02/28/11:32:54.654858,24341,0,0,,0,0,30.6724629847,-96.3725097167,88.3834801586,"(0.0, 0.7353381514549255, 0.0, 0.0, 0.0, 0.0, 0.0, 0.0, 0.0)",0
2020/02/28/11:32:54.674753,24342,0,0,,0,0,30.6724634319,-96.3725096595,88.3808230306,"(0.0, 0.7360066771507263, 0.0, 0.0, 0.0, 0.0, 0.0, 0.0, 0.0)",0
2020/02/28/11:32:54.694747,24343,0,0,,0,0,30.6724638803,-96.3725096022,88.3785847784,"(0.0, 0.7366785407066345, 0.0, 0.0, 0.0, 0.0, 0.0, 0.0, 0.0)",0
2020/02/28/11:32:54.714745,24344,0,0,,0,0,30.6724643295,-96.3725095452,88.3757888689,"(0.0, 0.7373538613319397, 0.0, 0.0, 0.0, 0.0, 0.0, 0.0, 0.0)",0
2020/02/28/11:32:54.734852,24345,0,0,,0,0,30.6724647828,-96.3725094681,88.3994354587,"(0.0, 0.7378625273704529, 0.0, 0.0, 0.0, 0.0, 0.0, 0.0, 0.0)",0
2020/02/28/11:32:54.754889,24346,0,0,,0,0,30.6724652339,-96.3725094113,88.3968198653,"(0.0, 0.7309685945510864, 0.0, 0.0, 0.0, 0.0, 0.0, 0.0, 0.0)",0
2020/02/28/11:32:54.774825,24347,0,0,,0,0,30.6724656866,-96.3725093549,88.3944732714,"(0.0, 0.7316137552261353, 0.0, 0.0, 0.0, 0.0, 0.0, 0.0, 0.0)",0
2020/02/28/11:32:54.794863,24348,0,0,,0,0,30.67246614,-96.3725092987,88.3922357783,"(0.0, 0.732262134552002, 0.0, 0.0, 0.0, 0.0, 0.0, 0.0, 0.0)",0
2020/02/28/11:32:54.814705,24349,0,0,,0,0,30.6724665936,-96.3725092422,88.3900243929,"(0.0, 0.7329137325286865, 0.0, 0.0, 0.0, 0.0, 0.0, 0.0, 0.0)",0
2020/02/28/11:32:54.834731,24350,0,0,,0,0,30.6724670487,-96.372509185,88.3879231974,"(0.0, 0.7335686683654785, 0.0, 0.0, 0.0, 0.0, 0.0, 0.0, 0.0)",0
2020/02/28/11:32:54.854746,24351,0,0,,0,0,30.6724675041,-96.3725091267,88.3859482249,"(0.0, 0.7342268824577332, 0.0, 0.0, 0.0, 0.0, 0.0, 0.0, 0.0)",0
2020/02/28/11:32:54.874695,24352,0,0,,0,0,30.6724679603,-96.3725090675,88.3844360621,"(0.0, 0.7348884344100952, 0.0, 0.0, 0.0, 0.0, 0.0, 0.0, 0.0)",0
2020/02/28/11:32:54.894793,24353,0,0,,0,0,30.6724684174,-96.3725090073,88.3820847464,"(0.0, 0.7355533242225647, 0.0, 0.0, 0.0, 0.0, 0.0, 0.0, 0.0)",0
2020/02/28/11:32:54.914683,24354,0,0,,0,0,30.6724688748,-96.3725089463,88.3804451721,"(0.0, 0.7362216114997864, 0.0, 0.0, 0.0, 0.0, 0.0, 0.0, 0.0)",0
2020/02/28/11:32:54.934767,24355,0,0,,0,0,30.6724693327,-96.372508885,88.3784178784,"(0.0, 0.7367250323295593, 0.0, 0.0, 0.0, 0.0, 0.0, 0.0, 0.0)",0
2020/02/28/11:32:54.954747,24356,0,0,,0,0,30.6724697363,-96.3725089159,88.3866235828,"(0.0, 0.7302373647689819, 0.0, 0.0, 0.0, 0.0, 0.0, 0.0, 0.0)",0
2020/02/28/11:32:54.974806,24357,0,0,,0,0,30.6724701954,-96.3725088559,88.3846789883,"(0.0, 0.7308792471885681, 0.0, 0.0, 0.0, 0.0, 0.0, 0.0, 0.0)",0
2020/02/28/11:32:54.994676,24358,0,0,,0,0,30.6724706551,-96.3725087965,88.3827396333,"(0.0, 0.7315244078636169, 0.0, 0.0, 0.0, 0.0, 0.0, 0.0, 0.0)",0
2020/02/28/11:32:55.014734,24359,0,0,,0,0,30.672471115,-96.3725087377,88.3812815761,"(0.0, 0.7321729063987732, 0.0, 0.0, 0.0, 0.0, 0.0, 0.0, 0.0)",0
2020/02/28/11:32:55.034667,24360,0,0,,0,0,30.6724715764,-96.3725086789,88.3791897036,"(0.0, 0.7328246831893921, 0.0, 0.0, 0.0, 0.0, 0.0, 0.0, 0.0)",0
2020/02/28/11:32:55.054748,24361,0,0,,0,0,30.6724720375,-96.3725086192,88.377327614,"(0.0, 0.7334797382354736, 0.0, 0.0, 0.0, 0.0, 0.0, 0.0, 0.0)",0
2020/02/28/11:32:55.074693,24362,0,0,,0,0,30.672472499,-96.372508558,88.3757951846,"(0.0, 0.7341381907463074, 0.0, 0.0, 0.0, 0.0, 0.0, 0.0, 0.0)",0
2020/02/28/11:32:55.094607,24363,0,0,,0,0,30.6724729608,-96.3725084951,88.3739210488,"(0.0, 0.7348000407218933, 0.0, 0.0, 0.0, 0.0, 0.0, 0.0, 0.0)",0
2020/02/28/11:32:55.114745,24364,0,0,,0,0,30.672473423,-96.3725084318,88.3723835354,"(0.0, 0.7354651689529419, 0.0, 0.0, 0.0, 0.0, 0.0, 0.0, 0.0)",0
2020/02/28/11:32:55.134742,24365,0,0,,0,0,30.6724738856,-96.3725083678,88.370476407,"(0.0, 0.7359663248062134, 0.0, 0.0, 0.0, 0.0, 0.0, 0.0, 0.0)",0
2020/02/28/11:32:55.154614,24366,0,0,,0,0,30.6724741445,-96.3725081987,88.3692163401,"(0.0, 0.7295840382575989, 0.0, 0.0, 0.0, 0.0, 0.0, 0.0, 0.0)",0
2020/02/28/11:32:55.174664,24367,0,0,,0,0,30.6724746064,-96.3725081349,88.3672402627,"(0.0, 0.7302232980728149, 0.0, 0.0, 0.0, 0.0, 0.0, 0.0, 0.0)",0
2020/02/28/11:32:55.194673,24368,0,0,,0,0,30.6724750688,-96.3725080715,88.364727729,"(0.0, 0.7308658957481384, 0.0, 0.0, 0.0, 0.0, 0.0, 0.0, 0.0)",0
2020/02/28/11:32:55.214655,24369,0,0,,0,0,30.6724755311,-96.3725080085,88.3624385484,"(0.0, 0.7315118312835693, 0.0, 0.0, 0.0, 0.0, 0.0, 0.0, 0.0)",0
2020/02/28/11:32:55.234735,24370,0,0,,0,0,30.6724759944,-96.372507945,88.3604081036,"(0.0, 0.7321609258651733, 0.0, 0.0, 0.0, 0.0, 0.0, 0.0, 0.0)",0
2020/02/28/11:32:55.254584,24371,0,0,,0,0,30.6724764568,-96.3725078802,88.3581535625,"(0.0, 0.7328134775161743, 0.0, 0.0, 0.0, 0.0, 0.0, 0.0, 0.0)",0
2020/02/28/11:32:55.274537,24372,0,0,,0,0,30.6724769187,-96.3725078144,88.3562636124,"(0.0, 0.7334693670272827, 0.0, 0.0, 0.0, 0.0, 0.0, 0.0, 0.0)",0
2020/02/28/11:32:55.294636,24373,0,0,,0,0,30.6724773805,-96.3725077474,88.3544273237,"(0.0, 0.7341286540031433, 0.0, 0.0, 0.0, 0.0, 0.0, 0.0, 0.0)",0
2020/02/28/11:32:55.314644,24374,0,0,,0,0,30.6724778417,-96.3725076788,88.3528225827,"(0.0, 0.7347913384437561, 0.0, 0.0, 0.0, 0.0, 0.0, 0.0, 0.0)",0
2020/02/28/11:32:55.334625,24375,0,0,,0,0,30.6724784535,-96.3725077418,88.3759761974,"(0.0, 0.7280979752540588, 0.0, 0.0, 0.0, 0.0, 0.0, 0.0, 0.0)",0
2020/02/28/11:32:55.354552,24376,0,0,,0,0,30.6724789161,-96.3725076744,88.37457318,"(0.0, 0.7287290096282959, 0.0, 0.0, 0.0, 0.0, 0.0, 0.0, 0.0)",0
2020/02/28/11:32:55.374655,24377,0,0,,0,0,30.6724793798,-96.3725076068,88.3732428588,"(0.0, 0.7293632626533508, 0.0, 0.0, 0.0, 0.0, 0.0, 0.0, 0.0)",0
2020/02/28/11:32:55.394520,24378,0,0,,0,0,30.6724798434,-96.3725075399,88.3718096744,"(0.0, 0.7300008535385132, 0.0, 0.0, 0.0, 0.0, 0.0, 0.0, 0.0)",0
2020/02/28/11:32:55.414518,24379,0,0,,0,0,30.6724803077,-96.3725074737,88.3702947847,"(0.0, 0.7306417226791382, 0.0, 0.0, 0.0, 0.0, 0.0, 0.0, 0.0)",0
2020/02/28/11:32:55.434524,24380,0,0,,0,0,30.6724807726,-96.3725074084,88.3687299471,"(0.0, 0.7312858700752258, 0.0, 0.0, 0.0, 0.0, 0.0, 0.0, 0.0)",0
2020/02/28/11:32:55.454554,24381,0,0,,0,0,30.6724812376,-96.3725073429,88.3667048318,"(0.0, 0.7319333553314209, 0.0, 0.0, 0.0, 0.0, 0.0, 0.0, 0.0)",0
2020/02/28/11:32:55.474523,24382,0,0,,0,0,30.6724817031,-96.3725072781,88.3648329116,"(0.0, 0.7325842380523682, 0.0, 0.0, 0.0, 0.0, 0.0, 0.0, 0.0)",0
2020/02/28/11:32:55.494554,24383,0,0,,0,0,30.6724821689,-96.372507213,88.3626857046,"(0.0, 0.7332384586334229, 0.0, 0.0, 0.0, 0.0, 0.0, 0.0, 0.0)",0
2020/02/28/11:32:55.514500,24384,0,0,,0,0,30.6724826355,-96.3725071479,88.3602319905,"(0.0, 0.7338960766792297, 0.0, 0.0, 0.0, 0.0, 0.0, 0.0, 0.0)",0
2020/02/28/11:32:55.534479,24385,0,0,,0,0,30.6724829494,-96.3725070924,88.3723358512,"(0.0, 0.7343915700912476, 0.0, 0.0, 0.0, 0.0, 0.0, 0.0, 0.0)",0
2020/02/28/11:32:55.554602,24386,0,0,,0,0,30.6724834146,-96.3725070275,88.369576762,"(0.0, 0.7285988926887512, 0.0, 0.0, 0.0, 0.0, 0.0, 0.0, 0.0)",0
2020/02/28/11:32:55.574482,24387,0,0,,0,0,30.6724838806,-96.3725069603,88.367057031,"(0.0, 0.7292357683181763, 0.0, 0.0, 0.0, 0.0, 0.0, 0.0, 0.0)",0
