time,.header.seq,.header.stamp.secs,.header.stamp.nsecs,.header.frame_id,.status.status,.status.service,.latitude,.longitude,.altitude,.position_covariance,.position_covariance_type
2019/02/01/15:55:50.504177,7398,0,0,,0,0,30.6243841068,-96.3364299139,71.6171617843,"(0.0, 0.7558674812316895, 0.0, 0.0, 0.0, 0.0, 0.0, 0.0, 0.0)",0
2019/02/01/15:55:50.524088,7399,0,0,,0,0,30.6243841055,-96.3364299115,71.6196921391,"(0.0, 0.7567315697669983, 0.0, 0.0, 0.0, 0.0, 0.0, 0.0, 0.0)",0
2019/02/01/15:55:50.544239,7400,0,0,,0,0,30.6243840986,-96.3364299224,71.6007970377,"(0.0, 0.7576003670692444, 0.0, 0.0, 0.0, 0.0, 0.0, 0.0, 0.0)",0
2019/02/01/15:55:50.564231,7401,0,0,,0,0,30.6243840974,-96.3364299216,71.6032077359,"(0.0, 0.7512878775596619, 0.0, 0.0, 0.0, 0.0, 0.0, 0.0, 0.0)",0
2019/02/01/15:55:50.584463,7402,0,0,,0,0,30.6243840965,-96.3364299191,71.605686455,"(0.0, 0.7521308064460754, 0.0, 0.0, 0.0, 0.0, 0.0, 0.0, 0.0)",0
2019/02/01/15:55:50.604098,7403,0,0,,0,0,30.6243840955,-96.3364299163,71.6081943567,"(0.0, 0.7529783844947815, 0.0, 0.0, 0.0, 0.0, 0.0, 0.0, 0.0)",0
2019/02/01/15:55:50.624108,7404,0,0,,0,0,30.624384094,-96.3364299145,71.6106526027,"(0.0, 0.7538307309150696, 0.0, 0.0, 0.0, 0.0, 0.0, 0.0, 0.0)",0
2019/02/01/15:55:50.644130,7405,0,0,,0,0,30.6243840937,-96.3364299116,71.6130889091,"(0.0, 0.7546878457069397, 0.0, 0.0, 0.0, 0.0, 0.0, 0.0, 0.0)",0
2019/02/01/15:55:50.664000,7406,0,0,,0,0,30.6243840922,-96.3364299098,71.6156468653,"(0.0, 0.7555498480796814, 0.0, 0.0, 0.0, 0.0, 0.0, 0.0, 0.0)",0
2019/02/01/15:55:50.685000,7407,0,0,,0,0,30.6243840915,-96.336429908,71.6180999205,"(0.0, 0.7564165592193604, 0.0, 0.0, 0.0, 0.0, 0.0, 0.0, 0.0)",0
2019/02/01/15:55:50.703924,7408,0,0,,0,0,30.6243840905,-96.3364299052,71.6205988155,"(0.0, 0.7572881579399109, 0.0, 0.0, 0.0, 0.0, 0.0, 0.0, 0.0)",0
2019/02/01/15:55:50.724203,7409,0,0,,0,0,30.6243840888,-96.3364299032,71.623133629,"(0.0, 0.7581647634506226, 0.0, 0.0, 0.0, 0.0, 0.0, 0.0, 0.0)",0
2019/02/01/15:55:50.743750,7410,0,0,,0,0,30.624384088,-96.3364299003,71.6256407966,"(0.0, 0.7590463161468506, 0.0, 0.0, 0.0, 0.0, 0.0, 0.0, 0.0)",0
2019/02/01/15:55:50.763769,7411,0,0,,0,0,30.6243840797,-96.3364299435,71.6023496008,"(0.0, 0.7506672739982605, 0.0, 0.0, 0.0, 0.0, 0.0, 0.0, 0.0)",0
2019/02/01/15:55:50.783708,7412,0,0,,0,0,30.6243840786,-96.3364299425,71.6047768021,"(0.0, 0.7514984011650085, 0.0, 0.0, 0.0, 0.0, 0.0, 0.0, 0.0)",0
2019/02/01/15:55:50.803773,7413,0,0,,0,0,30.6243840778,-96.3364299408,71.6072137542,"(0.0, 0.7523341178894043, 0.0, 0.0, 0.0, 0.0, 0.0, 0.0, 0.0)",0
2019/02/01/15:55:50.823802,7414,0,0,,0,0,30.6243840766,-96.3364299388,71.6096823774,"(0.0, 0.7531744837760925, 0.0, 0.0, 0.0, 0.0, 0.0, 0.0, 0.0)",0
2019/02/01/15:55:50.843623,7415,0,0,,0,0,30.6243840758,-96.3364299377,71.6120777875,"(0.0, 0.7540196180343628, 0.0, 0.0, 0.0, 0.0, 0.0, 0.0, 0.0)",0
2019/02/01/15:55:50.863806,7416,0,0,,0,0,30.6243840745,-96.336429935,71.6145835053,"(0.0, 0.754869282245636, 0.0, 0.0, 0.0, 0.0, 0.0, 0.0, 0.0)",0
2019/02/01/15:55:50.883599,7417,0,0,,0,0,30.6243840737,-96.3364299339,71.6169562477,"(0.0, 0.755723774433136, 0.0, 0.0, 0.0, 0.0, 0.0, 0.0, 0.0)",0
2019/02/01/15:55:50.903573,7418,0,0,,0,0,30.6243840723,-96.3364299317,71.6195151135,"(0.0, 0.7565829753875732, 0.0, 0.0, 0.0, 0.0, 0.0, 0.0, 0.0)",0
2019/02/01/15:55:50.923521,7419,0,0,,0,0,30.6243840711,-96.3364299298,71.6219973441,"(0.0, 0.7574470043182373, 0.0, 0.0, 0.0, 0.0, 0.0, 0.0, 0.0)",0
2019/02/01/15:55:50.943445,7420,0,0,,0,0,30.6243840249,-96.3364299081,71.6049914695,"(0.0, 0.7494914531707764, 0.0, 0.0, 0.0, 0.0, 0.0, 0.0, 0.0)",0
2019/02/01/15:55:50.963522,7421,0,0,,0,0,30.6243840239,-96.3364299071,71.6074397833,"(0.0, 0.7503106594085693, 0.0, 0.0, 0.0, 0.0, 0.0, 0.0, 0.0)",0
2019/02/01/15:55:50.983384,7422,0,0,,0,0,30.6243840221,-96.3364299051,71.609920117,"(0.0, 0.7511342763900757, 0.0, 0.0, 0.0, 0.0, 0.0, 0.0, 0.0)",0
2019/02/01/15:55:51.003381,7423,0,0,,0,0,30.6243840209,-96.3364299035,71.6123580913,"(0.0, 0.751962423324585, 0.0, 0.0, 0.0, 0.0, 0.0, 0.0, 0.0)",0
2019/02/01/15:55:51.024396,7424,0,0,,0,0,30.6243840193,-96.3364299025,71.6147685578,"(0.0, 0.7527951002120972, 0.0, 0.0, 0.0, 0.0, 0.0, 0.0, 0.0)",0
2019/02/01/15:55:51.044369,7425,0,0,,0,0,30.624384018,-96.3364299,71.617262431,"(0.0, 0.7536324262619019, 0.0, 0.0, 0.0, 0.0, 0.0, 0.0, 0.0)",0
2019/02/01/15:55:51.064372,7426,0,0,,0,0,30.6243840166,-96.3364298982,71.6197083929,"(0.0, 0.7544742226600647, 0.0, 0.0, 0.0, 0.0, 0.0, 0.0, 0.0)",0
2019/02/01/15:55:51.084367,7427,0,0,,0,0,30.6243840153,-96.3364298973,71.6222077063,"(0.0, 0.7553208470344543, 0.0, 0.0, 0.0, 0.0, 0.0, 0.0, 0.0)",0
2019/02/01/15:55:51.104306,7428,0,0,,0,0,30.6243840136,-96.336429896,71.6246893296,"(0.0, 0.7561721205711365, 0.0, 0.0, 0.0, 0.0, 0.0, 0.0, 0.0)",0
2019/02/01/15:55:51.124248,7429,0,0,,0,0,30.6243840125,-96.336429894,71.6271735386,"(0.0, 0.7570281028747559, 0.0, 0.0, 0.0, 0.0, 0.0, 0.0, 0.0)",0
2019/02/01/15:55:51.144221,7430,0,0,,0,0,30.6243839953,-96.3364298571,71.6202514552,"(0.0, 0.7504751682281494, 0.0, 0.0, 0.0, 0.0, 0.0, 0.0, 0.0)",0
2019/02/01/15:55:51.164240,7431,0,0,,0,0,30.6243839945,-96.3364298553,71.6227259995,"(0.0, 0.7513033151626587, 0.0, 0.0, 0.0, 0.0, 0.0, 0.0, 0.0)",0
2019/02/01/15:55:51.184508,7432,0,0,,0,0,30.6243839922,-96.3364298539,71.6251632685,"(0.0, 0.7521361112594604, 0.0, 0.0, 0.0, 0.0, 0.0, 0.0, 0.0)",0
2019/02/01/15:55:51.204340,7433,0,0,,0,0,30.6243839913,-96.3364298523,71.6276987227,"(0.0, 0.7529734373092651, 0.0, 0.0, 0.0, 0.0, 0.0, 0.0, 0.0)",0
2019/02/01/15:55:51.224267,7434,0,0,,0,0,30.6243839901,-96.3364298509,71.6302010045,"(0.0, 0.7538153529167175, 0.0, 0.0, 0.0, 0.0, 0.0, 0.0, 0.0)",0
2019/02/01/15:55:51.244038,7435,0,0,,0,0,30.6243839884,-96.3364298488,71.6327026849,"(0.0, 0.7546619176864624, 0.0, 0.0, 0.0, 0.0, 0.0, 0.0, 0.0)",0
2019/02/01/15:55:51.264124,7436,0,0,,0,0,30.6243839874,-96.3364298478,71.6351672068,"(0.0, 0.7555132508277893, 0.0, 0.0, 0.0, 0.0, 0.0, 0.0, 0.0)",0
2019/02/01/15:55:51.284071,7437,0,0,,0,0,30.6243839856,-96.3364298457,71.637688959,"(0.0, 0.7563692331314087, 0.0, 0.0, 0.0, 0.0, 0.0, 0.0, 0.0)",0
2019/02/01/15:55:51.304138,7438,0,0,,0,0,30.624383985,-96.3364298438,71.6402474362,"(0.0, 0.7572299242019653, 0.0, 0.0, 0.0, 0.0, 0.0, 0.0, 0.0)",0
2019/02/01/15:55:51.323947,7439,0,0,,0,0,30.6243839831,-96.3364298417,71.6427658016,"(0.0, 0.7580954432487488, 0.0, 0.0, 0.0, 0.0, 0.0, 0.0, 0.0)",0
2019/02/01/15:55:51.343917,7440,0,0,,0,0,30.6243839507,-96.3364297545,71.6290248328,"(0.0, 0.7504144310951233, 0.0, 0.0, 0.0, 0.0, 0.0, 0.0, 0.0)",0
2019/02/01/15:55:51.363920,7441,0,0,,0,0,30.6243839495,-96.3364297523,71.6314719424,"(0.0, 0.7512390613555908, 0.0, 0.0, 0.0, 0.0, 0.0, 0.0, 0.0)",0
2019/02/01/15:55:51.383983,7442,0,0,,0,0,30.6243839475,-96.3364297498,71.633998383,"(0.0, 0.7520682215690613, 0.0, 0.0, 0.0, 0.0, 0.0, 0.0, 0.0)",0
2019/02/01/15:55:51.403926,7443,0,0,,0,0,30.6243839462,-96.3364297474,71.6364509073,"(0.0, 0.7529018521308899, 0.0, 0.0, 0.0, 0.0, 0.0, 0.0, 0.0)",0
2019/02/01/15:55:51.423855,7444,0,0,,0,0,30.6243839443,-96.3364297449,71.6389685544,"(0.0, 0.753740131855011, 0.0, 0.0, 0.0, 0.0, 0.0, 0.0, 0.0)",0
2019/02/01/15:55:51.443822,7445,0,0,,0,0,30.6243839427,-96.3364297427,71.6414368447,"(0.0, 0.7545830011367798, 0.0, 0.0, 0.0, 0.0, 0.0, 0.0, 0.0)",0
2019/02/01/15:55:51.463832,7446,0,0,,0,0,30.6243839408,-96.3364297404,71.6439250909,"(0.0, 0.7554304599761963, 0.0, 0.0, 0.0, 0.0, 0.0, 0.0, 0.0)",0
2019/02/01/15:55:51.483828,7447,0,0,,0,0,30.6243839389,-96.3364297377,71.6463675122,"(0.0, 0.75628262758255, 0.0, 0.0, 0.0, 0.0, 0.0, 0.0, 0.0)",0
2019/02/01/15:55:51.503854,7448,0,0,,0,0,30.6243839373,-96.3364297355,71.6489836659,"(0.0, 0.7571395039558411, 0.0, 0.0, 0.0, 0.0, 0.0, 0.0, 0.0)",0
2019/02/01/15:55:51.523623,7449,0,0,,0,0,30.6243839353,-96.3364297324,71.6515431027,"(0.0, 0.7580010890960693, 0.0, 0.0, 0.0, 0.0, 0.0, 0.0, 0.0)",0
2019/02/01/15:55:51.543587,7450,0,0,,0,0,30.6243839177,-96.3364296993,71.6350544666,"(0.0, 0.7514442801475525, 0.0, 0.0, 0.0, 0.0, 0.0, 0.0, 0.0)",0
2019/02/01/15:55:51.563858,7451,0,0,,0,0,30.6243839162,-96.3364296964,71.6374943285,"(0.0, 0.7522786855697632, 0.0, 0.0, 0.0, 0.0, 0.0, 0.0, 0.0)",0
2019/02/01/15:55:51.583748,7452,0,0,,0,0,30.6243839145,-96.3364296937,71.6399174521,"(0.0, 0.753117561340332, 0.0, 0.0, 0.0, 0.0, 0.0, 0.0, 0.0)",0
2019/02/01/15:55:51.603729,7453,0,0,,0,0,30.6243839129,-96.3364296907,71.6423899744,"(0.0, 0.7539610862731934, 0.0, 0.0, 0.0, 0.0, 0.0, 0.0, 0.0)",0
2019/02/01/15:55:51.623518,7454,0,0,,0,0,30.6243839117,-96.3364296879,71.6448711287,"(0.0, 0.7548092007637024, 0.0, 0.0, 0.0, 0.0, 0.0, 0.0, 0.0)",0
2019/02/01/15:55:51.643552,7455,0,0,,0,0,30.6243839103,-96.3364296853,71.6473813126,"(0.0, 0.7556621432304382, 0.0, 0.0, 0.0, 0.0, 0.0, 0.0, 0.0)",0
2019/02/01/15:55:51.663400,7456,0,0,,0,0,30.6243839088,-96.3364296832,71.6498423968,"(0.0, 0.7565197348594666, 0.0, 0.0, 0.0, 0.0, 0.0, 0.0, 0.0)",0
2019/02/01/15:55:51.683849,7457,0,0,,0,0,30.6243839072,-96.3364296798,71.6523876529,"(0.0, 0.7573820352554321, 0.0, 0.0, 0.0, 0.0, 0.0, 0.0, 0.0)",0
2019/02/01/15:55:51.704388,7458,0,0,,0,0,30.6243839054,-96.3364296765,71.6548691136,"(0.0, 0.7582491636276245, 0.0, 0.0, 0.0, 0.0, 0.0, 0.0, 0.0)",0
2019/02/01/15:55:51.724626,7459,0,0,,0,0,30.6243839038,-96.3364296744,71.6574292823,"(0.0, 0.7591210603713989, 0.0, 0.0, 0.0, 0.0, 0.0, 0.0, 0.0)",0
2019/02/01/15:55:51.744328,7460,0,0,,0,0,30.6243839021,-96.3364296714,71.6599420446,"(0.0, 0.7599977850914001, 0.0, 0.0, 0.0, 0.0, 0.0, 0.0, 0.0)",0
2019/02/01/15:55:51.764410,7461,0,0,,0,0,30.6243839717,-96.3364296159,71.6331229666,"(0.0, 0.7513206601142883, 0.0, 0.0, 0.0, 0.0, 0.0, 0.0, 0.0)",0
2019/02/01/15:55:51.785300,7462,0,0,,0,0,30.6243839715,-96.3364296133,71.6355336802,"(0.0, 0.752145528793335, 0.0, 0.0, 0.0, 0.0, 0.0, 0.0, 0.0)",0
2019/02/01/15:55:51.804398,7463,0,0,,0,0,30.6243839704,-96.3364296105,71.6379130239,"(0.0, 0.7529749274253845, 0.0, 0.0, 0.0, 0.0, 0.0, 0.0, 0.0)",0
2019/02/01/15:55:51.825077,7464,0,0,,0,0,30.6243839705,-96.3364296075,71.6403848045,"(0.0, 0.7538089156150818, 0.0, 0.0, 0.0, 0.0, 0.0, 0.0, 0.0)",0
2019/02/01/15:55:51.844249,7465,0,0,,0,0,30.6243839692,-96.3364296049,71.6428303123,"(0.0, 0.7546473741531372, 0.0, 0.0, 0.0, 0.0, 0.0, 0.0, 0.0)",0
2019/02/01/15:55:51.864347,7466,0,0,,0,0,30.6243839691,-96.3364296024,71.6452195642,"(0.0, 0.7554904222488403, 0.0, 0.0, 0.0, 0.0, 0.0, 0.0, 0.0)",0
2019/02/01/15:55:51.884183,7467,0,0,,0,0,30.6243839678,-96.3364295995,71.647726915,"(0.0, 0.7563380599021912, 0.0, 0.0, 0.0, 0.0, 0.0, 0.0, 0.0)",0
2019/02/01/15:55:51.904191,7468,0,0,,0,0,30.6243839672,-96.336429596,71.6502095509,"(0.0, 0.7571904063224792, 0.0, 0.0, 0.0, 0.0, 0.0, 0.0, 0.0)",0
2019/02/01/15:55:51.924172,7469,0,0,,0,0,30.6243839663,-96.3364295935,71.6527115133,"(0.0, 0.758047342300415, 0.0, 0.0, 0.0, 0.0, 0.0, 0.0, 0.0)",0
2019/02/01/15:55:51.944046,7470,0,0,,0,0,30.6243839656,-96.3364295913,71.6551683877,"(0.0, 0.7589089870452881, 0.0, 0.0, 0.0, 0.0, 0.0, 0.0, 0.0)",0
2019/02/01/15:55:51.963957,7471,0,0,,0,0,30.6243839648,-96.3364295878,71.6577059773,"(0.0, 0.7597754597663879, 0.0, 0.0, 0.0, 0.0, 0.0, 0.0, 0.0)",0
2019/02/01/15:55:51.984033,7472,0,0,,0,0,30.6243839634,-96.3364295849,71.6602037061,"(0.0, 0.7606467008590698, 0.0, 0.0, 0.0, 0.0, 0.0, 0.0, 0.0)",0
2019/02/01/15:55:52.003978,7473,0,0,,0,0,30.6243839532,-96.3364294596,71.6342961611,"(0.0, 0.7536404728889465, 0.0, 0.0, 0.0, 0.0, 0.0, 0.0, 0.0)",0
2019/02/01/15:55:52.024019,7474,0,0,,0,0,30.6243839523,-96.3364294561,71.6366824449,"(0.0, 0.7544803023338318, 0.0, 0.0, 0.0, 0.0, 0.0, 0.0, 0.0)",0
2019/02/01/15:55:52.043915,7475,0,0,,0,0,30.624383952,-96.3364294522,71.6391266439,"(0.0, 0.7553247213363647, 0.0, 0.0, 0.0, 0.0, 0.0, 0.0, 0.0)",0
2019/02/01/15:55:52.063813,7476,0,0,,0,0,30.624383951,-96.3364294485,71.6415536797,"(0.0, 0.7561737895011902, 0.0, 0.0, 0.0, 0.0, 0.0, 0.0, 0.0)",0
2019/02/01/15:55:52.083845,7477,0,0,,0,0,30.6243839499,-96.3364294444,71.6439414799,"(0.0, 0.7570275068283081, 0.0, 0.0, 0.0, 0.0, 0.0, 0.0, 0.0)",0
2019/02/01/15:55:52.103726,7478,0,0,,0,0,30.6243839496,-96.3364294398,71.6464014474,"(0.0, 0.7578859329223633, 0.0, 0.0, 0.0, 0.0, 0.0, 0.0, 0.0)",0
2019/02/01/15:55:52.123760,7479,0,0,,0,0,30.6243839485,-96.3364294364,71.648829583,"(0.0, 0.7587491273880005, 0.0, 0.0, 0.0, 0.0, 0.0, 0.0, 0.0)",0
2019/02/01/15:55:52.143953,7480,0,0,,0,0,30.6243838762,-96.3364294552,71.6315982728,"(0.0, 0.7519242763519287, 0.0, 0.0, 0.0, 0.0, 0.0, 0.0, 0.0)",0
2019/02/01/15:55:52.163606,7481,0,0,,0,0,30.6243838755,-96.336429452,71.634047962,"(0.0, 0.7527576684951782, 0.0, 0.0, 0.0, 0.0, 0.0, 0.0, 0.0)",0
2019/02/01/15:55:52.183635,7482,0,0,,0,0,30.6243838745,-96.336429448,71.6364415519,"(0.0, 0.7535956501960754, 0.0, 0.0, 0.0, 0.0, 0.0, 0.0, 0.0)",0
2019/02/01/15:55:52.203673,7483,0,0,,0,0,30.6243838736,-96.336429445,71.6388844379,"(0.0, 0.7544381618499756, 0.0, 0.0, 0.0, 0.0, 0.0, 0.0, 0.0)",0
2019/02/01/15:55:52.223583,7484,0,0,,0,0,30.6243838728,-96.3364294417,71.6413238177,"(0.0, 0.7552856206893921, 0.0, 0.0, 0.0, 0.0, 0.0, 0.0, 0.0)",0
2019/02/01/15:55:52.243627,7485,0,0,,0,0,30.624383872,-96.3364294381,71.6437667614,"(0.0, 0.7561371922492981, 0.0, 0.0, 0.0, 0.0, 0.0, 0.0, 0.0)",0
2019/02/01/15:55:52.263527,7486,0,0,,0,0,30.624383871,-96.3364294354,71.6462315489,"(0.0, 0.7569936513900757, 0.0, 0.0, 0.0, 0.0, 0.0, 0.0, 0.0)",0
2019/02/01/15:55:52.283570,7487,0,0,,0,0,30.6243838702,-96.3364294322,71.6486687966,"(0.0, 0.7578548789024353, 0.0, 0.0, 0.0, 0.0, 0.0, 0.0, 0.0)",0
2019/02/01/15:55:52.303545,7488,0,0,,0,0,30.6243838692,-96.3364294289,71.6511120396,"(0.0, 0.758720874786377, 0.0, 0.0, 0.0, 0.0, 0.0, 0.0, 0.0)",0
2019/02/01/15:55:52.323524,7489,0,0,,0,0,30.6243838682,-96.3364294258,71.6535734547,"(0.0, 0.7595915794372559, 0.0, 0.0, 0.0, 0.0, 0.0, 0.0, 0.0)",0
2019/02/01/15:55:52.343610,7490,0,0,,0,0,30.6243838678,-96.3364294233,71.6560256615,"(0.0, 0.7604671120643616, 0.0, 0.0, 0.0, 0.0, 0.0, 0.0, 0.0)",0
2019/02/01/15:55:52.363386,7491,0,0,,0,0,30.6243838447,-96.3364294286,71.6362695046,"(0.0, 0.7537531852722168, 0.0, 0.0, 0.0, 0.0, 0.0, 0.0, 0.0)",0
2019/02/01/15:55:52.385359,7492,0,0,,0,0,30.6243838433,-96.3364294261,71.6386991411,"(0.0, 0.7546006441116333, 0.0, 0.0, 0.0, 0.0, 0.0, 0.0, 0.0)",0
2019/02/01/15:55:52.403550,7493,0,0,,0,0,30.6243838426,-96.3364294237,71.6410478625,"(0.0, 0.7554527521133423, 0.0, 0.0, 0.0, 0.0, 0.0, 0.0, 0.0)",0
2019/02/01/15:55:52.423338,7494,0,0,,0,0,30.6243838424,-96.3364294204,71.6435059548,"(0.0, 0.7563095688819885, 0.0, 0.0, 0.0, 0.0, 0.0, 0.0, 0.0)",0
2019/02/01/15:55:52.444532,7495,0,0,,0,0,30.6243838411,-96.3364294176,71.6459215131,"(0.0, 0.7571711540222168, 0.0, 0.0, 0.0, 0.0, 0.0, 0.0, 0.0)",0
2019/02/01/15:55:52.464565,7496,0,0,,0,0,30.6243838403,-96.3364294149,71.6483546779,"(0.0, 0.7580374479293823, 0.0, 0.0, 0.0, 0.0, 0.0, 0.0, 0.0)",0
2019/02/01/15:55:52.484372,7497,0,0,,0,0,30.6243838394,-96.3364294126,71.6506756103,"(0.0, 0.7589085102081299, 0.0, 0.0, 0.0, 0.0, 0.0, 0.0, 0.0)",0
2019/02/01/15:55:52.504443,7498,0,0,,0,0,30.6243838391,-96.3364294095,71.6532125528,"(0.0, 0.7597844004631042, 0.0, 0.0, 0.0, 0.0, 0.0, 0.0, 0.0)",0
2019/02/01/15:55:52.524167,7499,0,0,,0,0,30.624383838,-96.3364294067,71.655647061,"(0.0, 0.7606650590896606, 0.0, 0.0, 0.0, 0.0, 0.0, 0.0, 0.0)",0
2019/02/01/15:55:52.544270,7500,0,0,,0,0,30.6243837723,-96.3364294231,71.6391891444,"(0.0, 0.7615506649017334, 0.0, 0.0, 0.0, 0.0, 0.0, 0.0, 0.0)",0
2019/02/01/15:55:52.564120,7501,0,0,,0,0,30.6243837706,-96.3364294206,71.6416321578,"(0.0, 0.7541321516036987, 0.0, 0.0, 0.0, 0.0, 0.0, 0.0, 0.0)",0
2019/02/01/15:55:52.584154,7502,0,0,,0,0,30.62438377,-96.3364294175,71.6440174208,"(0.0, 0.7549816370010376, 0.0, 0.0, 0.0, 0.0, 0.0, 0.0, 0.0)",0
2019/02/01/15:55:52.604260,7503,0,0,,0,0,30.6243837689,-96.336429416,71.6463747071,"(0.0, 0.755835771560669, 0.0, 0.0, 0.0, 0.0, 0.0, 0.0, 0.0)",0
2019/02/01/15:55:52.623981,7504,0,0,,0,0,30.6243837679,-96.3364294128,71.6487859231,"(0.0, 0.7566945552825928, 0.0, 0.0, 0.0, 0.0, 0.0, 0.0, 0.0)",0
2019/02/01/15:55:52.644011,7505,0,0,,0,0,30.6243837665,-96.3364294101,71.6511392068,"(0.0, 0.7575581073760986, 0.0, 0.0, 0.0, 0.0, 0.0, 0.0, 0.0)",0
2019/02/01/15:55:52.663800,7506,0,0,,0,0,30.6243837638,-96.336429405,71.6535000106,"(0.0, 0.758426308631897, 0.0, 0.0, 0.0, 0.0, 0.0, 0.0, 0.0)",0
2019/02/01/15:55:52.683914,7507,0,0,,0,0,30.6243837596,-96.3364293989,71.6559710414,"(0.0, 0.7592992186546326, 0.0, 0.0, 0.0, 0.0, 0.0, 0.0, 0.0)",0
2019/02/01/15:55:52.703950,7508,0,0,,0,0,30.6243837546,-96.3364293911,71.6585079076,"(0.0, 0.7601771354675293, 0.0, 0.0, 0.0, 0.0, 0.0, 0.0, 0.0)",0
2019/02/01/15:55:52.723765,7509,0,0,,0,0,30.6243837488,-96.3364293821,71.6610085491,"(0.0, 0.7610597610473633, 0.0, 0.0, 0.0, 0.0, 0.0, 0.0, 0.0)",0
2019/02/01/15:55:52.743701,7510,0,0,,0,0,30.6243837423,-96.3364293735,71.6634728672,"(0.0, 0.7619472146034241, 0.0, 0.0, 0.0, 0.0, 0.0, 0.0, 0.0)",0
2019/02/01/15:55:52.763805,7511,0,0,,0,0,30.6243836629,-96.3364293339,71.6452484915,"(0.0, 0.7628396153450012, 0.0, 0.0, 0.0, 0.0, 0.0, 0.0, 0.0)",0
2019/02/01/15:55:52.784449,7512,0,0,,0,0,30.6243836557,-96.3364293246,71.6474102748,"(0.0, 0.7560223937034607, 0.0, 0.0, 0.0, 0.0, 0.0, 0.0, 0.0)",0
2019/02/01/15:55:52.803648,7513,0,0,,0,0,30.6243836485,-96.3364293146,71.6496118796,"(0.0, 0.7568861842155457, 0.0, 0.0, 0.0, 0.0, 0.0, 0.0, 0.0)",0
2019/02/01/15:55:52.823961,7514,0,0,,0,0,30.6243836405,-96.3364293038,71.6519329661,"(0.0, 0.7577547430992126, 0.0, 0.0, 0.0, 0.0, 0.0, 0.0, 0.0)",0
2019/02/01/15:55:52.843701,7515,0,0,,0,0,30.6243836312,-96.3364292897,71.6543906534,"(0.0, 0.7586280703544617, 0.0, 0.0, 0.0, 0.0, 0.0, 0.0, 0.0)",0
2019/02/01/15:55:52.863821,7516,0,0,,0,0,30.6243836197,-96.3364292752,71.6568891441,"(0.0, 0.7595062851905823, 0.0, 0.0, 0.0, 0.0, 0.0, 0.0, 0.0)",0
2019/02/01/15:55:52.884265,7517,0,0,,0,0,30.6243836069,-96.3364292578,71.6595010722,"(0.0, 0.7603891491889954, 0.0, 0.0, 0.0, 0.0, 0.0, 0.0, 0.0)",0
2019/02/01/15:55:52.903706,7518,0,0,,0,0,30.6243835926,-96.3364292385,71.6620763808,"(0.0, 0.7612770199775696, 0.0, 0.0, 0.0, 0.0, 0.0, 0.0, 0.0)",0
2019/02/01/15:55:52.923639,7519,0,0,,0,0,30.6243835773,-96.3364292176,71.664563215,"(0.0, 0.7621697187423706, 0.0, 0.0, 0.0, 0.0, 0.0, 0.0, 0.0)",0
2019/02/01/15:55:52.943459,7520,0,0,,0,0,30.6243835611,-96.3364291966,71.6668962953,"(0.0, 0.7630674242973328, 0.0, 0.0, 0.0, 0.0, 0.0, 0.0, 0.0)",0
2019/02/01/15:55:52.963523,7521,0,0,,0,0,30.6243835712,-96.336429017,71.6415246289,"(0.0, 0.7533337473869324, 0.0, 0.0, 0.0, 0.0, 0.0, 0.0, 0.0)",0
2019/02/01/15:55:52.983777,7522,0,0,,0,0,30.624383554,-96.3364289917,71.643593733,"(0.0, 0.7541686296463013, 0.0, 0.0, 0.0, 0.0, 0.0, 0.0, 0.0)",0
2019/02/01/15:55:53.003505,7523,0,0,,0,0,30.624383535,-96.3364289652,71.6457465568,"(0.0, 0.7550079226493835, 0.0, 0.0, 0.0, 0.0, 0.0, 0.0, 0.0)",0
2019/02/01/15:55:53.023604,7524,0,0,,0,0,30.6243835146,-96.3364289359,71.6480258499,"(0.0, 0.7558518648147583, 0.0, 0.0, 0.0, 0.0, 0.0, 0.0, 0.0)",0
2019/02/01/15:55:53.043491,7525,0,0,,0,0,30.6243834916,-96.3364289033,71.6503071564,"(0.0, 0.7567002773284912, 0.0, 0.0, 0.0, 0.0, 0.0, 0.0, 0.0)",0
2019/02/01/15:55:53.064463,7526,0,0,,0,0,30.6243834667,-96.3364288693,71.6527224943,"(0.0, 0.7575533986091614, 0.0, 0.0, 0.0, 0.0, 0.0, 0.0, 0.0)",0
2019/02/01/15:55:53.083500,7527,0,0,,0,0,30.62438344,-96.3364288324,71.6551978779,"(0.0, 0.7584110498428345, 0.0, 0.0, 0.0, 0.0, 0.0, 0.0, 0.0)",0
2019/02/01/15:55:53.103601,7528,0,0,,0,0,30.6243834117,-96.3364287933,71.6576373724,"(0.0, 0.7592733502388, 0.0, 0.0, 0.0, 0.0, 0.0, 0.0, 0.0)",0
2019/02/01/15:55:53.123327,7529,0,0,,0,0,30.6243833824,-96.3364287528,71.6599911579,"(0.0, 0.7601404786109924, 0.0, 0.0, 0.0, 0.0, 0.0, 0.0, 0.0)",0
2019/02/01/15:55:53.144400,7530,0,0,,0,0,30.6243833912,-96.3364286333,71.6489961325,"(0.0, 0.7610122561454773, 0.0, 0.0, 0.0, 0.0, 0.0, 0.0, 0.0)",0
2019/02/01/15:55:53.164386,7531,0,0,,0,0,30.6243833593,-96.3364285879,71.6510670102,"(0.0, 0.7515145540237427, 0.0, 0.0, 0.0, 0.0, 0.0, 0.0, 0.0)",0
2019/02/01/15:55:53.184220,7532,0,0,,0,0,30.6243833255,-96.3364285407,71.6532271492,"(0.0, 0.7523271441459656, 0.0, 0.0, 0.0, 0.0, 0.0, 0.0, 0.0)",0
2019/02/01/15:55:53.204401,7533,0,0,,0,0,30.6243832898,-96.33642849,71.6555150332,"(0.0, 0.7531440258026123, 0.0, 0.0, 0.0, 0.0, 0.0, 0.0, 0.0)",0
2019/02/01/15:55:53.224241,7534,0,0,,0,0,30.6243832504,-96.3364284357,71.657724506,"(0.0, 0.7539651989936829, 0.0, 0.0, 0.0, 0.0, 0.0, 0.0, 0.0)",0
2019/02/01/15:55:53.244077,7535,0,0,,0,0,30.6243832093,-96.3364283793,71.6600315244,"(0.0, 0.7547908425331116, 0.0, 0.0, 0.0, 0.0, 0.0, 0.0, 0.0)",0
2019/02/01/15:55:53.264040,7536,0,0,,0,0,30.6243831658,-96.3364283196,71.6624091945,"(0.0, 0.7556211352348328, 0.0, 0.0, 0.0, 0.0, 0.0, 0.0, 0.0)",0
2019/02/01/15:55:53.284118,7537,0,0,,0,0,30.6243831203,-96.3364282574,71.6647844323,"(0.0, 0.7564554810523987, 0.0, 0.0, 0.0, 0.0, 0.0, 0.0, 0.0)",0
2019/02/01/15:55:53.304229,7538,0,0,,0,0,30.6243830727,-96.3364281941,71.6670503672,"(0.0, 0.7572944760322571, 0.0, 0.0, 0.0, 0.0, 0.0, 0.0, 0.0)",0
2019/02/01/15:55:53.324142,7539,0,0,,0,0,30.6243830245,-96.3364281273,71.6691595591,"(0.0, 0.758138120174408, 0.0, 0.0, 0.0, 0.0, 0.0, 0.0, 0.0)",0
2019/02/01/15:55:53.344112,7540,0,0,,0,0,30.6243829036,-96.3364281483,71.6444877351,"(0.0, 0.749072790145874, 0.0, 0.0, 0.0, 0.0, 0.0, 0.0, 0.0)",0
2019/02/01/15:55:53.364047,7541,0,0,,0,0,30.6243828507,-96.3364280784,71.6465587468,"(0.0, 0.7498621940612793, 0.0, 0.0, 0.0, 0.0, 0.0, 0.0, 0.0)",0
2019/02/01/15:55:53.383980,7542,0,0,,0,0,30.6243827956,-96.3364280046,71.6487352878,"(0.0, 0.7506557106971741, 0.0, 0.0, 0.0, 0.0, 0.0, 0.0, 0.0)",0
2019/02/01/15:55:53.403993,7543,0,0,,0,0,30.6243827373,-96.3364279276,71.6509268754,"(0.0, 0.7514535188674927, 0.0, 0.0, 0.0, 0.0, 0.0, 0.0, 0.0)",0
2019/02/01/15:55:53.424127,7544,0,0,,0,0,30.6243826765,-96.3364278489,71.6530910421,"(0.0, 0.7522555589675903, 0.0, 0.0, 0.0, 0.0, 0.0, 0.0, 0.0)",0
2019/02/01/15:55:53.443759,7545,0,0,,0,0,30.6243826135,-96.3364277676,71.6553721779,"(0.0, 0.7530617713928223, 0.0, 0.0, 0.0, 0.0, 0.0, 0.0, 0.0)",0
2019/02/01/15:55:53.463845,7546,0,0,,0,0,30.6243825488,-96.3364276843,71.6576030229,"(0.0, 0.7538723945617676, 0.0, 0.0, 0.0, 0.0, 0.0, 0.0, 0.0)",0
2019/02/01/15:55:53.483950,7547,0,0,,0,0,30.6243824828,-96.336427599,71.6597611656,"(0.0, 0.7546873092651367, 0.0, 0.0, 0.0, 0.0, 0.0, 0.0, 0.0)",0
2019/02/01/15:55:53.503801,7548,0,0,,0,0,30.6243824158,-96.3364275117,71.6618180044,"(0.0, 0.755506694316864, 0.0, 0.0, 0.0, 0.0, 0.0, 0.0, 0.0)",0
2019/02/01/15:55:53.523761,7549,0,0,,0,0,30.6243823465,-96.3364274221,71.6638644908,"(0.0, 0.7563306093215942, 0.0, 0.0, 0.0, 0.0, 0.0, 0.0, 0.0)",0
2019/02/01/15:55:53.543753,7550,0,0,,0,0,30.6243821386,-96.3364273756,71.6414720736,"(0.0, 0.7474140524864197, 0.0, 0.0, 0.0, 0.0, 0.0, 0.0, 0.0)",0
2019/02/01/15:55:53.563731,7551,0,0,,0,0,30.6243820645,-96.3364272831,71.6435346301,"(0.0, 0.7481853365898132, 0.0, 0.0, 0.0, 0.0, 0.0, 0.0, 0.0)",0
2019/02/01/15:55:53.583688,7552,0,0,,0,0,30.6243819881,-96.3364271885,71.645635847,"(0.0, 0.7489606738090515, 0.0, 0.0, 0.0, 0.0, 0.0, 0.0, 0.0)",0
2019/02/01/15:55:53.603787,7553,0,0,,0,0,30.6243819096,-96.3364270912,71.6477482885,"(0.0, 0.7497401833534241, 0.0, 0.0, 0.0, 0.0, 0.0, 0.0, 0.0)",0
2019/02/01/15:55:53.623688,7554,0,0,,0,0,30.6243818286,-96.3364269928,71.6499358563,"(0.0, 0.7505238056182861, 0.0, 0.0, 0.0, 0.0, 0.0, 0.0, 0.0)",0
2019/02/01/15:55:53.643600,7555,0,0,,0,0,30.6243817458,-96.3364268922,71.6520728157,"(0.0, 0.7513116598129272, 0.0, 0.0, 0.0, 0.0, 0.0, 0.0, 0.0)",0
2019/02/01/15:55:53.663479,7556,0,0,,0,0,30.6243816611,-96.3364267904,71.6542013511,"(0.0, 0.7521037459373474, 0.0, 0.0, 0.0, 0.0, 0.0, 0.0, 0.0)",0
2019/02/01/15:55:53.683492,7557,0,0,,0,0,30.6243815751,-96.3364266869,71.6562597328,"(0.0, 0.7529000639915466, 0.0, 0.0, 0.0, 0.0, 0.0, 0.0, 0.0)",0
2019/02/01/15:55:53.703476,7558,0,0,,0,0,30.6243814877,-96.3364265813,71.6582782276,"(0.0, 0.7537007331848145, 0.0, 0.0, 0.0, 0.0, 0.0, 0.0, 0.0)",0
2019/02/01/15:55:53.723379,7559,0,0,,0,0,30.6243813979,-96.3364264738,71.6602981485,"(0.0, 0.7545057535171509, 0.0, 0.0, 0.0, 0.0, 0.0, 0.0, 0.0)",0
2019/02/01/15:55:53.743511,7560,0,0,,0,0,30.6243813072,-96.3364263642,71.662364312,"(0.0, 0.7553152441978455, 0.0, 0.0, 0.0, 0.0, 0.0, 0.0, 0.0)",0
2019/02/01/15:55:53.763314,7561,0,0,,0,0,30.6243812146,-96.3364262527,71.664440787,"(0.0, 0.7561290860176086, 0.0, 0.0, 0.0, 0.0, 0.0, 0.0, 0.0)",0
2019/02/01/15:55:53.784452,7562,0,0,,0,0,30.6243810538,-96.3364261277,71.6474456163,"(0.0, 0.7472966313362122, 0.0, 0.0, 0.0, 0.0, 0.0, 0.0, 0.0)",0
2019/02/01/15:55:53.804368,7563,0,0,,0,0,30.624380958,-96.3364260128,71.6495188833,"(0.0, 0.7480593919754028, 0.0, 0.0, 0.0, 0.0, 0.0, 0.0, 0.0)",0
2019/02/01/15:55:53.824221,7564,0,0,,0,0,30.6243808604,-96.3364258963,71.6516110058,"(0.0, 0.7488262057304382, 0.0, 0.0, 0.0, 0.0, 0.0, 0.0, 0.0)",0
2019/02/01/15:55:53.844254,7565,0,0,,0,0,30.6243807614,-96.3364257783,71.6537091479,"(0.0, 0.7495971918106079, 0.0, 0.0, 0.0, 0.0, 0.0, 0.0, 0.0)",0
2019/02/01/15:55:53.864105,7566,0,0,,0,0,30.6243806605,-96.3364256584,71.6557950003,"(0.0, 0.7503722906112671, 0.0, 0.0, 0.0, 0.0, 0.0, 0.0, 0.0)",0
2019/02/01/15:55:53.884108,7567,0,0,,0,0,30.624380558,-96.336425537,71.6578636253,"(0.0, 0.7511516809463501, 0.0, 0.0, 0.0, 0.0, 0.0, 0.0, 0.0)",0
2019/02/01/15:55:53.904124,7568,0,0,,0,0,30.6243804545,-96.3364254134,71.6598951858,"(0.0, 0.7519352436065674, 0.0, 0.0, 0.0, 0.0, 0.0, 0.0, 0.0)",0
2019/02/01/15:55:53.924527,7569,0,0,,0,0,30.6243803491,-96.3364252881,71.6618750399,"(0.0, 0.7527230381965637, 0.0, 0.0, 0.0, 0.0, 0.0, 0.0, 0.0)",0
2019/02/01/15:55:53.944086,7570,0,0,,0,0,30.624380243,-96.3364251605,71.6638603838,"(0.0, 0.7535151839256287, 0.0, 0.0, 0.0, 0.0, 0.0, 0.0, 0.0)",0
2019/02/01/15:55:53.964381,7571,0,0,,0,0,30.6243801355,-96.3364250308,71.6658306322,"(0.0, 0.7543118000030518, 0.0, 0.0, 0.0, 0.0, 0.0, 0.0, 0.0)",0
2019/02/01/15:55:53.984230,7572,0,0,,0,0,30.6243799406,-96.3364247582,71.6489800788,"(0.0, 0.7551127076148987, 0.0, 0.0, 0.0, 0.0, 0.0, 0.0, 0.0)",0
2019/02/01/15:55:54.003993,7573,0,0,,0,0,30.6243798301,-96.3364246232,71.650903492,"(0.0, 0.7464993000030518, 0.0, 0.0, 0.0, 0.0, 0.0, 0.0, 0.0)",0
2019/02/01/15:55:54.024076,7574,0,0,,0,0,30.6243797189,-96.3364244868,71.6528801236,"(0.0, 0.7472516298294067, 0.0, 0.0, 0.0, 0.0, 0.0, 0.0, 0.0)",0
2019/02/01/15:55:54.043858,7575,0,0,,0,0,30.6243796057,-96.3364243486,71.6548833478,"(0.0, 0.748008131980896, 0.0, 0.0, 0.0, 0.0, 0.0, 0.0, 0.0)",0
2019/02/01/15:55:54.064321,7576,0,0,,0,0,30.6243794923,-96.3364242089,71.6569143637,"(0.0, 0.74876868724823, 0.0, 0.0, 0.0, 0.0, 0.0, 0.0, 0.0)",0
2019/02/01/15:55:54.083825,7577,0,0,,0,0,30.6243793774,-96.3364240669,71.6589658053,"(0.0, 0.7495334148406982, 0.0, 0.0, 0.0, 0.0, 0.0, 0.0, 0.0)",0
2019/02/01/15:55:54.103767,7578,0,0,,0,0,30.6243792617,-96.3364239238,71.6609954151,"(0.0, 0.7503023743629456, 0.0, 0.0, 0.0, 0.0, 0.0, 0.0, 0.0)",0
2019/02/01/15:55:54.123738,7579,0,0,,0,0,30.6243791452,-96.3364237792,71.6629572277,"(0.0, 0.7510755062103271, 0.0, 0.0, 0.0, 0.0, 0.0, 0.0, 0.0)",0
2019/02/01/15:55:54.143734,7580,0,0,,0,0,30.6243789875,-96.3364236799,71.6476048552,"(0.0, 0.7428501844406128, 0.0, 0.0, 0.0, 0.0, 0.0, 0.0, 0.0)",0
2019/02/01/15:55:54.163679,7581,0,0,,0,0,30.6243788696,-96.336423533,71.6494643877,"(0.0, 0.743578314781189, 0.0, 0.0, 0.0, 0.0, 0.0, 0.0, 0.0)",0
2019/02/01/15:55:54.183792,7582,0,0,,0,0,30.6243787508,-96.3364233844,71.6513191033,"(0.0, 0.7443104386329651, 0.0, 0.0, 0.0, 0.0, 0.0, 0.0, 0.0)",0
2019/02/01/15:55:54.203742,7583,0,0,,0,0,30.6243786319,-96.3364232339,71.6531198646,"(0.0, 0.7450464963912964, 0.0, 0.0, 0.0, 0.0, 0.0, 0.0, 0.0)",0
2019/02/01/15:55:54.223638,7584,0,0,,0,0,30.6243785121,-96.3364230826,71.6549945315,"(0.0, 0.7457866072654724, 0.0, 0.0, 0.0, 0.0, 0.0, 0.0, 0.0)",0
2019/02/01/15:55:54.243543,7585,0,0,,0,0,30.6243783914,-96.3364229298,71.65696155,"(0.0, 0.7465307712554932, 0.0, 0.0, 0.0, 0.0, 0.0, 0.0, 0.0)",0
2019/02/01/15:55:54.263773,7586,0,0,,0,0,30.6243782705,-96.3364227763,71.6589120761,"(0.0, 0.7472789883613586, 0.0, 0.0, 0.0, 0.0, 0.0, 0.0, 0.0)",0
2019/02/01/15:55:54.283567,7587,0,0,,0,0,30.6243781489,-96.3364226215,71.6609002904,"(0.0, 0.7480313181877136, 0.0, 0.0, 0.0, 0.0, 0.0, 0.0, 0.0)",0
2019/02/01/15:55:54.303620,7588,0,0,,0,0,30.6243780275,-96.3364224649,71.6629561628,"(0.0, 0.7487878203392029, 0.0, 0.0, 0.0, 0.0, 0.0, 0.0, 0.0)",0
2019/02/01/15:55:54.323367,7589,0,0,,0,0,30.6243779042,-96.3364223067,71.664985884,"(0.0, 0.749548614025116, 0.0, 0.0, 0.0, 0.0, 0.0, 0.0, 0.0)",0
2019/02/01/15:55:54.343584,7590,0,0,,0,0,30.624377674,-96.3364222134,71.6487256878,"(0.0, 0.7414751052856445, 0.0, 0.0, 0.0, 0.0, 0.0, 0.0, 0.0)",0
2019/02/01/15:55:54.363415,7591,0,0,,0,0,30.6243775495,-96.3364220543,71.6506356094,"(0.0, 0.7421923875808716, 0.0, 0.0, 0.0, 0.0, 0.0, 0.0, 0.0)",0
2019/02/01/15:55:54.384671,7592,0,0,,0,0,30.6243774243,-96.3364218937,71.652439421,"(0.0, 0.7429136037826538, 0.0, 0.0, 0.0, 0.0, 0.0, 0.0, 0.0)",0
2019/02/01/15:55:54.404575,7593,0,0,,0,0,30.6243772983,-96.3364217328,71.6542552246,"(0.0, 0.7436386942863464, 0.0, 0.0, 0.0, 0.0, 0.0, 0.0, 0.0)",0
2019/02/01/15:55:54.424383,7594,0,0,,0,0,30.6243771717,-96.3364215711,71.6560817449,"(0.0, 0.744367778301239, 0.0, 0.0, 0.0, 0.0, 0.0, 0.0, 0.0)",0
2019/02/01/15:55:54.444451,7595,0,0,,0,0,30.6243770442,-96.3364214085,71.657878231,"(0.0, 0.7451007962226868, 0.0, 0.0, 0.0, 0.0, 0.0, 0.0, 0.0)",0
2019/02/01/15:55:54.464473,7596,0,0,,0,0,30.6243769159,-96.3364212446,71.6597247808,"(0.0, 0.7458378076553345, 0.0, 0.0, 0.0, 0.0, 0.0, 0.0, 0.0)",0
2019/02/01/15:55:54.484245,7597,0,0,,0,0,30.6243767867,-96.3364210797,71.6615899948,"(0.0, 0.7465789318084717, 0.0, 0.0, 0.0, 0.0, 0.0, 0.0, 0.0)",0
2019/02/01/15:55:54.504315,7598,0,0,,0,0,30.6243766566,-96.3364209135,71.6634799629,"(0.0, 0.7473240494728088, 0.0, 0.0, 0.0, 0.0, 0.0, 0.0, 0.0)",0
2019/02/01/15:55:54.524128,7599,0,0,,0,0,30.6243765254,-96.3364207464,71.6653557268,"(0.0, 0.7480733394622803, 0.0, 0.0, 0.0, 0.0, 0.0, 0.0, 0.0)",0
2019/02/01/15:55:54.544093,7600,0,0,,0,0,30.6243761999,-96.3364205219,71.6574059092,"(0.0, 0.7488266825675964, 0.0, 0.0, 0.0, 0.0, 0.0, 0.0, 0.0)",0
2019/02/01/15:55:54.564225,7601,0,0,,0,0,30.624376065,-96.3364203537,71.6591967989,"(0.0, 0.7408007383346558, 0.0, 0.0, 0.0, 0.0, 0.0, 0.0, 0.0)",0
2019/02/01/15:55:54.584150,7602,0,0,,0,0,30.6243759304,-96.3364201855,71.6609277807,"(0.0, 0.7415114641189575, 0.0, 0.0, 0.0, 0.0, 0.0, 0.0, 0.0)",0
2019/02/01/15:55:54.604118,7603,0,0,,0,0,30.6243757948,-96.3364200172,71.6626739854,"(0.0, 0.7422260642051697, 0.0, 0.0, 0.0, 0.0, 0.0, 0.0, 0.0)",0
2019/02/01/15:55:54.623981,7604,0,0,,0,0,30.6243756587,-96.3364198485,71.6644871123,"(0.0, 0.7429444193840027, 0.0, 0.0, 0.0, 0.0, 0.0, 0.0, 0.0)",0
2019/02/01/15:55:54.644016,7605,0,0,,0,0,30.6243755216,-96.3364196792,71.666329541,"(0.0, 0.7436668276786804, 0.0, 0.0, 0.0, 0.0, 0.0, 0.0, 0.0)",0
2019/02/01/15:55:54.663989,7606,0,0,,0,0,30.6243753843,-96.3364195083,71.6682308693,"(0.0, 0.7443931102752686, 0.0, 0.0, 0.0, 0.0, 0.0, 0.0, 0.0)",0
2019/02/01/15:55:54.683997,7607,0,0,,0,0,30.6243752455,-96.3364193374,71.6701086143,"(0.0, 0.7451233267784119, 0.0, 0.0, 0.0, 0.0, 0.0, 0.0, 0.0)",0
2019/02/01/15:55:54.704124,7608,0,0,,0,0,30.624375106,-96.3364191665,71.6720682366,"(0.0, 0.7458576560020447, 0.0, 0.0, 0.0, 0.0, 0.0, 0.0, 0.0)",0
2019/02/01/15:55:54.723954,7609,0,0,,0,0,30.6243749661,-96.3364189946,71.6740729911,"(0.0, 0.7465959191322327, 0.0, 0.0, 0.0, 0.0, 0.0, 0.0, 0.0)",0
2019/02/01/15:55:54.743897,7610,0,0,,0,0,30.6243748256,-96.3364188226,71.6760267054,"(0.0, 0.7473383545875549, 0.0, 0.0, 0.0, 0.0, 0.0, 0.0, 0.0)",0
2019/02/01/15:55:54.763839,7611,0,0,,0,0,30.6243746182,-96.3364186983,71.6654394732,"(0.0, 0.7394156455993652, 0.0, 0.0, 0.0, 0.0, 0.0, 0.0, 0.0)",0
2019/02/01/15:55:54.783855,7612,0,0,,0,0,30.6243744775,-96.3364185282,71.6672434183,"(0.0, 0.7401167750358582, 0.0, 0.0, 0.0, 0.0, 0.0, 0.0, 0.0)",0
2019/02/01/15:55:54.803990,7613,0,0,,0,0,30.6243743365,-96.3364183583,71.6690128618,"(0.0, 0.7408218383789062, 0.0, 0.0, 0.0, 0.0, 0.0, 0.0, 0.0)",0
2019/02/01/15:55:54.823670,7614,0,0,,0,0,30.6243741956,-96.3364181887,71.670823067,"(0.0, 0.7415307760238647, 0.0, 0.0, 0.0, 0.0, 0.0, 0.0, 0.0)",0
2019/02/01/15:55:54.843797,7615,0,0,,0,0,30.6243740547,-96.3364180187,71.6726822478,"(0.0, 0.7422435283660889, 0.0, 0.0, 0.0, 0.0, 0.0, 0.0, 0.0)",0
2019/02/01/15:55:54.863626,7616,0,0,,0,0,30.6243739138,-96.3364178485,71.6746154872,"(0.0, 0.7429602146148682, 0.0, 0.0, 0.0, 0.0, 0.0, 0.0, 0.0)",0
2019/02/01/15:55:54.883721,7617,0,0,,0,0,30.6243737732,-96.3364176778,71.6766062425,"(0.0, 0.7436808943748474, 0.0, 0.0, 0.0, 0.0, 0.0, 0.0, 0.0)",0
2019/02/01/15:55:54.903656,7618,0,0,,0,0,30.6243736327,-96.3364175066,71.6786364797,"(0.0, 0.7444055080413818, 0.0, 0.0, 0.0, 0.0, 0.0, 0.0, 0.0)",0
2019/02/01/15:55:54.923612,7619,0,0,,0,0,30.6243734924,-96.3364173351,71.680658455,"(0.0, 0.745134174823761, 0.0, 0.0, 0.0, 0.0, 0.0, 0.0, 0.0)",0
2019/02/01/15:55:54.943519,7620,0,0,,0,0,30.6243733004,-96.3364170114,71.6736181141,"(0.0, 0.7373040914535522, 0.0, 0.0, 0.0, 0.0, 0.0, 0.0, 0.0)",0
2019/02/01/15:55:54.963956,7621,0,0,,0,0,30.6243731606,-96.3364168375,71.6755408016,"(0.0, 0.7379927635192871, 0.0, 0.0, 0.0, 0.0, 0.0, 0.0, 0.0)",0
2019/02/01/15:55:54.983626,7622,0,0,,0,0,30.6243730211,-96.3364166634,71.6774706417,"(0.0, 0.7386851906776428, 0.0, 0.0, 0.0, 0.0, 0.0, 0.0, 0.0)",0
2019/02/01/15:55:55.003619,7623,0,0,,0,0,30.6243728825,-96.3364164886,71.6793434117,"(0.0, 0.7393814325332642, 0.0, 0.0, 0.0, 0.0, 0.0, 0.0, 0.0)",0
2019/02/01/15:55:55.024119,7624,0,0,,0,0,30.6243727438,-96.3364163133,71.6811233058,"(0.0, 0.7400814294815063, 0.0, 0.0, 0.0, 0.0, 0.0, 0.0, 0.0)",0
2019/02/01/15:55:55.043520,7625,0,0,,0,0,30.6243726057,-96.336416137,71.6829422328,"(0.0, 0.7407854199409485, 0.0, 0.0, 0.0, 0.0, 0.0, 0.0, 0.0)",0
2019/02/01/15:55:55.064194,7626,0,0,,0,0,30.6243724674,-96.3364159601,71.6846973468,"(0.0, 0.7414931654930115, 0.0, 0.0, 0.0, 0.0, 0.0, 0.0, 0.0)",0
2019/02/01/15:55:55.083453,7627,0,0,,0,0,30.6243723293,-96.3364157825,71.6865213325,"(0.0, 0.7422049045562744, 0.0, 0.0, 0.0, 0.0, 0.0, 0.0, 0.0)",0
2019/02/01/15:55:55.103322,7628,0,0,,0,0,30.6243721914,-96.336415604,71.6883944573,"(0.0, 0.742920458316803, 0.0, 0.0, 0.0, 0.0, 0.0, 0.0, 0.0)",0
2019/02/01/15:55:55.125185,7629,0,0,,0,0,30.6243720527,-96.3364154246,71.6902707473,"(0.0, 0.7436400651931763, 0.0, 0.0, 0.0, 0.0, 0.0, 0.0, 0.0)",0
2019/02/01/15:55:55.143304,7630,0,0,,0,0,30.6243719142,-96.3364152445,71.6922110219,"(0.0, 0.7443636059761047, 0.0, 0.0, 0.0, 0.0, 0.0, 0.0, 0.0)",0
2019/02/01/15:55:55.164379,7631,0,0,,0,0,30.6243717884,-96.3364150711,71.7002198447,"(0.0, 0.7365351915359497, 0.0, 0.0, 0.0, 0.0, 0.0, 0.0, 0.0)",0
2019/02/01/15:55:55.184602,7632,0,0,,0,0,30.624371651,-96.3364148907,71.7022520045,"(0.0, 0.7372190952301025, 0.0, 0.0, 0.0, 0.0, 0.0, 0.0, 0.0)",0
2019/02/01/15:55:55.204195,7633,0,0,,0,0,30.6243715135,-96.3364147101,71.7042992499,"(0.0, 0.737906813621521, 0.0, 0.0, 0.0, 0.0, 0.0, 0.0, 0.0)",0
2019/02/01/15:55:55.224207,7634,0,0,,0,0,30.6243713765,-96.3364145289,71.7063547967,"(0.0, 0.7385982871055603, 0.0, 0.0, 0.0, 0.0, 0.0, 0.0, 0.0)",0
2019/02/01/15:55:55.244088,7635,0,0,,0,0,30.6243712392,-96.3364143471,71.7084187982,"(0.0, 0.7392935156822205, 0.0, 0.0, 0.0, 0.0, 0.0, 0.0, 0.0)",0
2019/02/01/15:55:55.264308,7636,0,0,,0,0,30.6243711015,-96.3364141647,71.7104953821,"(0.0, 0.739992618560791, 0.0, 0.0, 0.0, 0.0, 0.0, 0.0, 0.0)",0
2019/02/01/15:55:55.284161,7637,0,0,,0,0,30.624370964,-96.3364139816,71.7125750349,"(0.0, 0.740695595741272, 0.0, 0.0, 0.0, 0.0, 0.0, 0.0, 0.0)",0
2019/02/01/15:55:55.304121,7638,0,0,,0,0,30.6243708255,-96.3364137983,71.7146322464,"(0.0, 0.7414023876190186, 0.0, 0.0, 0.0, 0.0, 0.0, 0.0, 0.0)",0
2019/02/01/15:55:55.324142,7639,0,0,,0,0,30.6243706864,-96.3364136143,71.7166474292,"(0.0, 0.7421129941940308, 0.0, 0.0, 0.0, 0.0, 0.0, 0.0, 0.0)",0
2019/02/01/15:55:55.344272,7640,0,0,,0,0,30.6243705462,-96.3364134302,71.7186480761,"(0.0, 0.7428275942802429, 0.0, 0.0, 0.0, 0.0, 0.0, 0.0, 0.0)",0
2019/02/01/15:55:55.363994,7641,0,0,,0,0,30.6243704582,-96.3364131933,71.7164278426,"(0.0, 0.7351270914077759, 0.0, 0.0, 0.0, 0.0, 0.0, 0.0, 0.0)",0
2019/02/01/15:55:55.384486,7642,0,0,,0,0,30.6243703172,-96.3364130082,71.7183742649,"(0.0, 0.735803484916687, 0.0, 0.0, 0.0, 0.0, 0.0, 0.0, 0.0)",0
2019/02/01/15:55:55.403958,7643,0,0,,0,0,30.6243701749,-96.3364128228,71.7203161654,"(0.0, 0.7364835739135742, 0.0, 0.0, 0.0, 0.0, 0.0, 0.0, 0.0)",0
2019/02/01/15:55:55.423982,7644,0,0,,0,0,30.6243700317,-96.3364126367,71.7222708683,"(0.0, 0.7371672987937927, 0.0, 0.0, 0.0, 0.0, 0.0, 0.0, 0.0)",0
2019/02/01/15:55:55.443847,7645,0,0,,0,0,30.6243698876,-96.3364124497,71.7241937455,"(0.0, 0.7378548383712769, 0.0, 0.0, 0.0, 0.0, 0.0, 0.0, 0.0)",0
2019/02/01/15:55:55.463860,7646,0,0,,0,0,30.6243697426,-96.3364122615,71.7261656376,"(0.0, 0.7385460734367371, 0.0, 0.0, 0.0, 0.0, 0.0, 0.0, 0.0)",0
2019/02/01/15:55:55.483783,7647,0,0,,0,0,30.6243695966,-96.3364120728,71.7281977795,"(0.0, 0.7392410635948181, 0.0, 0.0, 0.0, 0.0, 0.0, 0.0, 0.0)",0
2019/02/01/15:55:55.503745,7648,0,0,,0,0,30.6243694487,-96.3364118826,71.7301594997,"(0.0, 0.7399398684501648, 0.0, 0.0, 0.0, 0.0, 0.0, 0.0, 0.0)",0
2019/02/01/15:55:55.523793,7649,0,0,,0,0,30.6243692996,-96.3364116908,71.7322165957,"(0.0, 0.7406424283981323, 0.0, 0.0, 0.0, 0.0, 0.0, 0.0, 0.0)",0
2019/02/01/15:55:55.543704,7650,0,0,,0,0,30.6243691496,-96.3364114981,71.7341781799,"(0.0, 0.741348922252655, 0.0, 0.0, 0.0, 0.0, 0.0, 0.0, 0.0)",0
2019/02/01/15:55:55.563610,7651,0,0,,0,0,30.6243689763,-96.3364113276,71.7215009185,"(0.0, 0.7337255477905273, 0.0, 0.0, 0.0, 0.0, 0.0, 0.0, 0.0)",0
2019/02/01/15:55:55.583613,7652,0,0,,0,0,30.6243688231,-96.3364111334,71.7233407868,"(0.0, 0.7343946695327759, 0.0, 0.0, 0.0, 0.0, 0.0, 0.0, 0.0)",0
2019/02/01/15:55:55.603702,7653,0,0,,0,0,30.6243686682,-96.3364109376,71.725176529,"(0.0, 0.7350674271583557, 0.0, 0.0, 0.0, 0.0, 0.0, 0.0, 0.0)",0
2019/02/01/15:55:55.623618,7654,0,0,,0,0,30.624368512,-96.3364107404,71.7270758727,"(0.0, 0.7357438206672668, 0.0, 0.0, 0.0, 0.0, 0.0, 0.0, 0.0)",0
2019/02/01/15:55:55.643608,7655,0,0,,0,0,30.6243683534,-96.3364105416,71.7289668741,"(0.0, 0.7364239692687988, 0.0, 0.0, 0.0, 0.0, 0.0, 0.0, 0.0)",0
2019/02/01/15:55:55.663648,7656,0,0,,0,0,30.6243681937,-96.3364103407,71.7310098177,"(0.0, 0.7371077537536621, 0.0, 0.0, 0.0, 0.0, 0.0, 0.0, 0.0)",0
2019/02/01/15:55:55.683489,7657,0,0,,0,0,30.6243680326,-96.3364101383,71.7330518798,"(0.0, 0.7377952933311462, 0.0, 0.0, 0.0, 0.0, 0.0, 0.0, 0.0)",0
2019/02/01/15:55:55.703608,7658,0,0,,0,0,30.6243678692,-96.3364099337,71.7351169891,"(0.0, 0.7384865880012512, 0.0, 0.0, 0.0, 0.0, 0.0, 0.0, 0.0)",0
2019/02/01/15:55:55.723494,7659,0,0,,0,0,30.6243677037,-96.3364097274,71.7371440788,"(0.0, 0.7391817569732666, 0.0, 0.0, 0.0, 0.0, 0.0, 0.0, 0.0)",0
2019/02/01/15:55:55.743411,7660,0,0,,0,0,30.6243675365,-96.3364095192,71.7391846229,"(0.0, 0.7398806214332581, 0.0, 0.0, 0.0, 0.0, 0.0, 0.0, 0.0)",0
2019/02/01/15:55:55.763497,7661,0,0,,0,0,30.6243673672,-96.3364093091,71.7411835371,"(0.0, 0.7405834794044495, 0.0, 0.0, 0.0, 0.0, 0.0, 0.0, 0.0)",0
2019/02/01/15:55:55.783414,7662,0,0,,0,0,30.6243671579,-96.3364090397,71.7283590951,"(0.0, 0.7329122424125671, 0.0, 0.0, 0.0, 0.0, 0.0, 0.0, 0.0)",0
2019/02/01/15:55:55.803367,7663,0,0,,0,0,30.6243669848,-96.336408825,71.7302382826,"(0.0, 0.7335771918296814, 0.0, 0.0, 0.0, 0.0, 0.0, 0.0, 0.0)",0
2019/02/01/15:55:55.824412,7664,0,0,,0,0,30.6243668095,-96.3364086077,71.7321143695,"(0.0, 0.734245777130127, 0.0, 0.0, 0.0, 0.0, 0.0, 0.0, 0.0)",0
2019/02/01/15:55:55.844302,7665,0,0,,0,0,30.6243666323,-96.3364083877,71.7340337487,"(0.0, 0.7349180579185486, 0.0, 0.0, 0.0, 0.0, 0.0, 0.0, 0.0)",0
2019/02/01/15:55:55.864349,7666,0,0,,0,0,30.6243664529,-96.3364081649,71.7359964503,"(0.0, 0.7355939745903015, 0.0, 0.0, 0.0, 0.0, 0.0, 0.0, 0.0)",0
2019/02/01/15:55:55.884096,7667,0,0,,0,0,30.624366271,-96.3364079393,71.7380123062,"(0.0, 0.7362737059593201, 0.0, 0.0, 0.0, 0.0, 0.0, 0.0, 0.0)",0
2019/02/01/15:55:55.904269,7668,0,0,,0,0,30.6243660874,-96.3364077109,71.7400492537,"(0.0, 0.7369571328163147, 0.0, 0.0, 0.0, 0.0, 0.0, 0.0, 0.0)",0
2019/02/01/15:55:55.924102,7669,0,0,,0,0,30.6243659017,-96.3364074794,71.7420561521,"(0.0, 0.7376444935798645, 0.0, 0.0, 0.0, 0.0, 0.0, 0.0, 0.0)",0
2019/02/01/15:55:55.944175,7670,0,0,,0,0,30.6243657141,-96.3364072445,71.7440260686,"(0.0, 0.7383356094360352, 0.0, 0.0, 0.0, 0.0, 0.0, 0.0, 0.0)",0
2019/02/01/15:55:55.964019,7671,0,0,,0,0,30.6243655243,-96.3364070078,71.7459533152,"(0.0, 0.7390307188034058, 0.0, 0.0, 0.0, 0.0, 0.0, 0.0, 0.0)",0
2019/02/01/15:55:55.984325,7672,0,0,,0,0,30.6243653328,-96.3364067682,71.7479397515,"(0.0, 0.739729642868042, 0.0, 0.0, 0.0, 0.0, 0.0, 0.0, 0.0)",0
2019/02/01/15:55:56.003993,7673,0,0,,0,0,30.6243651386,-96.3364065255,71.7498689832,"(0.0, 0.7404327392578125, 0.0, 0.0, 0.0, 0.0, 0.0, 0.0, 0.0)",0
2019/02/01/15:55:56.024540,7674,0,0,,0,0,30.6243649424,-96.3364062797,71.7518507626,"(0.0, 0.7411397099494934, 0.0, 0.0, 0.0, 0.0, 0.0, 0.0, 0.0)",0
2019/02/01/15:55:56.044073,7675,0,0,,0,0,30.6243648982,-96.3364063216,71.7279155666,"(0.0, 0.7334094643592834, 0.0, 0.0, 0.0, 0.0, 0.0, 0.0, 0.0)",0
2019/02/01/15:55:56.063832,7676,0,0,,0,0,30.624364699,-96.3364060733,71.7299151488,"(0.0, 0.7340759038925171, 0.0, 0.0, 0.0, 0.0, 0.0, 0.0, 0.0)",0
2019/02/01/15:55:56.083787,7677,0,0,,0,0,30.6243644976,-96.3364058214,71.7317910464,"(0.0, 0.7347459197044373, 0.0, 0.0, 0.0, 0.0, 0.0, 0.0, 0.0)",0
2019/02/01/15:55:56.104179,7678,0,0,,0,0,30.6243642936,-96.3364055671,71.7337588423,"(0.0, 0.735419750213623, 0.0, 0.0, 0.0, 0.0, 0.0, 0.0, 0.0)",0
2019/02/01/15:55:56.124033,7679,0,0,,0,0,30.6243640872,-96.3364053097,71.7357163529,"(0.0, 0.7360973358154297, 0.0, 0.0, 0.0, 0.0, 0.0, 0.0, 0.0)",0
2019/02/01/15:55:56.143705,7680,0,0,,0,0,30.6243638786,-96.3364050497,71.7376915149,"(0.0, 0.7367787957191467, 0.0, 0.0, 0.0, 0.0, 0.0, 0.0, 0.0)",0
2019/02/01/15:55:56.164518,7681,0,0,,0,0,30.6243636151,-96.3364046439,71.7067002996,"(0.0, 0.728999137878418, 0.0, 0.0, 0.0, 0.0, 0.0, 0.0, 0.0)",0
2019/02/01/15:55:56.183756,7682,0,0,,0,0,30.6243634021,-96.3364043766,71.7085595794,"(0.0, 0.7296395897865295, 0.0, 0.0, 0.0, 0.0, 0.0, 0.0, 0.0)",0
2019/02/01/15:55:56.203655,7683,0,0,,0,0,30.6243631865,-96.3364041064,71.7104269573,"(0.0, 0.7302835583686829, 0.0, 0.0, 0.0, 0.0, 0.0, 0.0, 0.0)",0
2019/02/01/15:55:56.223692,7684,0,0,,0,0,30.6243629686,-96.3364038327,71.7123550456,"(0.0, 0.7309311032295227, 0.0, 0.0, 0.0, 0.0, 0.0, 0.0, 0.0)",0
2019/02/01/15:55:56.243707,7685,0,0,,0,0,30.6243627488,-96.3364035557,71.7142691247,"(0.0, 0.7315822839736938, 0.0, 0.0, 0.0, 0.0, 0.0, 0.0, 0.0)",0
2019/02/01/15:55:56.263590,7686,0,0,,0,0,30.6243625268,-96.336403275,71.7162581021,"(0.0, 0.7322371006011963, 0.0, 0.0, 0.0, 0.0, 0.0, 0.0, 0.0)",0
2019/02/01/15:55:56.283580,7687,0,0,,0,0,30.6243623032,-96.3364029902,71.7182658031,"(0.0, 0.7328956127166748, 0.0, 0.0, 0.0, 0.0, 0.0, 0.0, 0.0)",0
2019/02/01/15:55:56.303657,7688,0,0,,0,0,30.6243620775,-96.336402702,71.7201853693,"(0.0, 0.733557939529419, 0.0, 0.0, 0.0, 0.0, 0.0, 0.0, 0.0)",0
2019/02/01/15:55:56.323556,7689,0,0,,0,0,30.6243618506,-96.3364024094,71.7221485521,"(0.0, 0.7342240810394287, 0.0, 0.0, 0.0, 0.0, 0.0, 0.0, 0.0)",0
2019/02/01/15:55:56.343498,7690,0,0,,0,0,30.6243615242,-96.336401942,71.6884719669,"(0.0, 0.7270318269729614, 0.0, 0.0, 0.0, 0.0, 0.0, 0.0, 0.0)",0
2019/02/01/15:55:56.363407,7691,0,0,,0,0,30.6243612928,-96.3364016403,71.6902900655,"(0.0, 0.727664589881897, 0.0, 0.0, 0.0, 0.0, 0.0, 0.0, 0.0)",0
2019/02/01/15:55:56.383615,7692,0,0,,0,0,30.6243610594,-96.3364013351,71.6921397382,"(0.0, 0.7283008694648743, 0.0, 0.0, 0.0, 0.0, 0.0, 0.0, 0.0)",0
2019/02/01/15:55:56.404435,7693,0,0,,0,0,30.6243608237,-96.3364010263,71.6940129013,"(0.0, 0.7289408445358276, 0.0, 0.0, 0.0, 0.0, 0.0, 0.0, 0.0)",0
2019/02/01/15:55:56.423421,7694,0,0,,0,0,30.6243605861,-96.3364007137,71.6959206495,"(0.0, 0.7295844554901123, 0.0, 0.0, 0.0, 0.0, 0.0, 0.0, 0.0)",0
2019/02/01/15:55:56.444442,7695,0,0,,0,0,30.6243603466,-96.3364003971,71.6978496416,"(0.0, 0.7302318215370178, 0.0, 0.0, 0.0, 0.0, 0.0, 0.0, 0.0)",0
2019/02/01/15:55:56.464292,7696,0,0,,0,0,30.6243601054,-96.3364000765,71.6997554936,"(0.0, 0.7308828830718994, 0.0, 0.0, 0.0, 0.0, 0.0, 0.0, 0.0)",0
2019/02/01/15:55:56.484286,7697,0,0,,0,0,30.6243598625,-96.336399752,71.7016200074,"(0.0, 0.7315377593040466, 0.0, 0.0, 0.0, 0.0, 0.0, 0.0, 0.0)",0
2019/02/01/15:55:56.504183,7698,0,0,,0,0,30.6243596185,-96.3363994238,71.7035167795,"(0.0, 0.7321965098381042, 0.0, 0.0, 0.0, 0.0, 0.0, 0.0, 0.0)",0
2019/02/01/15:55:56.524163,7699,0,0,,0,0,30.6243593728,-96.3363990917,71.7054028562,"(0.0, 0.7328592538833618, 0.0, 0.0, 0.0, 0.0, 0.0, 0.0, 0.0)",0
2019/02/01/15:55:56.544240,7700,0,0,,0,0,30.6243590856,-96.3363985968,71.67751532,"(0.0, 0.7256367206573486, 0.0, 0.0, 0.0, 0.0, 0.0, 0.0, 0.0)",0
2019/02/01/15:55:56.564079,7701,0,0,,0,0,30.6243588364,-96.3363982557,71.6792669217,"(0.0, 0.7262648344039917, 0.0, 0.0, 0.0, 0.0, 0.0, 0.0, 0.0)",0
2019/02/01/15:55:56.584052,7702,0,0,,0,0,30.6243585855,-96.3363979101,71.6810491984,"(0.0, 0.7268967032432556, 0.0, 0.0, 0.0, 0.0, 0.0, 0.0, 0.0)",0
2019/02/01/15:55:56.604007,7703,0,0,,0,0,30.6243583327,-96.3363975606,71.6828205022,"(0.0, 0.7275323271751404, 0.0, 0.0, 0.0, 0.0, 0.0, 0.0, 0.0)",0
2019/02/01/15:55:56.624295,7704,0,0,,0,0,30.6243580792,-96.3363972072,71.6845532893,"(0.0, 0.728171706199646, 0.0, 0.0, 0.0, 0.0, 0.0, 0.0, 0.0)",0
2019/02/01/15:55:56.644061,7705,0,0,,0,0,30.6243578237,-96.3363968497,71.6862675948,"(0.0, 0.7288148999214172, 0.0, 0.0, 0.0, 0.0, 0.0, 0.0, 0.0)",0
2019/02/01/15:55:56.664019,7706,0,0,,0,0,30.6243575674,-96.3363964882,71.6879529273,"(0.0, 0.7294618487358093, 0.0, 0.0, 0.0, 0.0, 0.0, 0.0, 0.0)",0
2019/02/01/15:55:56.683944,7707,0,0,,0,0,30.6243573099,-96.3363961225,71.6895913398,"(0.0, 0.7301127910614014, 0.0, 0.0, 0.0, 0.0, 0.0, 0.0, 0.0)",0
2019/02/01/15:55:56.703827,7708,0,0,,0,0,30.6243570511,-96.3363957528,71.6912025064,"(0.0, 0.7307676672935486, 0.0, 0.0, 0.0, 0.0, 0.0, 0.0, 0.0)",0
2019/02/01/15:55:56.723858,7709,0,0,,0,0,30.6243567905,-96.3363953792,71.6928242412,"(0.0, 0.731426477432251, 0.0, 0.0, 0.0, 0.0, 0.0, 0.0, 0.0)",0
2019/02/01/15:55:56.743914,7710,0,0,,0,0,30.6243565285,-96.3363950015,71.6944683716,"(0.0, 0.7320893406867981, 0.0, 0.0, 0.0, 0.0, 0.0, 0.0, 0.0)",0
2019/02/01/15:55:56.763864,7711,0,0,,0,0,30.6243561138,-96.3363945507,71.6723776995,"(0.0, 0.7247995138168335, 0.0, 0.0, 0.0, 0.0, 0.0, 0.0, 0.0)",0
2019/02/01/15:55:56.783902,7712,0,0,,0,0,30.6243558467,-96.3363941652,71.6740685799,"(0.0, 0.7254266142845154, 0.0, 0.0, 0.0, 0.0, 0.0, 0.0, 0.0)",0
2019/02/01/15:55:56.803811,7713,0,0,,0,0,30.6243555779,-96.3363937758,71.6758230021,"(0.0, 0.7260575294494629, 0.0, 0.0, 0.0, 0.0, 0.0, 0.0, 0.0)",0
2019/02/01/15:55:56.823767,7714,0,0,,0,0,30.6243553078,-96.3363933824,71.677582901,"(0.0, 0.726692259311676, 0.0, 0.0, 0.0, 0.0, 0.0, 0.0, 0.0)",0
2019/02/01/15:55:56.843692,7715,0,0,,0,0,30.6243550366,-96.3363929848,71.6792964847,"(0.0, 0.7273309230804443, 0.0, 0.0, 0.0, 0.0, 0.0, 0.0, 0.0)",0
2019/02/01/15:55:56.863602,7716,0,0,,0,0,30.6243547646,-96.3363925831,71.680899573,"(0.0, 0.7279733419418335, 0.0, 0.0, 0.0, 0.0, 0.0, 0.0, 0.0)",0
2019/02/01/15:55:56.883651,7717,0,0,,0,0,30.6243544917,-96.336392177,71.6823807028,"(0.0, 0.7286198735237122, 0.0, 0.0, 0.0, 0.0, 0.0, 0.0, 0.0)",0
2019/02/01/15:55:56.903395,7718,0,0,,0,0,30.6243542178,-96.3363917667,71.6837533782,"(0.0, 0.7292704582214355, 0.0, 0.0, 0.0, 0.0, 0.0, 0.0, 0.0)",0
2019/02/01/15:55:56.923551,7719,0,0,,0,0,30.6243539424,-96.3363913524,71.6850584866,"(0.0, 0.7299247980117798, 0.0, 0.0, 0.0, 0.0, 0.0, 0.0, 0.0)",0
2019/02/01/15:55:56.943618,7720,0,0,,0,0,30.624353539,-96.3363908715,71.6587160542,"(0.0, 0.722939670085907, 0.0, 0.0, 0.0, 0.0, 0.0, 0.0, 0.0)",0
2019/02/01/15:55:56.963368,7721,0,0,,0,0,30.6243532575,-96.3363904501,71.6598733254,"(0.0, 0.7235621213912964, 0.0, 0.0, 0.0, 0.0, 0.0, 0.0, 0.0)",0
2019/02/01/15:55:56.983541,7722,0,0,,0,0,30.6243529734,-96.3363900259,71.661079457,"(0.0, 0.7241883277893066, 0.0, 0.0, 0.0, 0.0, 0.0, 0.0, 0.0)",0
2019/02/01/15:55:57.003296,7723,0,0,,0,0,30.6243526864,-96.3363895986,71.662359166,"(0.0, 0.7248183488845825, 0.0, 0.0, 0.0, 0.0, 0.0, 0.0, 0.0)",0
2019/02/01/15:55:57.023422,7724,0,0,,0,0,30.6243523967,-96.3363891682,71.6637170073,"(0.0, 0.7254521250724792, 0.0, 0.0, 0.0, 0.0, 0.0, 0.0, 0.0)",0
2019/02/01/15:55:57.043457,7725,0,0,,0,0,30.6243521043,-96.3363887348,71.6651344327,"(0.0, 0.7260897159576416, 0.0, 0.0, 0.0, 0.0, 0.0, 0.0, 0.0)",0
2019/02/01/15:55:57.063309,7726,0,0,,0,0,30.6243518096,-96.3363882979,71.6665770295,"(0.0, 0.7267312407493591, 0.0, 0.0, 0.0, 0.0, 0.0, 0.0, 0.0)",0
2019/02/01/15:55:57.084405,7727,0,0,,0,0,30.624351513,-96.3363878575,71.668017501,"(0.0, 0.7273766994476318, 0.0, 0.0, 0.0, 0.0, 0.0, 0.0, 0.0)",0
2019/02/01/15:55:57.103573,7728,0,0,,0,0,30.624351214,-96.3363874137,71.6694392646,"(0.0, 0.728026270866394, 0.0, 0.0, 0.0, 0.0, 0.0, 0.0, 0.0)",0
2019/02/01/15:55:57.124264,7729,0,0,,0,0,30.6243509128,-96.3363869667,71.6708452152,"(0.0, 0.7286799550056458, 0.0, 0.0, 0.0, 0.0, 0.0, 0.0, 0.0)",0
2019/02/01/15:55:57.144291,7730,0,0,,0,0,30.6243504854,-96.3363865628,71.6362273176,"(0.0, 0.7217087745666504, 0.0, 0.0, 0.0, 0.0, 0.0, 0.0, 0.0)",0
2019/02/01/15:55:57.164244,7731,0,0,,0,0,30.6243501779,-96.3363861128,71.6374778701,"(0.0, 0.7223302721977234, 0.0, 0.0, 0.0, 0.0, 0.0, 0.0, 0.0)",0
2019/02/01/15:55:57.184105,7732,0,0,,0,0,30.6243498685,-96.3363856608,71.6387305954,"(0.0, 0.722955584526062, 0.0, 0.0, 0.0, 0.0, 0.0, 0.0, 0.0)",0
2019/02/01/15:55:57.204531,7733,0,0,,0,0,30.6243495576,-96.336385207,71.6399737294,"(0.0, 0.723584771156311, 0.0, 0.0, 0.0, 0.0, 0.0, 0.0, 0.0)",0
2019/02/01/15:55:57.224086,7734,0,0,,0,0,30.6243492449,-96.3363847515,71.6411938975,"(0.0, 0.7242178320884705, 0.0, 0.0, 0.0, 0.0, 0.0, 0.0, 0.0)",0
2019/02/01/15:55:57.244112,7735,0,0,,0,0,30.6243489313,-96.3363842945,71.6423905473,"(0.0, 0.7248548865318298, 0.0, 0.0, 0.0, 0.0, 0.0, 0.0, 0.0)",0
2019/02/01/15:55:57.264680,7736,0,0,,0,0,30.624348616,-96.3363838353,71.6436065887,"(0.0, 0.7254958748817444, 0.0, 0.0, 0.0, 0.0, 0.0, 0.0, 0.0)",0
2019/02/01/15:55:57.284197,7737,0,0,,0,0,30.6243482993,-96.3363833736,71.6449094447,"(0.0, 0.7261409759521484, 0.0, 0.0, 0.0, 0.0, 0.0, 0.0, 0.0)",0
2019/02/01/15:55:57.304637,7738,0,0,,0,0,30.6243479805,-96.3363829089,71.6462866426,"(0.0, 0.7267901301383972, 0.0, 0.0, 0.0, 0.0, 0.0, 0.0, 0.0)",0
2019/02/01/15:55:57.324103,7739,0,0,,0,0,30.6243476595,-96.3363824417,71.6476981053,"(0.0, 0.7274434566497803, 0.0, 0.0, 0.0, 0.0, 0.0, 0.0, 0.0)",0
2019/02/01/15:55:57.344233,7740,0,0,,0,0,30.6243471504,-96.3363818702,71.6174195949,"(0.0, 0.7203000783920288, 0.0, 0.0, 0.0, 0.0, 0.0, 0.0, 0.0)",0
2019/02/01/15:55:57.363919,7741,0,0,,0,0,30.6243468236,-96.3363813991,71.6186036523,"(0.0, 0.7209190726280212, 0.0, 0.0, 0.0, 0.0, 0.0, 0.0, 0.0)",0
2019/02/01/15:55:57.383948,7742,0,0,,0,0,30.6243464957,-96.336380928,71.6196935829,"(0.0, 0.7215419411659241, 0.0, 0.0, 0.0, 0.0, 0.0, 0.0, 0.0)",0
2019/02/01/15:55:57.403901,7743,0,0,,0,0,30.6243461661,-96.3363804544,71.62074982,"(0.0, 0.7221685647964478, 0.0, 0.0, 0.0, 0.0, 0.0, 0.0, 0.0)",0
2019/02/01/15:55:57.423977,7744,0,0,,0,0,30.6243458355,-96.3363799798,71.621778104,"(0.0, 0.7227991819381714, 0.0, 0.0, 0.0, 0.0, 0.0, 0.0, 0.0)",0
2019/02/01/15:55:57.443775,7745,0,0,,0,0,30.6243455032,-96.3363795041,71.6228698916,"(0.0, 0.7234337329864502, 0.0, 0.0, 0.0, 0.0, 0.0, 0.0, 0.0)",0
2019/02/01/15:55:57.463803,7746,0,0,,0,0,30.6243451695,-96.3363790277,71.6240285505,"(0.0, 0.7240722179412842, 0.0, 0.0, 0.0, 0.0, 0.0, 0.0, 0.0)",0
2019/02/01/15:55:57.483754,7747,0,0,,0,0,30.6243448343,-96.3363785497,71.6252894271,"(0.0, 0.7247146368026733, 0.0, 0.0, 0.0, 0.0, 0.0, 0.0, 0.0)",0
2019/02/01/15:55:57.503892,7748,0,0,,0,0,30.6243444974,-96.3363780709,71.6266364008,"(0.0, 0.725361168384552, 0.0, 0.0, 0.0, 0.0, 0.0, 0.0, 0.0)",0
2019/02/01/15:55:57.523728,7749,0,0,,0,0,30.6243441594,-96.3363775903,71.6280121519,"(0.0, 0.7260118126869202, 0.0, 0.0, 0.0, 0.0, 0.0, 0.0, 0.0)",0
2019/02/01/15:55:57.543707,7750,0,0,,0,0,30.6243437768,-96.3363770126,71.6035763575,"(0.0, 0.7266664505004883, 0.0, 0.0, 0.0, 0.0, 0.0, 0.0, 0.0)",0
2019/02/01/15:55:57.563653,7751,0,0,,0,0,30.6243434357,-96.3363765293,71.6048685503,"(0.0, 0.7195332646369934, 0.0, 0.0, 0.0, 0.0, 0.0, 0.0, 0.0)",0
2019/02/01/15:55:57.583858,7752,0,0,,0,0,30.6243430936,-96.3363760452,71.6061306279,"(0.0, 0.720154345035553, 0.0, 0.0, 0.0, 0.0, 0.0, 0.0, 0.0)",0
2019/02/01/15:55:57.603559,7753,0,0,,0,0,30.624342749,-96.3363755603,71.6073621172,"(0.0, 0.7207792401313782, 0.0, 0.0, 0.0, 0.0, 0.0, 0.0, 0.0)",0
2019/02/01/15:55:57.623533,7754,0,0,,0,0,30.6243424028,-96.3363750748,71.608564856,"(0.0, 0.7214080095291138, 0.0, 0.0, 0.0, 0.0, 0.0, 0.0, 0.0)",0
2019/02/01/15:55:57.643459,7755,0,0,,0,0,30.6243420556,-96.3363745888,71.6097418987,"(0.0, 0.7220405340194702, 0.0, 0.0, 0.0, 0.0, 0.0, 0.0, 0.0)",0
2019/02/01/15:55:57.663484,7756,0,0,,0,0,30.6243417053,-96.3363741033,71.6108478154,"(0.0, 0.7226770520210266, 0.0, 0.0, 0.0, 0.0, 0.0, 0.0, 0.0)",0
2019/02/01/15:55:57.683562,7757,0,0,,0,0,30.624341353,-96.3363736168,71.6120117623,"(0.0, 0.7233175039291382, 0.0, 0.0, 0.0, 0.0, 0.0, 0.0, 0.0)",0
2019/02/01/15:55:57.703429,7758,0,0,,0,0,30.6243409982,-96.33637313,71.6132246591,"(0.0, 0.7239619493484497, 0.0, 0.0, 0.0, 0.0, 0.0, 0.0, 0.0)",0
2019/02/01/15:55:57.723389,7759,0,0,,0,0,30.624340643,-96.3363726414,71.6144029167,"(0.0, 0.7246103882789612, 0.0, 0.0, 0.0, 0.0, 0.0, 0.0, 0.0)",0
2019/02/01/15:55:57.743302,7760,0,0,,0,0,30.6243402871,-96.336372152,71.6156634791,"(0.0, 0.7252628803253174, 0.0, 0.0, 0.0, 0.0, 0.0, 0.0, 0.0)",0
2019/02/01/15:55:57.763411,7761,0,0,,0,0,30.6243397935,-96.3363715752,71.5894885175,"(0.0, 0.718075156211853, 0.0, 0.0, 0.0, 0.0, 0.0, 0.0, 0.0)",0
2019/02/01/15:55:57.783448,7762,0,0,,0,0,30.6243394335,-96.336371083,71.5907956855,"(0.0, 0.7186936140060425, 0.0, 0.0, 0.0, 0.0, 0.0, 0.0, 0.0)",0
2019/02/01/15:55:57.804379,7763,0,0,,0,0,30.6243390731,-96.3363705892,71.5921498509,"(0.0, 0.7193159461021423, 0.0, 0.0, 0.0, 0.0, 0.0, 0.0, 0.0)",0
2019/02/01/15:55:57.824285,7764,0,0,,0,0,30.6243387112,-96.3363700937,71.5934856827,"(0.0, 0.7199421525001526, 0.0, 0.0, 0.0, 0.0, 0.0, 0.0, 0.0)",0
2019/02/01/15:55:57.844338,7765,0,0,,0,0,30.6243383483,-96.3363695968,71.5947605986,"(0.0, 0.7205722332000732, 0.0, 0.0, 0.0, 0.0, 0.0, 0.0, 0.0)",0
2019/02/01/15:55:57.864239,7766,0,0,,0,0,30.6243379836,-96.3363690986,71.5959634483,"(0.0, 0.7212063074111938, 0.0, 0.0, 0.0, 0.0, 0.0, 0.0, 0.0)",0
2019/02/01/15:55:57.884235,7767,0,0,,0,0,30.6243376175,-96.3363685993,71.5971227591,"(0.0, 0.7218441963195801, 0.0, 0.0, 0.0, 0.0, 0.0, 0.0, 0.0)",0
2019/02/01/15:55:57.904294,7768,0,0,,0,0,30.6243372497,-96.336368099,71.5982720191,"(0.0, 0.7224860787391663, 0.0, 0.0, 0.0, 0.0, 0.0, 0.0, 0.0)",0
2019/02/01/15:55:57.924151,7769,0,0,,0,0,30.6243368805,-96.3363675968,71.599361219,"(0.0, 0.7231319546699524, 0.0, 0.0, 0.0, 0.0, 0.0, 0.0, 0.0)",0
2019/02/01/15:55:57.944002,7770,0,0,,0,0,30.6243365109,-96.3363670933,71.6004688554,"(0.0, 0.7237818837165833, 0.0, 0.0, 0.0, 0.0, 0.0, 0.0, 0.0)",0
2019/02/01/15:55:57.964015,7771,0,0,,0,0,30.6243361407,-96.3363665883,71.6015934297,"(0.0, 0.7244359254837036, 0.0, 0.0, 0.0, 0.0, 0.0, 0.0, 0.0)",0
2019/02/01/15:55:57.984150,7772,0,0,,0,0,30.6243357705,-96.3363660808,71.6027597901,"(0.0, 0.7250941395759583, 0.0, 0.0, 0.0, 0.0, 0.0, 0.0, 0.0)",0
2019/02/01/15:55:58.004072,7773,0,0,,0,0,30.6243354367,-96.3363655812,71.5823400989,"(0.0, 0.7257565855979919, 0.0, 0.0, 0.0, 0.0, 0.0, 0.0, 0.0)",0
2019/02/01/15:55:58.023960,7774,0,0,,0,0,30.6243350652,-96.3363650705,71.5835460038,"(0.0, 0.7184228897094727, 0.0, 0.0, 0.0, 0.0, 0.0, 0.0, 0.0)",0
2019/02/01/15:55:58.043995,7775,0,0,,0,0,30.6243346912,-96.3363645577,71.5849555926,"(0.0, 0.7190499901771545, 0.0, 0.0, 0.0, 0.0, 0.0, 0.0, 0.0)",0
2019/02/01/15:55:58.063852,7776,0,0,,0,0,30.6243343159,-96.3363640441,71.5861413148,"(0.0, 0.7196809649467468, 0.0, 0.0, 0.0, 0.0, 0.0, 0.0, 0.0)",0
2019/02/01/15:55:58.083773,7777,0,0,,0,0,30.6243339393,-96.336363529,71.5873664883,"(0.0, 0.7203158736228943, 0.0, 0.0, 0.0, 0.0, 0.0, 0.0, 0.0)",0
2019/02/01/15:55:58.103807,7778,0,0,,0,0,30.6243335619,-96.3363630121,71.5885188342,"(0.0, 0.7209547162055969, 0.0, 0.0, 0.0, 0.0, 0.0, 0.0, 0.0)",0
2019/02/01/15:55:58.123734,7779,0,0,,0,0,30.624333184,-96.3363624942,71.589504004,"(0.0, 0.7215976715087891, 0.0, 0.0, 0.0, 0.0, 0.0, 0.0, 0.0)",0
2019/02/01/15:55:58.143709,7780,0,0,,0,0,30.6243328059,-96.3363619741,71.5904896702,"(0.0, 0.722244381904602, 0.0, 0.0, 0.0, 0.0, 0.0, 0.0, 0.0)",0
2019/02/01/15:55:58.163775,7781,0,0,,0,0,30.6243324545,-96.3363614313,71.5725199911,"(0.0, 0.7149342894554138, 0.0, 0.0, 0.0, 0.0, 0.0, 0.0, 0.0)",0
2019/02/01/15:55:58.183630,7782,0,0,,0,0,30.6243320742,-96.3363609077,71.5734567321,"(0.0, 0.7155454754829407, 0.0, 0.0, 0.0, 0.0, 0.0, 0.0, 0.0)",0
2019/02/01/15:55:58.203599,7783,0,0,,0,0,30.6243316922,-96.3363603828,71.5744503532,"(0.0, 0.7161604762077332, 0.0, 0.0, 0.0, 0.0, 0.0, 0.0, 0.0)",0
2019/02/01/15:55:58.223899,7784,0,0,,0,0,30.6243313084,-96.3363598561,71.5755384094,"(0.0, 0.7167791724205017, 0.0, 0.0, 0.0, 0.0, 0.0, 0.0, 0.0)",0
2019/02/01/15:55:58.243596,7785,0,0,,0,0,30.6243309222,-96.3363593284,71.576613069,"(0.0, 0.7174016833305359, 0.0, 0.0, 0.0, 0.0, 0.0, 0.0, 0.0)",0
2019/02/01/15:55:58.263855,7786,0,0,,0,0,30.6243305348,-96.3363587994,71.5777200591,"(0.0, 0.7180280089378357, 0.0, 0.0, 0.0, 0.0, 0.0, 0.0, 0.0)",0
2019/02/01/15:55:58.283694,7787,0,0,,0,0,30.6243301465,-96.3363582692,71.5789176608,"(0.0, 0.7186583280563354, 0.0, 0.0, 0.0, 0.0, 0.0, 0.0, 0.0)",0
2019/02/01/15:55:58.304124,7788,0,0,,0,0,30.6243297571,-96.3363577373,71.5801933855,"(0.0, 0.7192924618721008, 0.0, 0.0, 0.0, 0.0, 0.0, 0.0, 0.0)",0
2019/02/01/15:55:58.323506,7789,0,0,,0,0,30.6243293675,-96.336357203,71.5815702919,"(0.0, 0.7199305891990662, 0.0, 0.0, 0.0, 0.0, 0.0, 0.0, 0.0)",0
2019/02/01/15:55:58.343634,7790,0,0,,0,0,30.6243289782,-96.3363566654,71.5828536074,"(0.0, 0.7205727696418762, 0.0, 0.0, 0.0, 0.0, 0.0, 0.0, 0.0)",0
2019/02/01/15:55:58.363347,7791,0,0,,0,0,30.6243285571,-96.3363560139,71.5711258622,"(0.0, 0.7133607864379883, 0.0, 0.0, 0.0, 0.0, 0.0, 0.0, 0.0)",0
2019/02/01/15:55:58.383446,7792,0,0,,0,0,30.6243281677,-96.3363554711,71.5723069259,"(0.0, 0.7139684557914734, 0.0, 0.0, 0.0, 0.0, 0.0, 0.0, 0.0)",0
2019/02/01/15:55:58.403397,7793,0,0,,0,0,30.6243277777,-96.3363549264,71.5733927079,"(0.0, 0.7145799398422241, 0.0, 0.0, 0.0, 0.0, 0.0, 0.0, 0.0)",0
2019/02/01/15:55:58.424456,7794,0,0,,0,0,30.6243273868,-96.3363543795,71.5744460966,"(0.0, 0.7151951789855957, 0.0, 0.0, 0.0, 0.0, 0.0, 0.0, 0.0)",0
2019/02/01/15:55:58.443289,7795,0,0,,0,0,30.6243269954,-96.3363538309,71.5754776294,"(0.0, 0.7158142328262329, 0.0, 0.0, 0.0, 0.0, 0.0, 0.0, 0.0)",0
2019/02/01/15:55:58.464332,7796,0,0,,0,0,30.6243266036,-96.3363532804,71.5764557337,"(0.0, 0.7164371609687805, 0.0, 0.0, 0.0, 0.0, 0.0, 0.0, 0.0)",0
2019/02/01/15:55:58.484301,7797,0,0,,0,0,30.6243262108,-96.3363527281,71.5773835992,"(0.0, 0.7170640230178833, 0.0, 0.0, 0.0, 0.0, 0.0, 0.0, 0.0)",0
2019/02/01/15:55:58.504162,7798,0,0,,0,0,30.624325819,-96.3363521723,71.5783352363,"(0.0, 0.7176947593688965, 0.0, 0.0, 0.0, 0.0, 0.0, 0.0, 0.0)",0
2019/02/01/15:55:58.524189,7799,0,0,,0,0,30.6243254295,-96.3363516141,71.5794902211,"(0.0, 0.7183294892311096, 0.0, 0.0, 0.0, 0.0, 0.0, 0.0, 0.0)",0
