time,.header.seq,.header.stamp.secs,.header.stamp.nsecs,.header.frame_id,.gps_time,.Mag.x,.Mag.y,.Mag.z,.Accel.x,.Accel.y,.Accel.z,.Gyro.x,.Gyro.y,.Gyro.z,.Temp,.Pressure
2019/02/01/15:55:50.504149,1626,1549058150,503962754,imu,1233093368.89,0.0,0.0,0.0,0.00139799818862,-0.000484253512695,0.00287776906043,-0.285550266504,0.211569726467,-9.82318305969,0.0,0.0
2019/02/01/15:55:50.524099,1627,1549058150,523907958,imu,1233093368.91,0.0,0.0,0.0,-0.00075745000504,0.000205610631383,0.00224279565737,-0.252591758966,0.182099372149,-9.76060676575,0.0,0.0
2019/02/01/15:55:50.544067,1628,1549058150,543989037,imu,1233093368.93,0.0,0.0,0.0,4.81612805743e-05,0.000796324224211,0.0019244691357,-0.293836981058,0.172494933009,-9.8112449646,0.0,0.0
2019/02/01/15:55:50.564206,1629,1549058150,564013684,imu,1233093368.95,0.0,0.0,0.0,-0.000345837499481,-0.000670482986607,0.00106541439891,-0.285205096006,0.180278345942,-9.80379486084,0.0,0.0
2019/02/01/15:55:50.584448,1630,1549058150,584019368,imu,1233093368.97,0.0,0.0,0.0,0.00132141122594,8.85818735696e-05,0.00168101908639,-0.281883656979,0.220708489418,-9.76905822754,0.0,0.0
2019/02/01/15:55:50.604088,1631,1549058150,603947266,imu,1233093368.99,0.0,0.0,0.0,-5.46888913959e-05,-0.000195759610506,0.00263353809714,-0.27288132906,0.206641584635,-9.80182361603,0.0,0.0
2019/02/01/15:55:50.624076,1632,1549058150,623958633,imu,1233093369.01,0.0,0.0,0.0,-0.00101784605067,-0.000359320722055,0.00161981675774,-0.262910157442,0.207925871015,-9.81348800659,0.0,0.0
2019/02/01/15:55:50.644039,1633,1549058150,643854821,imu,1233093369.03,0.0,0.0,0.0,-0.000156105437782,0.000913093215786,0.00156860239804,-0.253104716539,0.187841325998,-9.8125667572,0.0,0.0
2019/02/01/15:55:50.663907,1634,1549058150,663782859,imu,1233093369.05,0.0,0.0,0.0,-0.000202258699574,-0.000244817521889,0.00238916696981,-0.275436073542,0.185152113438,-9.80609607697,0.0,0.0
2019/02/01/15:55:50.684968,1635,1549058150,683938857,imu,1233093369.07,0.0,0.0,0.0,0.00123754132073,-0.000830485951155,0.00263594696298,-0.282896280289,0.200478702784,-9.79046058655,0.0,0.0
2019/02/01/15:55:50.703894,1636,1549058150,703729394,imu,1233093369.09,0.0,0.0,0.0,-0.00036746225669,0.000181737210369,0.00216317223385,-0.302195936441,0.183584958315,-9.79790592194,0.0,0.0
2019/02/01/15:55:50.724166,1637,1549058150,723592744,imu,1233093369.11,0.0,0.0,0.0,-0.000809782126453,-0.000238189822994,0.00230416236445,-0.301907032728,0.210574537516,-9.78517723083,0.0,0.0
2019/02/01/15:55:50.743664,1638,1549058150,743523797,imu,1233093369.13,0.0,0.0,0.0,0.000436665839516,-0.000686833052896,0.00198243511841,-0.265185803175,0.214995443821,-9.79616355896,0.0,0.0
2019/02/01/15:55:50.763747,1639,1549058150,763565147,imu,1233093369.15,0.0,0.0,0.0,-0.000867953931447,-9.3572656624e-05,0.00195705890656,-0.256410360336,0.231613740325,-9.7918806076,0.0,0.0
2019/02/01/15:55:50.783722,1640,1549058150,783506942,imu,1233093369.17,0.0,0.0,0.0,0.00101934955455,-0.00112645304762,0.00209235586226,-0.277479469776,0.205914691091,-9.79123783112,0.0,0.0
2019/02/01/15:55:50.803681,1641,1549058150,803542037,imu,1233093369.19,0.0,0.0,0.0,7.33942724764e-05,-0.00109422509558,0.00138643104583,-0.277322769165,0.204223915935,-9.78235626221,0.0,0.0
2019/02/01/15:55:50.823680,1642,1549058150,823553759,imu,1233093369.21,0.0,0.0,0.0,0.000667941756546,-0.000831812852994,0.00245511624962,-0.282049655914,0.207983151078,-9.79751491547,0.0,0.0
2019/02/01/15:55:50.843623,1643,1549058150,843471485,imu,1233093369.23,0.0,0.0,0.0,0.000607275520451,-0.000619070895482,0.00201962143183,-0.288211733103,0.216056674719,-9.77532482147,0.0,0.0
2019/02/01/15:55:50.863755,1644,1549058150,863605585,imu,1233093369.25,0.0,0.0,0.0,-0.000648080604151,0.000571986660361,0.00276251044124,-0.251440495253,0.171896323562,-9.81748485565,0.0,0.0
2019/02/01/15:55:50.883576,1645,1549058150,883394297,imu,1233093369.27,0.0,0.0,0.0,0.00126517482568,-0.00168198265601,0.00161921605468,-0.273417979479,0.211748495698,-9.82853221893,0.0,0.0
2019/02/01/15:55:50.903546,1646,1549058150,903370568,imu,1233093369.29,0.0,0.0,0.0,-0.000214242900256,-0.000802216934972,0.00145118031651,-0.275580376387,0.221501082182,-9.80871677399,0.0,0.0
2019/02/01/15:55:50.923372,1647,1549058150,923231094,imu,1233093369.31,0.0,0.0,0.0,0.00135479972232,0.00104117020965,0.00231914687902,-0.276191592216,0.204372569919,-9.77704906464,0.0,0.0
2019/02/01/15:55:50.943465,1648,1549058150,943242049,imu,1233093369.33,0.0,0.0,0.0,-0.00160243804567,-1.03634956758e-05,0.00228113634512,-0.267835378647,0.224968597293,-9.77980136871,0.0,0.0
2019/02/01/15:55:50.963472,1649,1549058150,963265436,imu,1233093369.35,0.0,0.0,0.0,0.000676676863804,-0.0010287713958,0.00231300853193,-0.270657718182,0.185347348452,-9.80677127838,0.0,0.0
2019/02/01/15:55:50.983291,1650,1549058150,983192962,imu,1233093369.37,0.0,0.0,0.0,-0.000335236924002,0.000541242770851,0.00320869171992,-0.291883736849,0.195067256689,-9.80441570282,0.0,0.0
2019/02/01/15:55:51.003292,1651,1549058151,3140498,imu,1233093369.39,0.0,0.0,0.0,-0.000125386781292,-0.00121824711096,0.00308675505221,-0.263782680035,0.196841806173,-9.78987598419,0.0,0.0
2019/02/01/15:55:51.024208,1652,1549058151,24087585,imu,1233093369.41,0.0,0.0,0.0,0.000253765669186,-0.00181890709791,0.00274184532464,-0.29182100296,0.20687456429,-9.77969837189,0.0,0.0
2019/02/01/15:55:51.044247,1653,1549058151,44132406,imu,1233093369.43,0.0,0.0,0.0,-0.0001868493855,0.000743754848372,0.00226569920778,-0.292354643345,0.189530968666,-9.83801174164,0.0,0.0
2019/02/01/15:55:51.064289,1654,1549058151,64162056,imu,1233093369.45,0.0,0.0,0.0,8.10238707345e-05,0.000367094791727,0.00124865816906,-0.284021914005,0.204602956772,-9.78325939178,0.0,0.0
2019/02/01/15:55:51.084287,1655,1549058151,84160127,imu,1233093369.47,0.0,0.0,0.0,0.00160788849462,-0.00129114475567,0.00226518558338,-0.289033174515,0.205171912909,-9.80345249176,0.0,0.0
2019/02/01/15:55:51.104245,1656,1549058151,104119236,imu,1233093369.49,0.0,0.0,0.0,-0.00024733756436,-0.000460069655674,0.00157487392426,-0.270819872618,0.191235557199,-9.81723308563,0.0,0.0
2019/02/01/15:55:51.124144,1657,1549058151,124037375,imu,1233093369.51,0.0,0.0,0.0,2.53937905654e-05,-0.000765688717365,0.00197757966816,-0.268999010324,0.191177949309,-9.80585575104,0.0,0.0
2019/02/01/15:55:51.144116,1658,1549058151,144009381,imu,1233093369.53,0.0,0.0,0.0,-0.00149239017628,0.000699879019521,0.00207645026967,-0.277567356825,0.20096193254,-9.77289009094,0.0,0.0
2019/02/01/15:55:51.164223,1659,1549058151,164082620,imu,1233093369.55,0.0,0.0,0.0,0.000521885696799,0.000528740463778,0.00203357404098,-0.273677408695,0.216218963265,-9.82353591919,0.0,0.0
2019/02/01/15:55:51.184492,1660,1549058151,184270407,imu,1233093369.57,0.0,0.0,0.0,-0.00167468190193,-0.000263545720372,0.00335351610556,-0.27218323946,0.208741351962,-9.82467460632,0.0,0.0
2019/02/01/15:55:51.204108,1661,1549058151,203961311,imu,1233093369.59,0.0,0.0,0.0,0.00125424785074,-7.93496437836e-05,0.00246536266059,-0.295086979866,0.19866630435,-9.79374408722,0.0,0.0
2019/02/01/15:55:51.224217,1662,1549058151,224022707,imu,1233093369.61,0.0,0.0,0.0,0.000281543674646,-0.000388670392567,0.00246389955282,-0.276817649603,0.183962792158,-9.82083034515,0.0,0.0
2019/02/01/15:55:51.244051,1663,1549058151,243858171,imu,1233093369.63,0.0,0.0,0.0,-0.00180915789679,7.54502834752e-05,0.00340450601652,-0.288933366537,0.174883514643,-9.80274772644,0.0,0.0
2019/02/01/15:55:51.264088,1664,1549058151,263933584,imu,1233093369.65,0.0,0.0,0.0,0.00101919844747,-0.00149578764103,0.0022477353923,-0.257468253374,0.205415531993,-9.7637348175,0.0,0.0
2019/02/01/15:55:51.284036,1665,1549058151,283923632,imu,1233093369.67,0.0,0.0,0.0,-0.000412825524108,-0.000471021223348,0.0019344445318,-0.260212540627,0.188291728497,-9.79344940186,0.0,0.0
2019/02/01/15:55:51.304083,1666,1549058151,303843519,imu,1233093369.69,0.0,0.0,0.0,0.00112292217091,0.000550745113287,0.00197885930538,-0.257655262947,0.187023237348,-9.76419258118,0.0,0.0
2019/02/01/15:55:51.323925,1667,1549058151,323730851,imu,1233093369.71,0.0,0.0,0.0,-0.00181609718129,-0.000262746674707,0.00141501193866,-0.272550880909,0.224783420563,-9.82532119751,0.0,0.0
2019/02/01/15:55:51.343948,1668,1549058151,343644788,imu,1233093369.73,0.0,0.0,0.0,0.0010537726339,-3.97085386794e-05,0.00190061656758,-0.275974065065,0.221616476774,-9.78841495514,0.0,0.0
2019/02/01/15:55:51.363792,1669,1549058151,363693361,imu,1233093369.75,0.0,0.0,0.0,0.00145201548003,-0.000571526121348,0.00248160399497,-0.28794619441,0.210936799645,-9.80041885376,0.0,0.0
2019/02/01/15:55:51.383967,1670,1549058151,383720229,imu,1233093369.77,0.0,0.0,0.0,0.00104163819924,-0.000342072162312,0.0031582606025,-0.272086650133,0.183849990368,-9.7984085083,0.0,0.0
2019/02/01/15:55:51.403847,1671,1549058151,403705463,imu,1233093369.79,0.0,0.0,0.0,0.00223743240349,4.56817797385e-05,0.00246893521398,-0.256513088942,0.207088276744,-9.78055381775,0.0,0.0
2019/02/01/15:55:51.423757,1672,1549058151,423606503,imu,1233093369.81,0.0,0.0,0.0,-0.000341712322552,0.000118563621072,0.00234850030392,-0.260010153055,0.207812711596,-9.81660079956,0.0,0.0
2019/02/01/15:55:51.443760,1673,1549058151,443619024,imu,1233093369.83,0.0,0.0,0.0,0.00223945057951,-0.000627907342277,0.00122526055202,-0.278867155313,0.211109697819,-9.78022003174,0.0,0.0
2019/02/01/15:55:51.463820,1674,1549058151,463699992,imu,1233093369.85,0.0,0.0,0.0,0.000581094180234,-0.00110658246558,0.00217386381701,-0.292752057314,0.201601043344,-9.82162475586,0.0,0.0
2019/02/01/15:55:51.483767,1675,1549058151,483616941,imu,1233093369.87,0.0,0.0,0.0,0.0020152463112,-0.000980808050372,0.0015075635165,-0.252645075321,0.19449724257,-9.80476856232,0.0,0.0
2019/02/01/15:55:51.503840,1676,1549058151,503710218,imu,1233093369.89,0.0,0.0,0.0,0.000791619706433,-0.000875654397532,0.00167754478753,-0.28561425209,0.205564931035,-9.77269363403,0.0,0.0
2019/02/01/15:55:51.523499,1677,1549058151,523389871,imu,1233093369.91,0.0,0.0,0.0,9.91879060166e-05,9.2586822575e-05,0.00258668418974,-0.307849913836,0.196284666657,-9.7846698761,0.0,0.0
2019/02/01/15:55:51.543573,1678,1549058151,543413179,imu,1233093369.93,0.0,0.0,0.0,-0.000619300641119,-0.000402442761697,0.00209420546889,-0.295525670052,0.199609711766,-9.79039382935,0.0,0.0
2019/02/01/15:55:51.563893,1679,1549058151,563644970,imu,1233093369.95,0.0,0.0,0.0,-0.000335494987667,0.000136806105729,0.0019531683065,-0.259374529123,0.158533468843,-9.80854034424,0.0,0.0
2019/02/01/15:55:51.583727,1680,1549058151,583434602,imu,1233093369.97,0.0,0.0,0.0,-0.000180239701876,5.55373262614e-05,0.00241650268435,-0.289296507835,0.192268043756,-9.82387733459,0.0,0.0
2019/02/01/15:55:51.603595,1681,1549058151,603447924,imu,1233093369.99,0.0,0.0,0.0,-0.00115262204781,0.000961323385127,0.00183753063902,-0.271235287189,0.177794113755,-9.8196182251,0.0,0.0
2019/02/01/15:55:51.623498,1682,1549058151,623341326,imu,1233093370.01,0.0,0.0,0.0,-0.000254545768257,0.000607617199421,0.00138908484951,-0.262093573809,0.208398610353,-9.82323646545,0.0,0.0
2019/02/01/15:55:51.643378,1683,1549058151,643254625,imu,1233093370.03,0.0,0.0,0.0,-0.000344706058968,0.000319168437272,0.00339239183813,-0.281055569649,0.218064934015,-9.80367660522,0.0,0.0
2019/02/01/15:55:51.663390,1684,1549058151,663236089,imu,1233093370.05,0.0,0.0,0.0,-4.25855105277e-05,-0.000253685284406,0.00119769293815,-0.276453971863,0.20709683001,-9.78985786438,0.0,0.0
2019/02/01/15:55:51.683813,1685,1549058151,683326063,imu,1233093370.07,0.0,0.0,0.0,-0.000441000564024,0.00178570358548,0.00289733707905,-0.266095966101,0.204824432731,-9.80225372314,0.0,0.0
2019/02/01/15:55:51.704376,1686,1549058151,704252169,imu,1233093370.09,0.0,0.0,0.0,-0.000851784599945,-4.94095729664e-05,0.00368921970949,-0.274130046368,0.208540603518,-9.75670433044,0.0,0.0
2019/02/01/15:55:51.724591,1687,1549058151,724170193,imu,1233093370.11,0.0,0.0,0.0,-0.000433896610048,0.000306856032694,0.00313789071515,-0.24967494607,0.210322797298,-9.79368209839,0.0,0.0
2019/02/01/15:55:51.744312,1688,1549058151,744159286,imu,1233093370.13,0.0,0.0,0.0,-0.00140940910205,0.000545942340977,0.00221805134788,-0.28200250864,0.195369318128,-9.80529022217,0.0,0.0
2019/02/01/15:55:51.764328,1689,1549058151,764200021,imu,1233093370.15,0.0,0.0,0.0,-0.000922804814763,0.00041022116784,0.00156441796571,-0.258008420467,0.222183838487,-9.76437473297,0.0,0.0
2019/02/01/15:55:51.785291,1690,1549058151,784309916,imu,1233093370.17,0.0,0.0,0.0,-0.000805359333754,-0.000295508827548,0.00270002707839,-0.254156470299,0.203912869096,-9.80725574493,0.0,0.0
2019/02/01/15:55:51.804369,1691,1549058151,804183797,imu,1233093370.19,0.0,0.0,0.0,-0.000496247899719,6.45849504508e-05,0.00181089434773,-0.26871034503,0.217472583055,-9.8014793396,0.0,0.0
2019/02/01/15:55:51.824923,1692,1549058151,824308898,imu,1233093370.21,0.0,0.0,0.0,0.00101704895496,0.00023093278287,0.00192193686962,-0.297032743692,0.213355913758,-9.79715633392,0.0,0.0
2019/02/01/15:55:51.844088,1693,1549058151,843916536,imu,1233093370.23,0.0,0.0,0.0,-0.000129977415781,-0.000798891298473,0.00234854826704,-0.281099379063,0.200412184,-9.77916049957,0.0,0.0
2019/02/01/15:55:51.864179,1694,1549058151,863961747,imu,1233093370.25,0.0,0.0,0.0,0.00162604509387,-0.00111407297663,0.00191198475659,-0.262715697289,0.195277437568,-9.81255435944,0.0,0.0
2019/02/01/15:55:51.884155,1695,1549058151,883995287,imu,1233093370.27,0.0,0.0,0.0,0.000759625225328,-0.000645647989586,0.00173910800368,-0.289191842079,0.193777427077,-9.83381462097,0.0,0.0
2019/02/01/15:55:51.904164,1696,1549058151,903924308,imu,1233093370.29,0.0,0.0,0.0,8.46803450258e-05,0.000294141529594,0.00211546802893,-0.255895704031,0.219263955951,-9.85258769989,0.0,0.0
2019/02/01/15:55:51.924039,1697,1549058151,923935346,imu,1233093370.31,0.0,0.0,0.0,0.00028243966517,0.000569418014493,0.00339307868853,-0.282561093569,0.213038638234,-9.79552459717,0.0,0.0
2019/02/01/15:55:51.944008,1698,1549058151,943765145,imu,1233093370.33,0.0,0.0,0.0,0.00157406367362,-0.000268876116024,0.00287212338299,-0.29243016243,0.206287845969,-9.806848526,0.0,0.0
2019/02/01/15:55:51.963831,1699,1549058151,963714839,imu,1233093370.35,0.0,0.0,0.0,0.000624399748631,0.000210037062061,0.00299136945978,-0.274266660213,0.212016448379,-9.80285549164,0.0,0.0
2019/02/01/15:55:51.983993,1700,1549058151,983841126,imu,1233093370.37,0.0,0.0,0.0,-0.00135559937917,0.000921275699511,0.00201732013375,-0.260328501463,0.19312402606,-9.7976808548,0.0,0.0
2019/02/01/15:55:52.003890,1701,1549058152,3765173,imu,1233093370.39,0.0,0.0,0.0,-9.34903800953e-05,-0.000466082012281,0.0027188109234,-0.276865690947,0.176221251488,-9.77958583832,0.0,0.0
2019/02/01/15:55:52.023856,1702,1549058152,23749130,imu,1233093370.41,0.0,0.0,0.0,0.000821895082481,-0.000564548536204,0.00225838692859,-0.26931142807,0.209902793169,-9.80543899536,0.0,0.0
2019/02/01/15:55:52.043911,1703,1549058152,43701946,imu,1233093370.43,0.0,0.0,0.0,0.000423826422775,0.000264958711341,0.00329652801156,-0.258055925369,0.184045985341,-9.78516197205,0.0,0.0
2019/02/01/15:55:52.063802,1704,1549058152,63624035,imu,1233093370.45,0.0,0.0,0.0,0.00073465181049,-0.000660956953652,0.00142997363582,-0.288456052542,0.179168820381,-9.82624435425,0.0,0.0
2019/02/01/15:55:52.083810,1705,1549058152,83608603,imu,1233093370.47,0.0,0.0,0.0,-0.000373222661437,-0.000712824403308,0.0022016428411,-0.268027991056,0.197642415762,-9.77966213226,0.0,0.0
2019/02/01/15:55:52.103708,1706,1549058152,103575818,imu,1233093370.49,0.0,0.0,0.0,-0.00164792430587,0.00121900881641,0.00250096293166,-0.268777728081,0.188014894724,-9.79273223877,0.0,0.0
2019/02/01/15:55:52.123678,1707,1549058152,123566247,imu,1233093370.51,0.0,0.0,0.0,-0.00180230895057,-0.000590386684053,0.00188918737695,-0.276618570089,0.211927443743,-9.81236839294,0.0,0.0
2019/02/01/15:55:52.143935,1708,1549058152,143700610,imu,1233093370.53,0.0,0.0,0.0,-0.000992987421341,-0.000224860094022,0.00207295781001,-0.270558029413,0.178568780422,-9.8053445816,0.0,0.0
2019/02/01/15:55:52.163540,1709,1549058152,163420140,imu,1233093370.55,0.0,0.0,0.0,-0.000626289984211,-0.000895416829735,0.0023825825192,-0.278220832348,0.19552449882,-9.84297370911,0.0,0.0
2019/02/01/15:55:52.183654,1710,1549058152,183436831,imu,1233093370.57,0.0,0.0,0.0,-0.000539248343557,-0.000218440545723,0.000730448868126,-0.289499431849,0.19460824132,-9.83052349091,0.0,0.0
2019/02/01/15:55:52.203621,1711,1549058152,203480294,imu,1233093370.59,0.0,0.0,0.0,0.000224304007133,-0.000955936382525,0.00340585084632,-0.258111536503,0.220188260078,-9.81518745422,0.0,0.0
2019/02/01/15:55:52.223597,1712,1549058152,223386796,imu,1233093370.61,0.0,0.0,0.0,-0.00127298780717,-0.000676361494698,0.00240611471236,-0.298884421587,0.196945607662,-9.78634929657,0.0,0.0
2019/02/01/15:55:52.243497,1713,1549058152,243373056,imu,1233093370.63,0.0,0.0,0.0,0.000423444260377,0.000342070561601,0.00187588715926,-0.291892379522,0.199223816395,-9.80409526825,0.0,0.0
2019/02/01/15:55:52.263440,1714,1549058152,263333385,imu,1233093370.65,0.0,0.0,0.0,0.000377413118258,-0.000183361087693,0.00299078179523,-0.280869960785,0.207131206989,-9.78304481506,0.0,0.0
2019/02/01/15:55:52.283533,1715,1549058152,283380568,imu,1233093370.67,0.0,0.0,0.0,0.00102901540231,-0.000676796014886,0.00170096708462,-0.297826558352,0.193985879421,-9.79832553864,0.0,0.0
2019/02/01/15:55:52.303477,1716,1549058152,303303477,imu,1233093370.69,0.0,0.0,0.0,0.000254388083704,-3.97276016884e-05,0.0013830345124,-0.267659217119,0.198563486338,-9.80914497375,0.0,0.0
2019/02/01/15:55:52.323460,1717,1549058152,323327772,imu,1233093370.71,0.0,0.0,0.0,-0.00046022888273,-0.000148161459947,0.00113498931751,-0.263396769762,0.209695100784,-9.78727912903,0.0,0.0
2019/02/01/15:55:52.343610,1718,1549058152,343365771,imu,1233093370.73,0.0,0.0,0.0,0.00127017870545,-0.00075949949678,0.00131626287475,-0.293822169304,0.201584637165,-9.7893409729,0.0,0.0
2019/02/01/15:55:52.363374,1719,1549058152,363246522,imu,1233093370.75,0.0,0.0,0.0,-0.000736132846214,-0.000892712560017,0.00294828973711,-0.268902957439,0.167506471276,-9.8390083313,0.0,0.0
2019/02/01/15:55:52.385442,1720,1549058152,385182120,imu,1233093370.77,0.0,0.0,0.0,-0.000242202397203,-0.000407609157264,0.0012783408165,-0.28382152319,0.201661095023,-9.77352046967,0.0,0.0
2019/02/01/15:55:52.403416,1721,1549058152,403280471,imu,1233093370.79,0.0,0.0,0.0,0.000254604266956,2.38072534557e-05,0.000836306251585,-0.2653221488,0.207943767309,-9.8048210144,0.0,0.0
2019/02/01/15:55:52.423325,1722,1549058152,423139933,imu,1233093370.81,0.0,0.0,0.0,0.0011558169499,0.000989467604086,0.00214478280395,-0.258358329535,0.209040120244,-9.79376125336,0.0,0.0
2019/02/01/15:55:52.444307,1723,1549058152,444212473,imu,1233093370.83,0.0,0.0,0.0,0.000385779247154,-0.000298854662105,0.00228238431737,-0.277363836765,0.205984815955,-9.80434131622,0.0,0.0
2019/02/01/15:55:52.464468,1724,1549058152,464331889,imu,1233093370.85,0.0,0.0,0.0,-0.000378428521799,-0.00032717231079,0.00157438032329,-0.270099073648,0.202351674438,-9.79246711731,0.0,0.0
2019/02/01/15:55:52.484251,1725,1549058152,484136746,imu,1233093370.87,0.0,0.0,0.0,-0.000437073293142,-0.00144887284841,0.00152833247557,-0.270280092955,0.19415320456,-9.78702926636,0.0,0.0
2019/02/01/15:55:52.504287,1726,1549058152,504133780,imu,1233093370.89,0.0,0.0,0.0,-0.000247379852226,2.6386405807e-06,0.00164357479662,-0.280357271433,0.212156549096,-9.83558273315,0.0,0.0
2019/02/01/15:55:52.524151,1727,1549058152,523974214,imu,1233093370.91,0.0,0.0,0.0,-0.000600441824645,0.000293004442938,0.00281503051519,-0.273072332144,0.185983523726,-9.7895526886,0.0,0.0
2019/02/01/15:55:52.544167,1728,1549058152,544056072,imu,1233093370.93,0.0,0.0,0.0,0.000766221317463,-0.00153547350783,0.00150415441021,-0.265430390835,0.204098507762,-9.81291675568,0.0,0.0
2019/02/01/15:55:52.564015,1729,1549058152,563926908,imu,1233093370.95,0.0,0.0,0.0,-0.000622604973614,-0.00103395222686,0.00341889820993,-0.266699999571,0.207178547978,-9.82029342651,0.0,0.0
2019/02/01/15:55:52.584132,1730,1549058152,583945064,imu,1233093370.97,0.0,0.0,0.0,0.000615479773842,0.000198210749659,0.00250358367339,-0.270701855421,0.199039831758,-9.7845954895,0.0,0.0
2019/02/01/15:55:52.604254,1731,1549058152,603994451,imu,1233093370.99,0.0,0.0,0.0,0.000174279441126,0.000144857593114,0.00234218174592,-0.254378765821,0.203470572829,-9.78492546082,0.0,0.0
2019/02/01/15:55:52.623966,1732,1549058152,623787212,imu,1233093371.01,0.0,0.0,0.0,0.00136759260204,-0.000414870359236,0.00254755746573,-0.104658618569,0.264935791492,-9.77069091797,0.0,0.0
2019/02/01/15:55:52.643972,1733,1549058152,643829969,imu,1233093371.03,0.0,0.0,0.0,0.00170164578594,0.000198504189029,0.00321935396641,0.17707760632,0.133572414517,-9.83703804016,0.0,0.0
2019/02/01/15:55:52.663733,1734,1549058152,663637369,imu,1233093371.05,0.0,0.0,0.0,0.00267876009457,0.00403076410294,0.00268715247512,0.208833411336,0.245093718171,-9.98372650146,0.0,0.0
2019/02/01/15:55:52.683756,1735,1549058152,683641734,imu,1233093371.07,0.0,0.0,0.0,-0.00316410209052,0.00504709826782,0.00192529754713,0.247495174408,0.108059607446,-10.024140358,0.0,0.0
2019/02/01/15:55:52.703967,1736,1549058152,703738655,imu,1233093371.09,0.0,0.0,0.0,-0.000849380972795,0.00376304588281,0.00144800310954,0.134566858411,0.196131452918,-9.62584877014,0.0,0.0
2019/02/01/15:55:52.723720,1737,1549058152,723512218,imu,1233093371.11,0.0,0.0,0.0,-0.000186732242582,0.00227966415696,0.00213011167943,-0.0336787067354,0.203579336405,-9.58231925964,0.0,0.0
2019/02/01/15:55:52.743716,1738,1549058152,743492868,imu,1233093371.13,0.0,0.0,0.0,0.000628555659205,-0.00175615563057,0.00239252392203,-0.226434126496,0.118825748563,-9.5301399231,0.0,0.0
2019/02/01/15:55:52.763752,1739,1549058152,763586549,imu,1233093371.15,0.0,0.0,0.0,-0.000423645105911,-0.00501734949648,0.00037051178515,-0.282731711864,0.230399087071,-9.66339111328,0.0,0.0
2019/02/01/15:55:52.784437,1740,1549058152,784023108,imu,1233093371.17,0.0,0.0,0.0,-0.00062014744617,-0.00780561706051,0.00307496171445,-0.160948574543,0.23849734664,-9.80839252472,0.0,0.0
2019/02/01/15:55:52.803620,1741,1549058152,803491296,imu,1233093371.19,0.0,0.0,0.0,0.00159842905123,-0.00611390266567,0.0021969457157,0.0351946130395,0.15519733727,-9.97204303741,0.0,0.0
2019/02/01/15:55:52.823919,1742,1549058152,823659494,imu,1233093371.21,0.0,0.0,0.0,0.00129149877466,-0.00212279707193,0.00203749956563,0.228573173285,0.193391606212,-10.185210228,0.0,0.0
2019/02/01/15:55:52.843652,1743,1549058152,843521317,imu,1233093371.23,0.0,0.0,0.0,0.000284602079773,0.00516061997041,0.00310545740649,0.405158370733,0.155940681696,-10.1251020432,0.0,0.0
2019/02/01/15:55:52.863833,1744,1549058152,863425138,imu,1233093371.25,0.0,0.0,0.0,0.0013138463255,0.00912418682128,0.00154043314978,0.448086857796,0.136581301689,-9.98597621918,0.0,0.0
2019/02/01/15:55:52.884092,1745,1549058152,883460986,imu,1233093371.27,0.0,0.0,0.0,-9.83019417617e-05,0.00993725378066,0.00242456886917,0.371330291033,0.158443599939,-9.73065662384,0.0,0.0
2019/02/01/15:55:52.903724,1746,1549058152,903524094,imu,1233093371.29,0.0,0.0,0.0,0.000538337335456,0.0083761587739,0.00255500990897,0.252615988255,0.142440855503,-9.5727853775,0.0,0.0
2019/02/01/15:55:52.923630,1747,1549058152,923454653,imu,1233093371.31,0.0,0.0,0.0,0.00233254395425,0.00391746265814,0.00227161962539,0.0797230526805,0.187709420919,-9.46555900574,0.0,0.0
2019/02/01/15:55:52.943443,1748,1549058152,943314119,imu,1233093371.33,0.0,0.0,0.0,0.00166946707759,-0.000523618189618,0.00112354848534,0.0635137557983,0.185195416212,-9.52152824402,0.0,0.0
2019/02/01/15:55:52.963506,1749,1549058152,963321341,imu,1233093371.35,0.0,0.0,0.0,0.00183063163422,-0.00437618372962,0.000876448582858,0.12212279439,0.151458933949,-9.69397926331,0.0,0.0
2019/02/01/15:55:52.983691,1750,1549058152,983518739,imu,1233093371.37,0.0,0.0,0.0,0.00217285938561,-0.00578496418893,0.00155470147729,0.236876562238,0.229681834579,-9.84078121185,0.0,0.0
2019/02/01/15:55:53.003370,1751,1549058153,3252720,imu,1233093371.39,0.0,0.0,0.0,4.7348352382e-05,-0.00366602907889,0.00186709687114,0.433436453342,0.200899258256,-10.0321912766,0.0,0.0
2019/02/01/15:55:53.023511,1752,1549058153,23396062,imu,1233093371.41,0.0,0.0,0.0,-4.40113653895e-05,0.000238346838159,0.00223595881835,0.572956204414,0.15880151093,-10.1100997925,0.0,0.0
2019/02/01/15:55:53.043425,1753,1549058153,43294179,imu,1233093371.43,0.0,0.0,0.0,-0.000259453809122,0.00404331926256,0.00126827228814,0.599785625935,0.143927022815,-10.0813961029,0.0,0.0
2019/02/01/15:55:53.064445,1754,1549058153,64279063,imu,1233093371.45,0.0,0.0,0.0,-0.00128855346702,0.00733821559697,0.00235664611682,0.541089951992,0.135808736086,-9.91390228271,0.0,0.0
2019/02/01/15:55:53.083486,1755,1549058153,83278361,imu,1233093371.47,0.0,0.0,0.0,0.000377904507332,0.00635571917519,0.00238885777071,0.421385645866,0.139922112226,-9.75096893311,0.0,0.0
2019/02/01/15:55:53.103487,1756,1549058153,103303867,imu,1233093371.49,0.0,0.0,0.0,0.00103049352765,0.00367798632942,0.00244455924258,0.340937912464,0.13266672194,-9.56381034851,0.0,0.0
2019/02/01/15:55:53.123255,1757,1549058153,123128501,imu,1233093371.51,0.0,0.0,0.0,0.003931757994,0.000310626113787,0.00269926059991,0.28906917572,0.12910746038,-9.57741928101,0.0,0.0
2019/02/01/15:55:53.144292,1758,1549058153,144147932,imu,1233093371.53,0.0,0.0,0.0,0.00301263690926,-0.0013848337112,0.00224554724991,0.337161898613,0.166527226567,-9.65016269684,0.0,0.0
2019/02/01/15:55:53.164301,1759,1549058153,164117041,imu,1233093371.55,0.0,0.0,0.0,0.00199979636818,-0.00432189926505,0.00115226767957,0.495787918568,0.167421370745,-9.8164396286,0.0,0.0
2019/02/01/15:55:53.184238,1760,1549058153,184037650,imu,1233093371.57,0.0,0.0,0.0,6.98344956618e-05,-0.00330060883425,0.00248780474067,0.673581302166,0.176525309682,-9.95996379852,0.0,0.0
2019/02/01/15:55:53.204369,1761,1549058153,204119588,imu,1233093371.59,0.0,0.0,0.0,0.000764982833061,0.00043391957297,0.00206408975646,0.767641961575,0.204350754619,-10.0027952194,0.0,0.0
2019/02/01/15:55:53.224241,1762,1549058153,224047380,imu,1233093371.61,0.0,0.0,0.0,-0.00263660331257,0.00268235686235,0.00210506562144,0.76247304678,0.152093976736,-10.0037202835,0.0,0.0
2019/02/01/15:55:53.244065,1763,1549058153,243853992,imu,1233093371.63,0.0,0.0,0.0,-0.00111841713078,0.00569594744593,0.0014803125523,0.713157594204,0.152201011777,-9.91278934479,0.0,0.0
2019/02/01/15:55:53.264009,1764,1549058153,263863839,imu,1233093371.65,0.0,0.0,0.0,-0.000482995790662,0.00341688329354,0.00243409909308,0.563095629215,0.153424218297,-9.70959186554,0.0,0.0
2019/02/01/15:55:53.284101,1765,1549058153,283911172,imu,1233093371.67,0.0,0.0,0.0,8.55097023305e-05,0.00155464513227,0.00136247603223,0.466032773256,0.0941102132201,-9.63971805573,0.0,0.0
2019/02/01/15:55:53.304174,1766,1549058153,304005846,imu,1233093371.69,0.0,0.0,0.0,0.000350510526914,-0.0010212091729,0.00108064291999,0.427110612392,0.0859814360738,-9.60431575775,0.0,0.0
2019/02/01/15:55:53.324162,1767,1549058153,323925975,imu,1233093371.71,0.0,0.0,0.0,0.00209259963594,-0.00426545366645,0.00151443108916,0.468341827393,0.217974111438,-9.66963863373,0.0,0.0
2019/02/01/15:55:53.344099,1768,1549058153,343940942,imu,1233093371.73,0.0,0.0,0.0,0.00179953116458,-0.00442332588136,0.00177083490416,0.562836110592,0.107364356518,-9.8113117218,0.0,0.0
2019/02/01/15:55:53.363812,1769,1549058153,363707387,imu,1233093371.75,0.0,0.0,0.0,0.00115783535875,-0.00409165723249,0.00280373962596,0.676444709301,0.246292501688,-9.97362136841,0.0,0.0
2019/02/01/15:55:53.383935,1770,1549058153,383784289,imu,1233093371.77,0.0,0.0,0.0,0.00178061996121,0.00082887330791,0.00225031841546,0.721735775471,0.185719177127,-9.99118995667,0.0,0.0
2019/02/01/15:55:53.404011,1771,1549058153,403764726,imu,1233093371.79,0.0,0.0,0.0,-0.000176333734998,0.00126032787375,0.00241208774969,0.710476696491,0.21493075788,-9.93741226196,0.0,0.0
2019/02/01/15:55:53.424168,1772,1549058153,423982861,imu,1233093371.81,0.0,0.0,0.0,-0.00352930929512,0.0039146845229,0.00203405460343,0.572905242443,0.207906261086,-9.80307769775,0.0,0.0
2019/02/01/15:55:53.443746,1773,1549058153,443601541,imu,1233093371.83,0.0,0.0,0.0,-0.00264143408276,0.00033640419133,0.00209466321394,0.514033555984,0.224158853292,-9.7397851944,0.0,0.0
2019/02/01/15:55:53.463769,1774,1549058153,463632082,imu,1233093371.85,0.0,0.0,0.0,-0.00219097780064,-0.000394413073082,0.00217858282849,0.410945206881,0.160805001855,-9.65672588348,0.0,0.0
2019/02/01/15:55:53.483961,1775,1549058153,483772561,imu,1233093371.87,0.0,0.0,0.0,-0.00110131001566,-0.00292000477202,0.00311319669709,0.385562121868,0.18139718473,-9.70473861694,0.0,0.0
2019/02/01/15:55:53.503710,1776,1549058153,503577353,imu,1233093371.89,0.0,0.0,0.0,0.00160890538245,-0.00395043147728,0.0029286807403,0.347831517458,0.200762048364,-9.76488780975,0.0,0.0
2019/02/01/15:55:53.523750,1777,1549058153,523610795,imu,1233093371.91,0.0,0.0,0.0,0.00348796788603,-0.00443716952577,0.00344415940344,0.428965747356,0.21432428062,-9.81207180023,0.0,0.0
2019/02/01/15:55:53.543739,1778,1549058153,543562393,imu,1233093371.93,0.0,0.0,0.0,0.00349947228096,-0.00337307690643,0.00461799371988,0.454557329416,0.257389247417,-9.87035179138,0.0,0.0
2019/02/01/15:55:53.563643,1779,1549058153,563511486,imu,1233093371.95,0.0,0.0,0.0,0.0020047063008,-0.000495568965562,0.00468224100769,0.470795452595,0.289419323206,-9.96158695221,0.0,0.0
2019/02/01/15:55:53.583584,1780,1549058153,583458094,imu,1233093371.97,0.0,0.0,0.0,0.00110297568608,0.000143575831316,0.00534557597712,0.530543923378,0.248683646321,-9.98162555695,0.0,0.0
2019/02/01/15:55:53.603595,1781,1549058153,603462051,imu,1233093371.99,0.0,0.0,0.0,0.00179425557144,0.00260040233843,0.00572759239003,0.493953496218,0.306230485439,-9.87893390656,0.0,0.0
2019/02/01/15:55:53.623622,1782,1549058153,623481108,imu,1233093372.01,0.0,0.0,0.0,-0.000298797240248,0.00223303586245,0.00751289259642,0.438904196024,0.219376698136,-9.76473522186,0.0,0.0
2019/02/01/15:55:53.643464,1783,1549058153,643328618,imu,1233093372.03,0.0,0.0,0.0,-0.00120680301916,0.00303704710677,0.00764613831416,0.414349943399,0.169038906693,-9.67403697968,0.0,0.0
2019/02/01/15:55:53.663394,1784,1549058153,663280489,imu,1233093372.05,0.0,0.0,0.0,-0.00175985950045,-0.00024047025363,0.00837636273354,0.351728886366,0.235140129924,-9.66649341583,0.0,0.0
2019/02/01/15:55:53.683351,1785,1549058153,683241407,imu,1233093372.07,0.0,0.0,0.0,-0.00172906776424,-0.00272873742506,0.00945349782705,0.334357708693,0.147904112935,-9.69131660461,0.0,0.0
2019/02/01/15:55:53.703461,1786,1549058153,703269044,imu,1233093372.09,0.0,0.0,0.0,0.00219450052828,-0.00367273204029,0.010416559875,0.367354035378,0.246774733067,-9.80177211761,0.0,0.0
2019/02/01/15:55:53.723346,1787,1549058153,723115468,imu,1233093372.11,0.0,0.0,0.0,-0.00190756842494,-0.00546701438725,0.0122730154544,0.387992471457,0.0856766179204,-9.81440067291,0.0,0.0
2019/02/01/15:55:53.743469,1788,1549058153,743312941,imu,1233093372.13,0.0,0.0,0.0,0.00144270888995,-0.00345374783501,0.0121658202261,0.336977869272,0.207438513637,-9.83270454407,0.0,0.0
2019/02/01/15:55:53.763199,1789,1549058153,763104713,imu,1233093372.15,0.0,0.0,0.0,0.00142656243406,-0.00287761678919,0.0111320782453,0.373187690973,0.0550256706774,-9.96146583557,0.0,0.0
2019/02/01/15:55:53.784428,1790,1549058153,784166034,imu,1233093372.17,0.0,0.0,0.0,0.00333874695934,0.00138687901199,0.0129044009373,0.3415158391,0.232523560524,-9.83833408356,0.0,0.0
2019/02/01/15:55:53.804291,1791,1549058153,804104509,imu,1233093372.19,0.0,0.0,0.0,0.00257004774176,0.0007698321715,0.0118384435773,0.254272818565,0.232179775834,-9.80118179321,0.0,0.0
2019/02/01/15:55:53.824085,1792,1549058153,823982293,imu,1233093372.21,0.0,0.0,0.0,0.00117127329577,0.00183875986841,0.0127353407443,0.311147063971,0.297485888004,-9.86286258698,0.0,0.0
2019/02/01/15:55:53.844270,1793,1549058153,844001209,imu,1233093372.23,0.0,0.0,0.0,0.0016934403684,0.000352396164089,0.0123301502317,0.340707957745,0.202405110002,-9.79076957703,0.0,0.0
2019/02/01/15:55:53.863967,1794,1549058153,863862833,imu,1233093372.25,0.0,0.0,0.0,-0.00125877803657,0.000879641855136,0.0110408123583,0.314281225204,0.180646747351,-9.8002204895,0.0,0.0
2019/02/01/15:55:53.884087,1795,1549058153,883863525,imu,1233093372.27,0.0,0.0,0.0,-0.00225176359527,-0.000877522630617,0.0108072701842,0.387166410685,0.098372220993,-9.72810840607,0.0,0.0
2019/02/01/15:55:53.904031,1796,1549058153,903913777,imu,1233093372.29,0.0,0.0,0.0,0.000184738513781,-0.000138577539474,0.0113184079528,0.36758902669,0.149207636714,-9.73732185364,0.0,0.0
2019/02/01/15:55:53.924505,1797,1549058153,924192963,imu,1233093372.31,0.0,0.0,0.0,-0.000942254671827,-0.00285794003867,0.00951565150172,0.327333509922,0.0784724727273,-9.71174621582,0.0,0.0
2019/02/01/15:55:53.944060,1798,1549058153,943929522,imu,1233093372.33,0.0,0.0,0.0,0.000342901272234,-0.00416895886883,0.0102517679334,0.300104558468,0.131299346685,-9.74733161926,0.0,0.0
2019/02/01/15:55:53.964339,1799,1549058153,963915308,imu,1233093372.35,0.0,0.0,0.0,-0.000213658291614,-0.00350331328809,0.008590195328,0.338528811932,0.095958635211,-9.80139923096,0.0,0.0
2019/02/01/15:55:53.984221,1800,1549058153,983916123,imu,1233093372.37,0.0,0.0,0.0,-0.00296696368605,-0.00364653114229,0.00836906861514,0.263776898384,0.110767409205,-9.88660049438,0.0,0.0
2019/02/01/15:55:54.003963,1801,1549058154,3780130,imu,1233093372.39,0.0,0.0,0.0,-0.00247191637754,-0.00277631892823,0.00836411584169,0.31601575017,0.110501438379,-9.93190383911,0.0,0.0
2019/02/01/15:55:54.024068,1802,1549058154,23746144,imu,1233093372.41,0.0,0.0,0.0,0.000403281272156,-0.00149648787919,0.00772202247754,0.272634148598,0.138328418136,-9.92065429688,0.0,0.0
2019/02/01/15:55:54.043905,1803,1549058154,43711874,imu,1233093372.43,0.0,0.0,0.0,-0.00140288856346,5.35391445737e-05,0.00762321287766,0.202784880996,0.0317827314138,-9.82194137573,0.0,0.0
2019/02/01/15:55:54.064332,1804,1549058154,63847715,imu,1233093372.45,0.0,0.0,0.0,0.000550767639652,-0.00158575945534,0.00842147972435,0.241654530168,0.105888202786,-9.89399147034,0.0,0.0
2019/02/01/15:55:54.083849,1805,1549058154,83661183,imu,1233093372.47,0.0,0.0,0.0,0.000824175367597,3.50883638021e-05,0.00699099432677,0.19047896564,0.049851577729,-9.7561340332,0.0,0.0
2019/02/01/15:55:54.103749,1806,1549058154,103600243,imu,1233093372.49,0.0,0.0,0.0,-0.000713754154276,-0.00209312420338,0.00732994033024,0.191257163882,0.0620136111975,-9.77415657043,0.0,0.0
2019/02/01/15:55:54.123670,1807,1549058154,123549475,imu,1233093372.51,0.0,0.0,0.0,0.00148454774171,-0.00418379576877,0.00680580828339,0.118692189455,0.0704987496138,-9.76111793518,0.0,0.0
2019/02/01/15:55:54.143752,1808,1549058154,143556344,imu,1233093372.53,0.0,0.0,0.0,0.000927175977267,-0.00417820131406,0.00538670364767,0.135328754783,0.111974224448,-9.79548549652,0.0,0.0
2019/02/01/15:55:54.163664,1809,1549058154,163488523,imu,1233093372.55,0.0,0.0,0.0,0.00180637883022,-0.00367189384997,0.00505100283772,0.0976254791021,0.0242163967341,-9.75742912292,0.0,0.0
2019/02/01/15:55:54.183749,1810,1549058154,183499881,imu,1233093372.57,0.0,0.0,0.0,7.48884049244e-05,-0.00327793508768,0.00372540066019,0.0292509160936,0.0142810204998,-9.77353668213,0.0,0.0
2019/02/01/15:55:54.203706,1811,1549058154,203477480,imu,1233093372.59,0.0,0.0,0.0,0.00443550385535,-0.00363555224612,0.00122372852638,0.034750148654,0.0988420620561,-9.78546524048,0.0,0.0
2019/02/01/15:55:54.223557,1812,1549058154,223411850,imu,1233093372.61,0.0,0.0,0.0,0.00279371696524,-0.00117066863459,0.0003243079409,0.0607342720032,0.0687293857336,-9.84528064728,0.0,0.0
2019/02/01/15:55:54.243526,1813,1549058154,243344493,imu,1233093372.63,0.0,0.0,0.0,-1.38669856824e-05,-0.00140362419188,-0.000934759620577,0.0524236261845,0.0299333892763,-9.87653255463,0.0,0.0
2019/02/01/15:55:54.263754,1814,1549058154,263524618,imu,1233093372.65,0.0,0.0,0.0,0.00257765571587,-0.000729297986254,-0.000657438766211,0.140974983573,0.0552451275289,-9.92765617371,0.0,0.0
2019/02/01/15:55:54.283553,1815,1549058154,283391023,imu,1233093372.67,0.0,0.0,0.0,0.00124565174337,0.000668687978759,-0.00252125551924,0.161670297384,0.168367400765,-9.88754177094,0.0,0.0
2019/02/01/15:55:54.303489,1816,1549058154,303327204,imu,1233093372.69,0.0,0.0,0.0,-0.00327998283319,0.000633783056401,-0.00469619780779,0.0945484191179,0.1116656214,-9.78537845612,0.0,0.0
2019/02/01/15:55:54.323261,1817,1549058154,323138356,imu,1233093372.71,0.0,0.0,0.0,-0.00189237645827,0.000494867679663,-0.00486570037901,0.0879333913326,0.129012063146,-9.81870651245,0.0,0.0
2019/02/01/15:55:54.343485,1818,1549058154,343287413,imu,1233093372.73,0.0,0.0,0.0,0.00145746965427,-0.000984536018223,-0.00548931304365,0.059591665864,0.0832887738943,-9.87902736664,0.0,0.0
2019/02/01/15:55:54.363252,1819,1549058154,363163272,imu,1233093372.75,0.0,0.0,0.0,-3.41233389918e-05,-0.0018942017341,-0.00681971525773,0.000702450051904,0.284127861261,-9.72294330597,0.0,0.0
2019/02/01/15:55:54.384683,1820,1549058154,384484458,imu,1233093372.77,0.0,0.0,0.0,-0.00297901011072,-0.00398847041652,-0.00403252057731,-0.0532275103033,0.147840559483,-9.74947357178,0.0,0.0
2019/02/01/15:55:54.404466,1821,1549058154,404320152,imu,1233093372.79,0.0,0.0,0.0,-0.00433540903032,-0.00469755614176,-0.00614133290946,0.0244602877647,0.172393471003,-9.73613262177,0.0,0.0
2019/02/01/15:55:54.424283,1822,1549058154,424150207,imu,1233093372.81,0.0,0.0,0.0,-0.00674282992259,-0.00344944791868,-0.00588261615485,0.0201497636735,0.146782487631,-9.73855876923,0.0,0.0
2019/02/01/15:55:54.444272,1823,1549058154,444131452,imu,1233093372.83,0.0,0.0,0.0,-0.00882807932794,-0.0021949200891,-0.00359094655141,0.059644062072,0.111166641116,-9.82716751099,0.0,0.0
2019/02/01/15:55:54.464257,1824,1549058154,464126910,imu,1233093372.85,0.0,0.0,0.0,-0.00991707015783,-0.00214324868284,-0.00420961342752,0.0769821703434,0.116988360882,-9.84889316559,0.0,0.0
2019/02/01/15:55:54.484264,1825,1549058154,484066654,imu,1233093372.87,0.0,0.0,0.0,-0.00678404187784,0.00180008832831,-0.00283337710425,0.119301602244,0.203044638038,-9.88259601593,0.0,0.0
2019/02/01/15:55:54.504158,1826,1549058154,504009138,imu,1233093372.89,0.0,0.0,0.0,-0.0102007975802,0.00117443746421,-0.00296922121197,0.0738029927015,0.247655898333,-9.81166362762,0.0,0.0
2019/02/01/15:55:54.524044,1827,1549058154,523926224,imu,1233093372.91,0.0,0.0,0.0,-0.00951076019555,0.000550507102162,-0.00142530445009,0.0254036318511,0.323133558035,-9.63795185089,0.0,0.0
2019/02/01/15:55:54.544082,1828,1549058154,543936712,imu,1233093372.93,0.0,0.0,0.0,-0.00807466637343,-0.00122033758089,0.000495283864439,-0.100649625063,0.250024169683,-9.63889598846,0.0,0.0
2019/02/01/15:55:54.564242,1829,1549058154,564035370,imu,1233093372.95,0.0,0.0,0.0,-0.00492000859231,-0.00159947003704,0.000601679086685,-0.087318405509,0.310554325581,-9.75816249847,0.0,0.0
2019/02/01/15:55:54.584137,1830,1549058154,583983579,imu,1233093372.97,0.0,0.0,0.0,-0.00595742417499,-0.00327405752614,0.00240342784673,-0.0876551866531,0.302869945765,-9.78544616699,0.0,0.0
2019/02/01/15:55:54.604060,1831,1549058154,603949911,imu,1233093372.99,0.0,0.0,0.0,-0.00446060765535,-0.00267593609169,0.00259791919962,-0.104654803872,0.263968378305,-9.86629867554,0.0,0.0
2019/02/01/15:55:54.623998,1832,1549058154,623784144,imu,1233093373.01,0.0,0.0,0.0,0.000329995586071,-0.00313948048279,0.00427604978904,-0.0675513148308,0.29488953948,-9.87559700012,0.0,0.0
2019/02/01/15:55:54.643998,1833,1549058154,643811174,imu,1233093373.03,0.0,0.0,0.0,-5.34046557732e-06,-0.00229482911527,0.00453672744334,-0.0100066289306,0.281883567572,-9.98562145233,0.0,0.0
2019/02/01/15:55:54.664016,1834,1549058154,663786894,imu,1233093373.05,0.0,0.0,0.0,0.000623981584795,0.0014356970787,0.00397626217455,-0.00305123999715,0.256536096334,-10.0299882889,0.0,0.0
2019/02/01/15:55:54.684012,1835,1549058154,683805005,imu,1233093373.07,0.0,0.0,0.0,0.00322463642806,0.00301063805819,0.0022221012041,0.0471605248749,0.146829739213,-9.89339828491,0.0,0.0
2019/02/01/15:55:54.704175,1836,1549058154,703905767,imu,1233093373.09,0.0,0.0,0.0,0.00645799655467,0.00274337665178,0.000306373927742,-0.0935428887606,0.251142829657,-9.78347492218,0.0,0.0
2019/02/01/15:55:54.723977,1837,1549058154,723749187,imu,1233093373.11,0.0,0.0,0.0,0.00499340612441,0.00223620561883,0.0013706269674,-0.236628428102,0.341122239828,-9.68103694916,0.0,0.0
2019/02/01/15:55:54.743883,1838,1549058154,743705190,imu,1233093373.13,0.0,0.0,0.0,0.00497417431325,-0.00144234451,-0.000298884231597,-0.29190286994,0.235394105315,-9.646235466,0.0,0.0
2019/02/01/15:55:54.763849,1839,1549058154,763638536,imu,1233093373.15,0.0,0.0,0.0,0.0103727998212,-0.00223721144721,0.000173373613507,-0.260400384665,0.25631788373,-9.68015480042,0.0,0.0
2019/02/01/15:55:54.783844,1840,1549058154,783623201,imu,1233093373.17,0.0,0.0,0.0,0.00954023003578,-0.00548286642879,0.00225058430806,-0.360645800829,0.282956659794,-9.66701316833,0.0,0.0
2019/02/01/15:55:54.803980,1841,1549058154,803711366,imu,1233093373.19,0.0,0.0,0.0,0.00626327423379,-0.00704546039924,0.00100959278643,-0.265874147415,0.256537109613,-9.87214851379,0.0,0.0
2019/02/01/15:55:54.823642,1842,1549058154,823496556,imu,1233093373.21,0.0,0.0,0.0,0.00773520441726,-0.00820929370821,0.00141564244404,-0.258017301559,0.203597187996,-9.87751197815,0.0,0.0
2019/02/01/15:55:54.843809,1843,1549058154,843616156,imu,1233093373.23,0.0,0.0,0.0,0.0068576107733,-0.00255700224079,0.00088018970564,-0.249568969011,0.130476474762,-9.97202110291,0.0,0.0
2019/02/01/15:55:54.863645,1844,1549058154,863459363,imu,1233093373.25,0.0,0.0,0.0,0.00803590938449,-0.0022125733085,0.000687340740114,-0.234876662493,0.0666246935725,-9.9869556427,0.0,0.0
2019/02/01/15:55:54.883740,1845,1549058154,883535810,imu,1233093373.27,0.0,0.0,0.0,0.010313142091,-0.000692119821906,0.000379409641027,-0.234547644854,0.15190705657,-9.9173412323,0.0,0.0
2019/02/01/15:55:54.903644,1846,1549058154,903498802,imu,1233093373.29,0.0,0.0,0.0,0.0102360537276,0.000904632266611,-0.000557877589017,-0.276062726974,0.11557725817,-9.76971817017,0.0,0.0
2019/02/01/15:55:54.923709,1847,1549058154,923482954,imu,1233093373.31,0.0,0.0,0.0,0.0101787261665,0.000967371510342,-0.000686241313815,-0.243069797754,0.0445550084114,-9.75961685181,0.0,0.0
2019/02/01/15:55:54.943505,1848,1549058154,943352892,imu,1233093373.33,0.0,0.0,0.0,0.0098567539826,0.00198552012444,-0.0034875520505,-0.264021456242,0.0488499253988,-9.65566825867,0.0,0.0
2019/02/01/15:55:54.963946,1849,1549058154,963727454,imu,1233093373.35,0.0,0.0,0.0,0.00616616290063,0.00113079987932,-0.00265159085393,-0.228174462914,0.0505766682327,-9.60939979553,0.0,0.0
2019/02/01/15:55:54.983539,1850,1549058154,983419234,imu,1233093373.37,0.0,0.0,0.0,0.00499287573621,0.000539018656127,-0.00622596312314,-0.220965281129,-0.0105546200648,-9.64568138123,0.0,0.0
2019/02/01/15:55:55.003601,1851,1549058155,3376380,imu,1233093373.39,0.0,0.0,0.0,0.00129693746567,0.000548269192223,-0.00763401901349,-0.246714234352,0.00457746721804,-9.81701469421,0.0,0.0
2019/02/01/15:55:55.024109,1852,1549058155,23606617,imu,1233093373.41,0.0,0.0,0.0,0.00452680839226,0.00194966932759,-0.00911869946867,-0.211944103241,-0.0204737894237,-9.75577354431,0.0,0.0
2019/02/01/15:55:55.043508,1853,1549058155,43296574,imu,1233093373.43,0.0,0.0,0.0,0.00330053665675,0.00187742803246,-0.00931975897402,-0.178211569786,-0.012953158468,-9.74807167053,0.0,0.0
2019/02/01/15:55:55.064043,1854,1549058155,63352300,imu,1233093373.45,0.0,0.0,0.0,0.00855640135705,0.00245739007369,-0.00854909792542,-0.145971387625,0.000409800908528,-9.86113834381,0.0,0.0
2019/02/01/15:55:55.083437,1855,1549058155,83242179,imu,1233093373.47,0.0,0.0,0.0,0.00628005433828,0.00473481230438,-0.0112292841077,-0.0745784640312,0.0235969237983,-9.8507566452,0.0,0.0
2019/02/01/15:55:55.103304,1856,1549058155,103150418,imu,1233093373.49,0.0,0.0,0.0,0.00103409052826,0.00376199092716,-0.0112663162872,-0.163926243782,0.0553016997874,-9.82383441925,0.0,0.0
2019/02/01/15:55:55.124743,1857,1549058155,124306239,imu,1233093373.51,0.0,0.0,0.0,0.00448289001361,0.00397047959268,-0.0111358202994,-0.126324862242,0.15870372951,-9.88111495972,0.0,0.0
2019/02/01/15:55:55.143187,1858,1549058155,143072280,imu,1233093373.53,0.0,0.0,0.0,0.00347103737295,0.00355094322003,-0.0120544107631,-0.240338414907,0.164935961366,-9.84291362762,0.0,0.0
2019/02/01/15:55:55.164850,1859,1549058155,164359867,imu,1233093373.55,0.0,0.0,0.0,0.00146686891094,0.00182580854744,-0.0121272578835,-0.245908334851,-0.00465907808393,-9.88042640686,0.0,0.0
2019/02/01/15:55:55.184097,1860,1549058155,184020586,imu,1233093373.57,0.0,0.0,0.0,0.000434741872596,6.01168139838e-05,-0.012737698853,-0.265228569508,0.103614225984,-9.86536598206,0.0,0.0
2019/02/01/15:55:55.204174,1861,1549058155,203978663,imu,1233093373.59,0.0,0.0,0.0,-0.000270153366728,0.000595272344071,-0.0161410346627,-0.25000089407,-0.00575124286115,-9.83150672913,0.0,0.0
2019/02/01/15:55:55.224192,1862,1549058155,224008203,imu,1233093373.61,0.0,0.0,0.0,-0.00156730040908,-0.00106493080966,-0.0168509818614,-0.173718422651,0.300538390875,-9.82153511047,0.0,0.0
2019/02/01/15:55:55.244071,1863,1549058155,243893923,imu,1233093373.63,0.0,0.0,0.0,-0.000247014773777,-0.00367012107745,-0.0167869664729,-0.102568775415,0.0942844226956,-9.81872653961,0.0,0.0
2019/02/01/15:55:55.264130,1864,1549058155,263991973,imu,1233093373.65,0.0,0.0,0.0,0.00281005050056,-0.00325008993968,-0.0181640908122,-0.136543616652,0.0614011697471,-9.78955364227,0.0,0.0
2019/02/01/15:55:55.284141,1865,1549058155,283891239,imu,1233093373.67,0.0,0.0,0.0,0.00190484221093,-0.00350135238841,-0.0170523785055,-0.027430921793,0.15027987957,-9.62438488007,0.0,0.0
2019/02/01/15:55:55.304028,1866,1549058155,303913532,imu,1233093373.69,0.0,0.0,0.0,0.000392964429921,-0.00105290731881,-0.0164700485766,-0.0625783354044,0.265620231628,-9.65931034088,0.0,0.0
2019/02/01/15:55:55.324023,1867,1549058155,323903838,imu,1233093373.71,0.0,0.0,0.0,-0.00430112984031,-0.00344140105881,-0.0169528555125,-0.0404120087624,0.339047849178,-9.77004528046,0.0,0.0
2019/02/01/15:55:55.344282,1868,1549058155,344112453,imu,1233093373.73,0.0,0.0,0.0,-0.00216614245437,-0.00293371174484,-0.0142576228827,-0.0666888803244,0.323866188526,-9.76738548279,0.0,0.0
2019/02/01/15:55:55.363926,1869,1549058155,363788034,imu,1233093373.75,0.0,0.0,0.0,-0.00162046321202,-0.00227067619562,-0.0117894075811,-0.0321032851934,0.228966057301,-9.74165058136,0.0,0.0
2019/02/01/15:55:55.384411,1870,1549058155,383737681,imu,1233093373.77,0.0,0.0,0.0,-0.00258115120232,-0.00263176485896,-0.0114100547507,-0.00256550498307,0.28926423192,-9.86237239838,0.0,0.0
2019/02/01/15:55:55.404005,1871,1549058155,403759149,imu,1233093373.79,0.0,0.0,0.0,0.00268603675067,-0.0009353592759,-0.00891504436731,0.0433455109596,0.234002128243,-9.88578224182,0.0,0.0
2019/02/01/15:55:55.423968,1872,1549058155,423776593,imu,1233093373.81,0.0,0.0,0.0,0.00351267610677,0.000346827931935,-0.0103398934007,-0.00356311351061,0.123166866601,-9.74922657013,0.0,0.0
2019/02/01/15:55:55.443861,1873,1549058155,443672150,imu,1233093373.83,0.0,0.0,0.0,0.00507724843919,-1.08982785605e-05,-0.00864404346794,0.16840519011,0.359453827143,-9.80063343048,0.0,0.0
2019/02/01/15:55:55.463897,1874,1549058155,463688966,imu,1233093373.85,0.0,0.0,0.0,0.00393651565537,-0.000186832301551,-0.00715296156704,0.131522655487,0.226484164596,-9.85070133209,0.0,0.0
2019/02/01/15:55:55.483664,1875,1549058155,483523980,imu,1233093373.87,0.0,0.0,0.0,0.000709304586053,0.00241591804661,-0.0074573145248,0.192125841975,0.210645899177,-9.80640506744,0.0,0.0
2019/02/01/15:55:55.503681,1876,1549058155,503560428,imu,1233093373.89,0.0,0.0,0.0,0.00408895034343,0.00486397370696,-0.00659375777468,0.291845142841,0.285426527262,-9.8325843811,0.0,0.0
2019/02/01/15:55:55.523776,1877,1549058155,523589616,imu,1233093373.91,0.0,0.0,0.0,0.000160921626957,0.0020064425189,-0.00664152996615,0.113256752491,0.19957485795,-9.72602462769,0.0,0.0
2019/02/01/15:55:55.543612,1878,1549058155,543504747,imu,1233093373.93,0.0,0.0,0.0,-0.00486273923889,4.80146845803e-05,-0.00633845990524,0.210183665156,0.35145547986,-9.76211643219,0.0,0.0
2019/02/01/15:55:55.563518,1879,1549058155,563435947,imu,1233093373.95,0.0,0.0,0.0,-0.00169933272991,-0.000312339951051,-0.00507728895172,0.160311371088,0.196892127395,-9.69987297058,0.0,0.0
2019/02/01/15:55:55.583551,1880,1549058155,583418568,imu,1233093373.97,0.0,0.0,0.0,-0.00351817463525,-0.00167166732717,-0.00462972326204,0.279381334782,0.160226657987,-9.72089862823,0.0,0.0
2019/02/01/15:55:55.603677,1881,1549058155,603457564,imu,1233093373.99,0.0,0.0,0.0,-0.00336553552188,-0.0036466200836,-0.0027577211149,0.359933525324,0.178577467799,-9.79786872864,0.0,0.0
2019/02/01/15:55:55.623601,1882,1549058155,623454387,imu,1233093374.01,0.0,0.0,0.0,-0.00196128501557,-0.00129275885411,-0.00264604063705,0.311865270138,0.148052483797,-9.90204906464,0.0,0.0
2019/02/01/15:55:55.643588,1883,1549058155,643302212,imu,1233093374.03,0.0,0.0,0.0,0.000187720026588,-0.00189504958689,0.000290998723358,0.350885480642,0.237086698413,-10.0203456879,0.0,0.0
2019/02/01/15:55:55.663643,1884,1549058155,663476704,imu,1233093374.05,0.0,0.0,0.0,0.0011748180259,-0.000595230783802,0.000792127102613,0.390334010124,0.184306666255,-9.90314483643,0.0,0.0
2019/02/01/15:55:55.683468,1885,1549058155,683301411,imu,1233093374.07,0.0,0.0,0.0,0.00366949476302,-0.000279481231701,0.00303898425773,0.408055126667,0.237329468131,-9.92829036713,0.0,0.0
2019/02/01/15:55:55.703651,1886,1549058155,703362850,imu,1233093374.09,0.0,0.0,0.0,0.0072535709478,0.000567543203942,0.00515503203496,0.333248347044,0.200185030699,-9.82794189453,0.0,0.0
2019/02/01/15:55:55.723471,1887,1549058155,723300795,imu,1233093374.11,0.0,0.0,0.0,0.00795960985124,-0.00199169525877,0.00294137606397,0.403678685427,0.295286864042,-9.79218101501,0.0,0.0
2019/02/01/15:55:55.743313,1888,1549058155,743184664,imu,1233093374.13,0.0,0.0,0.0,0.00578420469537,-0.00135953712743,0.00396955152974,0.446683079004,0.184605792165,-9.65269851685,0.0,0.0
2019/02/01/15:55:55.763440,1889,1549058155,763293285,imu,1233093374.15,0.0,0.0,0.0,0.00717867864296,5.35232247785e-05,0.00512641761452,0.435521095991,0.277813792229,-9.72789382935,0.0,0.0
2019/02/01/15:55:55.783379,1890,1549058155,783251955,imu,1233093374.17,0.0,0.0,0.0,0.00957508478314,-1.21065531857e-05,0.00385946547613,0.51628857851,0.209117874503,-9.75739192963,0.0,0.0
2019/02/01/15:55:55.803354,1891,1549058155,803162059,imu,1233093374.19,0.0,0.0,0.0,0.00426157331094,0.000490668753628,0.00184136955068,0.529018580914,0.129473611712,-9.7632856369,0.0,0.0
2019/02/01/15:55:55.824398,1892,1549058155,824200295,imu,1233093374.21,0.0,0.0,0.0,0.00407724827528,0.00118169398047,0.00110717257485,0.555525839329,0.060309227556,-9.90972042084,0.0,0.0
2019/02/01/15:55:55.844170,1893,1549058155,844065434,imu,1233093374.23,0.0,0.0,0.0,0.00631199963391,0.00125167763326,0.0010927519761,0.584409415722,0.234845817089,-9.97812747955,0.0,0.0
2019/02/01/15:55:55.864320,1894,1549058155,864127113,imu,1233093374.25,0.0,0.0,0.0,0.0081689376384,0.00100675818976,0.00127231795341,0.666738212109,-0.040848556906,-9.96723842621,0.0,0.0
2019/02/01/15:55:55.884116,1895,1549058155,883949487,imu,1233093374.27,0.0,0.0,0.0,0.00388098484837,0.00307747256011,-0.00147308036685,0.66326123476,0.125829935074,-9.83655643463,0.0,0.0
2019/02/01/15:55:55.904265,1896,1549058155,904055857,imu,1233093374.29,0.0,0.0,0.0,0.00373480282724,0.00219157570973,-0.00274281995371,0.6755245924,0.128515616059,-9.81687259674,0.0,0.0
2019/02/01/15:55:55.924086,1897,1549058155,923858523,imu,1233093374.31,0.0,0.0,0.0,0.0028852163814,0.00354178622365,-0.00160462642089,0.588387906551,0.0513573214412,-9.67359638214,0.0,0.0
2019/02/01/15:55:55.944069,1898,1549058155,943846858,imu,1233093374.33,0.0,0.0,0.0,0.00259903213009,-0.0011625085026,-0.00137677369639,0.540206730366,0.126506894827,-9.72832202911,0.0,0.0
2019/02/01/15:55:55.963896,1899,1549058155,963785557,imu,1233093374.35,0.0,0.0,0.0,-0.000719429692253,-0.00209790864028,0.000354278367013,0.630238294601,0.0962344035506,-9.85071849823,0.0,0.0
2019/02/01/15:55:55.984303,1900,1549058155,984019728,imu,1233093374.37,0.0,0.0,0.0,0.00238457764499,-0.00181541044731,0.00151837989688,0.676605284214,0.0460861288011,-9.83905506134,0.0,0.0
2019/02/01/15:55:56.004011,1901,1549058156,3788020,imu,1233093374.39,0.0,0.0,0.0,0.0044149113819,-0.00269489106722,0.00275052012876,0.690228521824,0.0863871797919,-9.79259204865,0.0,0.0
2019/02/01/15:55:56.024203,1902,1549058156,24023768,imu,1233093374.41,0.0,0.0,0.0,0.00502220215276,-0.00273277400993,0.00472550280392,0.690437555313,0.0714445784688,-9.95994567871,0.0,0.0
2019/02/01/15:55:56.044057,1903,1549058156,43816526,imu,1233093374.43,0.0,0.0,0.0,0.000579826766625,-0.00124570191838,0.00356101198122,0.647163927555,0.09345857054,-9.92163085938,0.0,0.0
2019/02/01/15:55:56.063798,1904,1549058156,63644422,imu,1233093374.45,0.0,0.0,0.0,0.000993566587567,-0.00107899028808,0.00393352657557,0.719245135784,0.181910872459,-9.84908103943,0.0,0.0
2019/02/01/15:55:56.083756,1905,1549058156,83609323,imu,1233093374.47,0.0,0.0,0.0,0.00727067422122,0.00101483077742,0.00405373889953,0.688919842243,0.169812932611,-9.8152923584,0.0,0.0
2019/02/01/15:55:56.104115,1906,1549058156,103858319,imu,1233093374.49,0.0,0.0,0.0,0.00393726164475,0.0016832773108,0.00310106668621,0.674361646175,0.17053899169,-9.82773780823,0.0,0.0
2019/02/01/15:55:56.124004,1907,1549058156,123705579,imu,1233093374.51,0.0,0.0,0.0,0.00622594496235,0.00284034572542,0.0026492131874,0.620352089405,0.0357481874526,-9.84813404083,0.0,0.0
2019/02/01/15:55:56.143658,1908,1549058156,143516350,imu,1233093374.53,0.0,0.0,0.0,0.00403704307973,-0.000739343755413,0.00202565966174,0.68006926775,-0.0389176681638,-9.82896995544,0.0,0.0
2019/02/01/15:55:56.164494,1909,1549058156,163521637,imu,1233093374.55,0.0,0.0,0.0,0.00592187838629,-0.000152381137013,-0.0011631064117,0.698630273342,0.0428952015936,-9.84301185608,0.0,0.0
2019/02/01/15:55:56.183609,1910,1549058156,183473689,imu,1233093374.57,0.0,0.0,0.0,0.00407086359337,-0.00365652306937,-0.00153021281585,0.692363679409,0.203157752752,-9.88796806335,0.0,0.0
2019/02/01/15:55:56.203611,1911,1549058156,203475813,imu,1233093374.59,0.0,0.0,0.0,0.00463466858491,-0.00174051569775,-0.00167373474687,0.783729374409,0.0393365472555,-10.0036153793,0.0,0.0
2019/02/01/15:55:56.223677,1912,1549058156,223460027,imu,1233093374.61,0.0,0.0,0.0,0.00493581173941,-0.00147123809438,-0.00245570251718,0.660477936268,0.0254142545164,-9.94902229309,0.0,0.0
2019/02/01/15:55:56.243640,1913,1549058156,243493250,imu,1233093374.63,0.0,0.0,0.0,0.00805915519595,-0.00233752978966,-0.00456250738353,0.790844023228,-0.157615691423,-10.0117607117,0.0,0.0
2019/02/01/15:55:56.263571,1914,1549058156,263408833,imu,1233093374.65,0.0,0.0,0.0,0.00628587370738,-0.00076745043043,-0.00651605660096,0.695030748844,-0.0633022114635,-9.90546989441,0.0,0.0
2019/02/01/15:55:56.283567,1915,1549058156,283418184,imu,1233093374.67,0.0,0.0,0.0,0.00751342624426,-0.00143145793118,-0.00903442967683,0.756457149982,-0.114614292979,-9.69827842712,0.0,0.0
2019/02/01/15:55:56.303647,1916,1549058156,303460979,imu,1233093374.69,0.0,0.0,0.0,0.0147372344509,0.00160599220544,-0.0118897482753,0.733514845371,-0.249186292291,-9.65841293335,0.0,0.0
2019/02/01/15:55:56.323590,1917,1549058156,323367076,imu,1233093374.71,0.0,0.0,0.0,0.0144970174879,5.90248964727e-06,-0.0137317935005,0.712106764317,-0.25018838048,-9.67141914368,0.0,0.0
2019/02/01/15:55:56.343463,1918,1549058156,343315042,imu,1233093374.73,0.0,0.0,0.0,0.0151677951217,0.00322440639138,-0.0168023128062,0.782148122787,-0.107900679111,-9.946600914,0.0,0.0
2019/02/01/15:55:56.363332,1919,1549058156,363223265,imu,1233093374.75,0.0,0.0,0.0,0.0114293219522,0.00434213597327,-0.0173482317477,0.821324944496,-0.203489720821,-9.85297584534,0.0,0.0
2019/02/01/15:55:56.383544,1920,1549058156,383378092,imu,1233093374.77,0.0,0.0,0.0,0.0123687190935,0.00690968288109,-0.0171774122864,0.733475804329,-0.0182077903301,-9.91782188416,0.0,0.0
2019/02/01/15:55:56.404435,1921,1549058156,404201914,imu,1233093374.79,0.0,0.0,0.0,0.0121824713424,0.00727368425578,-0.0195016153157,0.768721520901,-0.209608197212,-9.92593288422,0.0,0.0
2019/02/01/15:55:56.423396,1922,1549058156,423215123,imu,1233093374.81,0.0,0.0,0.0,0.00554349832237,0.00918912235647,-0.0197490323335,0.771612942219,-0.208990603685,-9.97421550751,0.0,0.0
2019/02/01/15:55:56.444376,1923,1549058156,444201372,imu,1233093374.83,0.0,0.0,0.0,0.00564849330112,0.00816089473665,-0.0211493112147,0.652441740036,-0.275188326836,-9.78076267242,0.0,0.0
2019/02/01/15:55:56.464210,1924,1549058156,464074685,imu,1233093374.85,0.0,0.0,0.0,0.0105496710166,0.00503671774641,-0.0227708499879,0.752624690533,-0.225994229317,-9.76547336578,0.0,0.0
2019/02/01/15:55:56.484264,1925,1549058156,484074690,imu,1233093374.87,0.0,0.0,0.0,0.0167346410453,0.00384960207157,-0.0236679576337,0.618681192398,-0.26364839077,-9.6454706192,0.0,0.0
2019/02/01/15:55:56.504207,1926,1549058156,503947834,imu,1233093374.89,0.0,0.0,0.0,0.00884900614619,0.000584953580983,-0.0256552994251,0.746986150742,-0.256353139877,-9.77459812164,0.0,0.0
2019/02/01/15:55:56.524120,1927,1549058156,523994796,imu,1233093374.91,0.0,0.0,0.0,0.00834746379405,0.000234125967836,-0.02848380059,0.783172726631,-0.121694929898,-9.66680240631,0.0,0.0
2019/02/01/15:55:56.544140,1928,1549058156,544048196,imu,1233093374.93,0.0,0.0,0.0,-0.000892271054909,-0.000556715822313,-0.0291220676154,0.73991394043,-0.0713198110461,-9.75234603882,0.0,0.0
2019/02/01/15:55:56.564035,1929,1549058156,563892088,imu,1233093374.95,0.0,0.0,0.0,0.00076148629887,0.001316652284,-0.033283572644,0.915684938431,-0.35423129797,-9.88425445557,0.0,0.0
2019/02/01/15:55:56.584012,1930,1549058156,583903016,imu,1233093374.97,0.0,0.0,0.0,-0.00387862045318,0.00158771232236,-0.0364685840905,0.642581105232,-0.183192178607,-9.86094856262,0.0,0.0
2019/02/01/15:55:56.603993,1931,1549058156,603833577,imu,1233093374.99,0.0,0.0,0.0,-0.00557846715674,0.0025032304693,-0.0379883944988,0.712234675884,-0.34008949995,-9.89973068237,0.0,0.0
2019/02/01/15:55:56.624155,1932,1549058156,624046641,imu,1233093375.01,0.0,0.0,0.0,-0.00052601529751,0.00574964424595,-0.0410997346044,0.74951004982,-0.148169517517,-9.84654808044,0.0,0.0
2019/02/01/15:55:56.643974,1933,1549058156,643778677,imu,1233093375.03,0.0,0.0,0.0,-0.00544439908117,0.00455409381539,-0.0427194908261,0.653507947922,-0.384580075741,-9.74784755707,0.0,0.0
2019/02/01/15:55:56.663924,1934,1549058156,663743395,imu,1233093375.05,0.0,0.0,0.0,-0.00209904974326,0.0018078306457,-0.0445404015481,0.601472139359,-0.274288952351,-9.65700531006,0.0,0.0
2019/02/01/15:55:56.683842,1935,1549058156,683727170,imu,1233093375.07,0.0,0.0,0.0,0.00422683777288,0.00211653788574,-0.0453998222947,0.650632143021,-0.482099413872,-9.73016357422,0.0,0.0
2019/02/01/15:55:56.703745,1936,1549058156,703654812,imu,1233093375.09,0.0,0.0,0.0,-0.00107252888847,0.00186370592564,-0.0473839975893,0.610947012901,-0.233315348625,-9.97207641602,0.0,0.0
2019/02/01/15:55:56.723894,1937,1549058156,723694739,imu,1233093375.11,0.0,0.0,0.0,0.000302565458696,0.000779125024565,-0.0491706579924,0.73691380024,-0.213293105364,-9.79725265503,0.0,0.0
2019/02/01/15:55:56.743805,1938,1549058156,743672644,imu,1233093375.13,0.0,0.0,0.0,0.00218031276017,0.00424304837361,-0.0476385168731,0.77471113205,0.0141150038689,-9.86081504822,0.0,0.0
2019/02/01/15:55:56.763770,1939,1549058156,763648832,imu,1233093375.15,0.0,0.0,0.0,-0.0050592366606,0.0041010659188,-0.0488630160689,0.79139995575,-0.413271874189,-9.96684646606,0.0,0.0
2019/02/01/15:55:56.783819,1940,1549058156,783688727,imu,1233093375.17,0.0,0.0,0.0,-0.00374777335674,0.00776804052293,-0.0504289641976,0.773113191128,-0.208821117878,-10.0054569244,0.0,0.0
2019/02/01/15:55:56.803641,1941,1549058156,803520513,imu,1233093375.19,0.0,0.0,0.0,-0.00371553865261,0.00937836524099,-0.0522039160132,0.665829241276,-0.166853800416,-9.91285610199,0.0,0.0
