time,.header.seq,.header.stamp.secs,.header.stamp.nsecs,.header.frame_id,.Time,.UtcTime.year,.UtcTime.month,.UtcTime.day,.UtcTime.hour,.UtcTime.minute,.UtcTime.second,.UtcTime.millisecond,.Week,.GpsFix,.NumSats,.LLA.x,.LLA.y,.LLA.z,.NedVel.x,.NedVel.y,.NedVel.z,.NedAcc.x,.NedAcc.y,.NedAcc.z,.SpeedAcc,.TimeAcc
2019/02/01/15:55:50.503700,1625,1549058150,503506810,gps,510968.600376,19,2,1,21,55,50,600,2038,3,16,30.6243881,-96.3364253,72.965,-0.00300000002608,-0.0130000002682,0.0540000014007,2.55377626419,2.36191034317,6.11911010742,0.194400012493,4.40000000879e-08
2019/02/01/15:55:50.523699,1626,1549058150,523485681,gps,510968.600376,19,2,1,21,55,50,600,2038,3,16,30.6243881,-96.3364253,72.965,-0.00300000002608,-0.0130000002682,0.0540000014007,2.55377626419,2.36191034317,6.11911010742,0.194400012493,4.40000000879e-08
2019/02/01/15:55:50.543566,1627,1549058150,543436337,gps,510968.800376,19,2,1,21,55,50,800,2038,3,16,30.6243881,-96.3364253,72.97,-0.00800000037998,-0.00400000018999,0.0529999993742,2.55436968803,2.36260128021,6.12721395493,0.200800016522,4.40000000879e-08
2019/02/01/15:55:50.563740,1628,1549058150,563539064,gps,510968.800376,19,2,1,21,55,50,800,2038,3,16,30.6243881,-96.3364253,72.97,-0.00800000037998,-0.00400000018999,0.0529999993742,2.55436968803,2.36260128021,6.12721395493,0.200800016522,4.40000000879e-08
2019/02/01/15:55:50.584417,1629,1549058150,583474158,gps,510968.800376,19,2,1,21,55,50,800,2038,3,16,30.6243881,-96.3364253,72.97,-0.00800000037998,-0.00400000018999,0.0529999993742,2.55436968803,2.36260128021,6.12721395493,0.200800016522,4.40000000879e-08
2019/02/01/15:55:50.603677,1630,1549058150,603466228,gps,510968.800376,19,2,1,21,55,50,800,2038,3,16,30.6243881,-96.3364253,72.97,-0.00800000037998,-0.00400000018999,0.0529999993742,2.55436968803,2.36260128021,6.12721395493,0.200800016522,4.40000000879e-08
2019/02/01/15:55:50.623658,1631,1549058150,623530853,gps,510968.800376,19,2,1,21,55,50,800,2038,3,16,30.6243881,-96.3364253,72.97,-0.00800000037998,-0.00400000018999,0.0529999993742,2.55436968803,2.36260128021,6.12721395493,0.200800016522,4.40000000879e-08
2019/02/01/15:55:50.643547,1632,1549058150,643368155,gps,510968.800376,19,2,1,21,55,50,800,2038,3,16,30.6243881,-96.3364253,72.97,-0.00800000037998,-0.00400000018999,0.0529999993742,2.55436968803,2.36260128021,6.12721395493,0.200800016522,4.40000000879e-08
2019/02/01/15:55:50.663513,1633,1549058150,663324122,gps,510968.800376,19,2,1,21,55,50,800,2038,3,16,30.6243881,-96.3364253,72.97,-0.00800000037998,-0.00400000018999,0.0529999993742,2.55436968803,2.36260128021,6.12721395493,0.200800016522,4.40000000879e-08
2019/02/01/15:55:50.684841,1634,1549058150,683433577,gps,510968.800376,19,2,1,21,55,50,800,2038,3,16,30.6243881,-96.3364253,72.97,-0.00800000037998,-0.00400000018999,0.0529999993742,2.55436968803,2.36260128021,6.12721395493,0.200800016522,4.40000000879e-08
2019/02/01/15:55:50.703486,1635,1549058150,703295034,gps,510968.800376,19,2,1,21,55,50,800,2038,3,16,30.6243881,-96.3364253,72.97,-0.00800000037998,-0.00400000018999,0.0529999993742,2.55436968803,2.36260128021,6.12721395493,0.200800016522,4.40000000879e-08
2019/02/01/15:55:50.723389,1636,1549058150,723191678,gps,510968.800376,19,2,1,21,55,50,800,2038,3,16,30.6243881,-96.3364253,72.97,-0.00800000037998,-0.00400000018999,0.0529999993742,2.55436968803,2.36260128021,6.12721395493,0.200800016522,4.40000000879e-08
2019/02/01/15:55:50.743390,1637,1549058150,743159195,gps,510968.800376,19,2,1,21,55,50,800,2038,3,16,30.6243881,-96.3364253,72.97,-0.00800000037998,-0.00400000018999,0.0529999993742,2.55436968803,2.36260128021,6.12721395493,0.200800016522,4.40000000879e-08
2019/02/01/15:55:50.763380,1638,1549058150,763182132,gps,510969.000376,19,2,1,21,55,51,0,2038,3,16,30.6243876,-96.336425,73.003,-0.00499999988824,-0.00999999977648,0.00300000002608,2.54726576805,2.35816073418,6.13342571259,0.149600014091,4.40000000879e-08
2019/02/01/15:55:50.783344,1639,1549058150,783116712,gps,510969.000376,19,2,1,21,55,51,0,2038,3,16,30.6243876,-96.336425,73.003,-0.00499999988824,-0.00999999977648,0.00300000002608,2.54726576805,2.35816073418,6.13342571259,0.149600014091,4.40000000879e-08
2019/02/01/15:55:50.803373,1640,1549058150,803141538,gps,510969.000376,19,2,1,21,55,51,0,2038,3,16,30.6243876,-96.336425,73.003,-0.00499999988824,-0.00999999977648,0.00300000002608,2.54726576805,2.35816073418,6.13342571259,0.149600014091,4.40000000879e-08
2019/02/01/15:55:50.823396,1641,1549058150,823142155,gps,510969.000376,19,2,1,21,55,51,0,2038,3,16,30.6243876,-96.336425,73.003,-0.00499999988824,-0.00999999977648,0.00300000002608,2.54726576805,2.35816073418,6.13342571259,0.149600014091,4.40000000879e-08
2019/02/01/15:55:50.843290,1642,1549058150,843061702,gps,510969.000376,19,2,1,21,55,51,0,2038,3,16,30.6243876,-96.336425,73.003,-0.00499999988824,-0.00999999977648,0.00300000002608,2.54726576805,2.35816073418,6.13342571259,0.149600014091,4.40000000879e-08
2019/02/01/15:55:50.863283,1643,1549058150,863043624,gps,510969.000376,19,2,1,21,55,51,0,2038,3,16,30.6243876,-96.336425,73.003,-0.00499999988824,-0.00999999977648,0.00300000002608,2.54726576805,2.35816073418,6.13342571259,0.149600014091,4.40000000879e-08
2019/02/01/15:55:50.883176,1644,1549058150,883011668,gps,510969.000376,19,2,1,21,55,51,0,2038,3,16,30.6243876,-96.336425,73.003,-0.00499999988824,-0.00999999977648,0.00300000002608,2.54726576805,2.35816073418,6.13342571259,0.149600014091,4.40000000879e-08
2019/02/01/15:55:50.903157,1645,1549058150,902954596,gps,510969.000376,19,2,1,21,55,51,0,2038,3,16,30.6243876,-96.336425,73.003,-0.00499999988824,-0.00999999977648,0.00300000002608,2.54726576805,2.35816073418,6.13342571259,0.149600014091,4.40000000879e-08
2019/02/01/15:55:50.923014,1646,1549058150,922854855,gps,510969.000376,19,2,1,21,55,51,0,2038,3,16,30.6243876,-96.336425,73.003,-0.00499999988824,-0.00999999977648,0.00300000002608,2.54726576805,2.35816073418,6.13342571259,0.149600014091,4.40000000879e-08
2019/02/01/15:55:50.942966,1647,1549058150,942818030,gps,510969.200376,19,2,1,21,55,51,200,2038,3,16,30.6243873,-96.3364247,73.025,-0.019999999553,0.0120000001043,-0.0230000000447,2.54093146324,2.35416507721,6.13973426819,0.154400005937,4.40000000879e-08
2019/02/01/15:55:50.963106,1648,1549058150,962860406,gps,510969.200376,19,2,1,21,55,51,200,2038,3,16,30.6243873,-96.3364247,73.025,-0.019999999553,0.0120000001043,-0.0230000000447,2.54093146324,2.35416507721,6.13973426819,0.154400005937,4.40000000879e-08
2019/02/01/15:55:50.982991,1649,1549058150,982783828,gps,510969.200376,19,2,1,21,55,51,200,2038,3,16,30.6243873,-96.3364247,73.025,-0.019999999553,0.0120000001043,-0.0230000000447,2.54093146324,2.35416507721,6.13973426819,0.154400005937,4.40000000879e-08
2019/02/01/15:55:51.002995,1650,1549058151,2735077,gps,510969.200376,19,2,1,21,55,51,200,2038,3,16,30.6243873,-96.3364247,73.025,-0.019999999553,0.0120000001043,-0.0230000000447,2.54093146324,2.35416507721,6.13973426819,0.154400005937,4.40000000879e-08
2019/02/01/15:55:51.023886,1651,1549058151,23704607,gps,510969.200376,19,2,1,21,55,51,200,2038,3,16,30.6243873,-96.3364247,73.025,-0.019999999553,0.0120000001043,-0.0230000000447,2.54093146324,2.35416507721,6.13973426819,0.154400005937,4.40000000879e-08
2019/02/01/15:55:51.043894,1652,1549058151,43680630,gps,510969.200376,19,2,1,21,55,51,200,2038,3,16,30.6243873,-96.3364247,73.025,-0.019999999553,0.0120000001043,-0.0230000000447,2.54093146324,2.35416507721,6.13973426819,0.154400005937,4.40000000879e-08
2019/02/01/15:55:51.063862,1653,1549058151,63704510,gps,510969.200376,19,2,1,21,55,51,200,2038,3,16,30.6243873,-96.3364247,73.025,-0.019999999553,0.0120000001043,-0.0230000000447,2.54093146324,2.35416507721,6.13973426819,0.154400005937,4.40000000879e-08
2019/02/01/15:55:51.083943,1654,1549058151,83698893,gps,510969.200376,19,2,1,21,55,51,200,2038,3,16,30.6243873,-96.3364247,73.025,-0.019999999553,0.0120000001043,-0.0230000000447,2.54093146324,2.35416507721,6.13973426819,0.154400005937,4.40000000879e-08
2019/02/01/15:55:51.103898,1655,1549058151,103657019,gps,510969.200376,19,2,1,21,55,51,200,2038,3,16,30.6243873,-96.3364247,73.025,-0.019999999553,0.0120000001043,-0.0230000000447,2.54093146324,2.35416507721,6.13973426819,0.154400005937,4.40000000879e-08
2019/02/01/15:55:51.123778,1656,1549058151,123594636,gps,510969.200376,19,2,1,21,55,51,200,2038,3,16,30.6243873,-96.3364247,73.025,-0.019999999553,0.0120000001043,-0.0230000000447,2.54093146324,2.35416507721,6.13973426819,0.154400005937,4.40000000879e-08
2019/02/01/15:55:51.143743,1657,1549058151,143560601,gps,510969.400376,19,2,1,21,55,51,400,2038,3,16,30.6243869,-96.3364243,73.058,-0.00700000021607,0.0189999993891,-0.0630000010133,2.53532075882,2.35060453415,6.14613246918,0.191200003028,4.40000000879e-08
2019/02/01/15:55:51.163804,1658,1549058151,163614414,gps,510969.400376,19,2,1,21,55,51,400,2038,3,16,30.6243869,-96.3364243,73.058,-0.00700000021607,0.0189999993891,-0.0630000010133,2.53532075882,2.35060453415,6.14613246918,0.191200003028,4.40000000879e-08
2019/02/01/15:55:51.183938,1659,1549058151,183567654,gps,510969.400376,19,2,1,21,55,51,400,2038,3,16,30.6243869,-96.3364243,73.058,-0.00700000021607,0.0189999993891,-0.0630000010133,2.53532075882,2.35060453415,6.14613246918,0.191200003028,4.40000000879e-08
2019/02/01/15:55:51.203729,1660,1549058151,203508274,gps,510969.400376,19,2,1,21,55,51,400,2038,3,16,30.6243869,-96.3364243,73.058,-0.00700000021607,0.0189999993891,-0.0630000010133,2.53532075882,2.35060453415,6.14613246918,0.191200003028,4.40000000879e-08
2019/02/01/15:55:51.223748,1661,1549058151,223530591,gps,510969.400376,19,2,1,21,55,51,400,2038,3,16,30.6243869,-96.3364243,73.058,-0.00700000021607,0.0189999993891,-0.0630000010133,2.53532075882,2.35060453415,6.14613246918,0.191200003028,4.40000000879e-08
2019/02/01/15:55:51.243622,1662,1549058151,243427455,gps,510969.400376,19,2,1,21,55,51,400,2038,3,16,30.6243869,-96.3364243,73.058,-0.00700000021607,0.0189999993891,-0.0630000010133,2.53532075882,2.35060453415,6.14613246918,0.191200003028,4.40000000879e-08
2019/02/01/15:55:51.263673,1663,1549058151,263445787,gps,510969.400376,19,2,1,21,55,51,400,2038,3,16,30.6243869,-96.3364243,73.058,-0.00700000021607,0.0189999993891,-0.0630000010133,2.53532075882,2.35060453415,6.14613246918,0.191200003028,4.40000000879e-08
2019/02/01/15:55:51.283657,1664,1549058151,283465465,gps,510969.400376,19,2,1,21,55,51,400,2038,3,16,30.6243869,-96.3364243,73.058,-0.00700000021607,0.0189999993891,-0.0630000010133,2.53532075882,2.35060453415,6.14613246918,0.191200003028,4.40000000879e-08
2019/02/01/15:55:51.303599,1665,1549058151,303400299,gps,510969.400376,19,2,1,21,55,51,400,2038,3,16,30.6243869,-96.3364243,73.058,-0.00700000021607,0.0189999993891,-0.0630000010133,2.53532075882,2.35060453415,6.14613246918,0.191200003028,4.40000000879e-08
2019/02/01/15:55:51.323529,1666,1549058151,323328511,gps,510969.400376,19,2,1,21,55,51,400,2038,3,16,30.6243869,-96.3364243,73.058,-0.00700000021607,0.0189999993891,-0.0630000010133,2.53532075882,2.35060453415,6.14613246918,0.191200003028,4.40000000879e-08
2019/02/01/15:55:51.343426,1667,1549058151,343248555,gps,510969.600376,19,2,1,21,55,51,600,2038,3,16,30.6243866,-96.336424,73.091,-0.0109999999404,0.0359999984503,-0.0340000018477,2.53026914597,2.34739804268,6.15242195129,0.161600008607,4.40000000879e-08
2019/02/01/15:55:51.363540,1668,1549058151,363299544,gps,510969.600376,19,2,1,21,55,51,600,2038,3,16,30.6243866,-96.336424,73.091,-0.0109999999404,0.0359999984503,-0.0340000018477,2.53026914597,2.34739804268,6.15242195129,0.161600008607,4.40000000879e-08
2019/02/01/15:55:51.383461,1669,1549058151,383282584,gps,510969.600376,19,2,1,21,55,51,600,2038,3,16,30.6243866,-96.336424,73.091,-0.0109999999404,0.0359999984503,-0.0340000018477,2.53026914597,2.34739804268,6.15242195129,0.161600008607,4.40000000879e-08
2019/02/01/15:55:51.403542,1670,1549058151,403338170,gps,510969.600376,19,2,1,21,55,51,600,2038,3,16,30.6243866,-96.336424,73.091,-0.0109999999404,0.0359999984503,-0.0340000018477,2.53026914597,2.34739804268,6.15242195129,0.161600008607,4.40000000879e-08
2019/02/01/15:55:51.423370,1671,1549058151,423170686,gps,510969.600376,19,2,1,21,55,51,600,2038,3,16,30.6243866,-96.336424,73.091,-0.0109999999404,0.0359999984503,-0.0340000018477,2.53026914597,2.34739804268,6.15242195129,0.161600008607,4.40000000879e-08
2019/02/01/15:55:51.443420,1672,1549058151,443189357,gps,510969.600376,19,2,1,21,55,51,600,2038,3,16,30.6243866,-96.336424,73.091,-0.0109999999404,0.0359999984503,-0.0340000018477,2.53026914597,2.34739804268,6.15242195129,0.161600008607,4.40000000879e-08
2019/02/01/15:55:51.463467,1673,1549058151,463245819,gps,510969.600376,19,2,1,21,55,51,600,2038,3,16,30.6243866,-96.336424,73.091,-0.0109999999404,0.0359999984503,-0.0340000018477,2.53026914597,2.34739804268,6.15242195129,0.161600008607,4.40000000879e-08
2019/02/01/15:55:51.483361,1674,1549058151,483154536,gps,510969.600376,19,2,1,21,55,51,600,2038,3,16,30.6243866,-96.336424,73.091,-0.0109999999404,0.0359999984503,-0.0340000018477,2.53026914597,2.34739804268,6.15242195129,0.161600008607,4.40000000879e-08
2019/02/01/15:55:51.503305,1675,1549058151,503082052,gps,510969.600376,19,2,1,21,55,51,600,2038,3,16,30.6243866,-96.336424,73.091,-0.0109999999404,0.0359999984503,-0.0340000018477,2.53026914597,2.34739804268,6.15242195129,0.161600008607,4.40000000879e-08
2019/02/01/15:55:51.523161,1676,1549058151,523013243,gps,510969.600376,19,2,1,21,55,51,600,2038,3,16,30.6243866,-96.336424,73.091,-0.0109999999404,0.0359999984503,-0.0340000018477,2.53026914597,2.34739804268,6.15242195129,0.161600008607,4.40000000879e-08
2019/02/01/15:55:51.543227,1677,1549058151,543014984,gps,510969.800376,19,2,1,21,55,51,800,2038,3,16,30.6243863,-96.3364238,73.131,-0.00499999988824,0.0140000004321,0.0329999998212,2.52572584152,2.34449005127,6.15874814987,0.194400012493,4.40000000879e-08
2019/02/01/15:55:51.563344,1678,1549058151,563167787,gps,510969.800376,19,2,1,21,55,51,800,2038,3,16,30.6243863,-96.3364238,73.131,-0.00499999988824,0.0140000004321,0.0329999998212,2.52572584152,2.34449005127,6.15874814987,0.194400012493,4.40000000879e-08
2019/02/01/15:55:51.583235,1679,1549058151,583004343,gps,510969.800376,19,2,1,21,55,51,800,2038,3,16,30.6243863,-96.3364238,73.131,-0.00499999988824,0.0140000004321,0.0329999998212,2.52572584152,2.34449005127,6.15874814987,0.194400012493,4.40000000879e-08
2019/02/01/15:55:51.603244,1680,1549058151,603036534,gps,510969.800376,19,2,1,21,55,51,800,2038,3,16,30.6243863,-96.3364238,73.131,-0.00499999988824,0.0140000004321,0.0329999998212,2.52572584152,2.34449005127,6.15874814987,0.194400012493,4.40000000879e-08
2019/02/01/15:55:51.623070,1681,1549058151,622887294,gps,510969.800376,19,2,1,21,55,51,800,2038,3,16,30.6243863,-96.3364238,73.131,-0.00499999988824,0.0140000004321,0.0329999998212,2.52572584152,2.34449005127,6.15874814987,0.194400012493,4.40000000879e-08
2019/02/01/15:55:51.643082,1682,1549058151,642832237,gps,510969.800376,19,2,1,21,55,51,800,2038,3,16,30.6243863,-96.3364238,73.131,-0.00499999988824,0.0140000004321,0.0329999998212,2.52572584152,2.34449005127,6.15874814987,0.194400012493,4.40000000879e-08
2019/02/01/15:55:51.662963,1683,1549058151,662813296,gps,510969.800376,19,2,1,21,55,51,800,2038,3,16,30.6243863,-96.3364238,73.131,-0.00499999988824,0.0140000004321,0.0329999998212,2.52572584152,2.34449005127,6.15874814987,0.194400012493,4.40000000879e-08
2019/02/01/15:55:51.683437,1684,1549058151,682818068,gps,510969.800376,19,2,1,21,55,51,800,2038,3,16,30.6243863,-96.3364238,73.131,-0.00499999988824,0.0140000004321,0.0329999998212,2.52572584152,2.34449005127,6.15874814987,0.194400012493,4.40000000879e-08
2019/02/01/15:55:51.703970,1685,1549058151,703805554,gps,510969.800376,19,2,1,21,55,51,800,2038,3,16,30.6243863,-96.3364238,73.131,-0.00499999988824,0.0140000004321,0.0329999998212,2.52572584152,2.34449005127,6.15874814987,0.194400012493,4.40000000879e-08
2019/02/01/15:55:51.724545,1686,1549058151,723735297,gps,510969.800376,19,2,1,21,55,51,800,2038,3,16,30.6243863,-96.3364238,73.131,-0.00499999988824,0.0140000004321,0.0329999998212,2.52572584152,2.34449005127,6.15874814987,0.194400012493,4.40000000879e-08
2019/02/01/15:55:51.743928,1687,1549058151,743750505,gps,510969.800376,19,2,1,21,55,51,800,2038,3,16,30.6243863,-96.3364238,73.131,-0.00499999988824,0.0140000004321,0.0329999998212,2.52572584152,2.34449005127,6.15874814987,0.194400012493,4.40000000879e-08
2019/02/01/15:55:51.763938,1688,1549058151,763724147,gps,510970.000376,19,2,1,21,55,52,0,2038,3,16,30.6243861,-96.3364235,73.15,0.0329999998212,0.0209999997169,0.0219999998808,2.52160191536,2.34182834625,6.1651058197,0.145600005984,4.40000000879e-08
2019/02/01/15:55:51.785267,1689,1549058151,783801367,gps,510970.000376,19,2,1,21,55,52,0,2038,3,16,30.6243861,-96.3364235,73.15,0.0329999998212,0.0209999997169,0.0219999998808,2.52160191536,2.34182834625,6.1651058197,0.145600005984,4.40000000879e-08
2019/02/01/15:55:51.803866,1690,1549058151,803663575,gps,510970.000376,19,2,1,21,55,52,0,2038,3,16,30.6243861,-96.3364235,73.15,0.0329999998212,0.0209999997169,0.0219999998808,2.52160191536,2.34182834625,6.1651058197,0.145600005984,4.40000000879e-08
2019/02/01/15:55:51.823839,1691,1549058151,823619526,gps,510970.000376,19,2,1,21,55,52,0,2038,3,16,30.6243861,-96.3364235,73.15,0.0329999998212,0.0209999997169,0.0219999998808,2.52160191536,2.34182834625,6.1651058197,0.145600005984,4.40000000879e-08
2019/02/01/15:55:51.843668,1692,1549058151,843508741,gps,510970.000376,19,2,1,21,55,52,0,2038,3,16,30.6243861,-96.3364235,73.15,0.0329999998212,0.0209999997169,0.0219999998808,2.52160191536,2.34182834625,6.1651058197,0.145600005984,4.40000000879e-08
2019/02/01/15:55:51.863728,1693,1549058151,863538390,gps,510970.000376,19,2,1,21,55,52,0,2038,3,16,30.6243861,-96.3364235,73.15,0.0329999998212,0.0209999997169,0.0219999998808,2.52160191536,2.34182834625,6.1651058197,0.145600005984,4.40000000879e-08
2019/02/01/15:55:51.883759,1694,1549058151,883562962,gps,510970.000376,19,2,1,21,55,52,0,2038,3,16,30.6243861,-96.3364235,73.15,0.0329999998212,0.0209999997169,0.0219999998808,2.52160191536,2.34182834625,6.1651058197,0.145600005984,4.40000000879e-08
2019/02/01/15:55:51.903682,1695,1549058151,903442485,gps,510970.000376,19,2,1,21,55,52,0,2038,3,16,30.6243861,-96.3364235,73.15,0.0329999998212,0.0209999997169,0.0219999998808,2.52160191536,2.34182834625,6.1651058197,0.145600005984,4.40000000879e-08
2019/02/01/15:55:51.923747,1696,1549058151,923546585,gps,510970.000376,19,2,1,21,55,52,0,2038,3,16,30.6243861,-96.3364235,73.15,0.0329999998212,0.0209999997169,0.0219999998808,2.52160191536,2.34182834625,6.1651058197,0.145600005984,4.40000000879e-08
2019/02/01/15:55:51.943555,1697,1549058151,943362632,gps,510970.000376,19,2,1,21,55,52,0,2038,3,16,30.6243861,-96.3364235,73.15,0.0329999998212,0.0209999997169,0.0219999998808,2.52160191536,2.34182834625,6.1651058197,0.145600005984,4.40000000879e-08
2019/02/01/15:55:51.963547,1698,1549058151,963352780,gps,510970.000376,19,2,1,21,55,52,0,2038,3,16,30.6243861,-96.3364235,73.15,0.0329999998212,0.0209999997169,0.0219999998808,2.52160191536,2.34182834625,6.1651058197,0.145600005984,4.40000000879e-08
2019/02/01/15:55:51.983634,1699,1549058151,983403226,gps,510970.200376,19,2,1,21,55,52,200,2038,3,16,30.6243858,-96.3364232,73.197,0.0109999999404,0.0640000030398,0.103000000119,2.5174100399,2.33928275108,6.16846132278,0.182400017977,4.40000000879e-08
2019/02/01/15:55:52.003609,1700,1549058152,3381971,gps,510970.200376,19,2,1,21,55,52,200,2038,3,16,30.6243858,-96.3364232,73.197,0.0109999999404,0.0640000030398,0.103000000119,2.5174100399,2.33928275108,6.16846132278,0.182400017977,4.40000000879e-08
2019/02/01/15:55:52.023494,1701,1549058152,23320503,gps,510970.200376,19,2,1,21,55,52,200,2038,3,16,30.6243858,-96.3364232,73.197,0.0109999999404,0.0640000030398,0.103000000119,2.5174100399,2.33928275108,6.16846132278,0.182400017977,4.40000000879e-08
2019/02/01/15:55:52.043439,1702,1549058152,43276059,gps,510970.200376,19,2,1,21,55,52,200,2038,3,16,30.6243858,-96.3364232,73.197,0.0109999999404,0.0640000030398,0.103000000119,2.5174100399,2.33928275108,6.16846132278,0.182400017977,4.40000000879e-08
2019/02/01/15:55:52.063359,1703,1549058152,63192683,gps,510970.200376,19,2,1,21,55,52,200,2038,3,16,30.6243858,-96.3364232,73.197,0.0109999999404,0.0640000030398,0.103000000119,2.5174100399,2.33928275108,6.16846132278,0.182400017977,4.40000000879e-08
2019/02/01/15:55:52.083384,1704,1549058152,83179462,gps,510970.200376,19,2,1,21,55,52,200,2038,3,16,30.6243858,-96.3364232,73.197,0.0109999999404,0.0640000030398,0.103000000119,2.5174100399,2.33928275108,6.16846132278,0.182400017977,4.40000000879e-08
2019/02/01/15:55:52.103326,1705,1549058152,103128529,gps,510970.200376,19,2,1,21,55,52,200,2038,3,16,30.6243858,-96.3364232,73.197,0.0109999999404,0.0640000030398,0.103000000119,2.5174100399,2.33928275108,6.16846132278,0.182400017977,4.40000000879e-08
2019/02/01/15:55:52.123426,1706,1549058152,123191638,gps,510970.200376,19,2,1,21,55,52,200,2038,3,16,30.6243858,-96.3364232,73.197,0.0109999999404,0.0640000030398,0.103000000119,2.5174100399,2.33928275108,6.16846132278,0.182400017977,4.40000000879e-08
2019/02/01/15:55:52.143392,1707,1549058152,143152003,gps,510970.400376,19,2,1,21,55,52,400,2038,3,16,30.6243856,-96.3364229,73.218,-0.0309999994934,-0.0140000004321,0.0410000011325,2.51344585419,2.33690690994,6.17175579071,0.187200009823,4.40000000879e-08
2019/02/01/15:55:52.163223,1708,1549058152,163026478,gps,510970.400376,19,2,1,21,55,52,400,2038,3,16,30.6243856,-96.3364229,73.218,-0.0309999994934,-0.0140000004321,0.0410000011325,2.51344585419,2.33690690994,6.17175579071,0.187200009823,4.40000000879e-08
2019/02/01/15:55:52.183160,1709,1549058152,182999752,gps,510970.400376,19,2,1,21,55,52,400,2038,3,16,30.6243856,-96.3364229,73.218,-0.0309999994934,-0.0140000004321,0.0410000011325,2.51344585419,2.33690690994,6.17175579071,0.187200009823,4.40000000879e-08
2019/02/01/15:55:52.203249,1710,1549058152,203049927,gps,510970.400376,19,2,1,21,55,52,400,2038,3,16,30.6243856,-96.3364229,73.218,-0.0309999994934,-0.0140000004321,0.0410000011325,2.51344585419,2.33690690994,6.17175579071,0.187200009823,4.40000000879e-08
2019/02/01/15:55:52.223170,1711,1549058152,222992611,gps,510970.400376,19,2,1,21,55,52,400,2038,3,16,30.6243856,-96.3364229,73.218,-0.0309999994934,-0.0140000004321,0.0410000011325,2.51344585419,2.33690690994,6.17175579071,0.187200009823,4.40000000879e-08
2019/02/01/15:55:52.243263,1712,1549058152,242998399,gps,510970.400376,19,2,1,21,55,52,400,2038,3,16,30.6243856,-96.3364229,73.218,-0.0309999994934,-0.0140000004321,0.0410000011325,2.51344585419,2.33690690994,6.17175579071,0.187200009823,4.40000000879e-08
2019/02/01/15:55:52.263129,1713,1549058152,262953135,gps,510970.400376,19,2,1,21,55,52,400,2038,3,16,30.6243856,-96.3364229,73.218,-0.0309999994934,-0.0140000004321,0.0410000011325,2.51344585419,2.33690690994,6.17175579071,0.187200009823,4.40000000879e-08
2019/02/01/15:55:52.283171,1714,1549058152,282965738,gps,510970.400376,19,2,1,21,55,52,400,2038,3,16,30.6243856,-96.3364229,73.218,-0.0309999994934,-0.0140000004321,0.0410000011325,2.51344585419,2.33690690994,6.17175579071,0.187200009823,4.40000000879e-08
2019/02/01/15:55:52.303096,1715,1549058152,302889656,gps,510970.400376,19,2,1,21,55,52,400,2038,3,16,30.6243856,-96.3364229,73.218,-0.0309999994934,-0.0140000004321,0.0410000011325,2.51344585419,2.33690690994,6.17175579071,0.187200009823,4.40000000879e-08
2019/02/01/15:55:52.323179,1716,1549058152,322938421,gps,510970.400376,19,2,1,21,55,52,400,2038,3,16,30.6243856,-96.3364229,73.218,-0.0309999994934,-0.0140000004321,0.0410000011325,2.51344585419,2.33690690994,6.17175579071,0.187200009823,4.40000000879e-08
2019/02/01/15:55:52.343096,1717,1549058152,342927209,gps,510970.600376,19,2,1,21,55,52,600,2038,3,16,30.6243854,-96.3364228,73.247,0.00300000002608,-0.0109999999404,0.0790000036359,2.50979232788,2.33474183083,6.17510128021,0.195200011134,4.40000000879e-08
2019/02/01/15:55:52.362975,1718,1549058152,362836311,gps,510970.600376,19,2,1,21,55,52,600,2038,3,16,30.6243854,-96.3364228,73.247,0.00300000002608,-0.0109999999404,0.0790000036359,2.50979232788,2.33474183083,6.17510128021,0.195200011134,4.40000000879e-08
2019/02/01/15:55:52.384849,1719,1549058152,384604938,gps,510970.600376,19,2,1,21,55,52,600,2038,3,16,30.6243854,-96.3364228,73.247,0.00300000002608,-0.0109999999404,0.0790000036359,2.50979232788,2.33474183083,6.17510128021,0.195200011134,4.40000000879e-08
2019/02/01/15:55:52.403044,1720,1549058152,402832283,gps,510970.600376,19,2,1,21,55,52,600,2038,3,16,30.6243854,-96.3364228,73.247,0.00300000002608,-0.0109999999404,0.0790000036359,2.50979232788,2.33474183083,6.17510128021,0.195200011134,4.40000000879e-08
2019/02/01/15:55:52.422876,1721,1549058152,422702772,gps,510970.600376,19,2,1,21,55,52,600,2038,3,16,30.6243854,-96.3364228,73.247,0.00300000002608,-0.0109999999404,0.0790000036359,2.50979232788,2.33474183083,6.17510128021,0.195200011134,4.40000000879e-08
2019/02/01/15:55:52.443910,1722,1549058152,443722767,gps,510970.600376,19,2,1,21,55,52,600,2038,3,16,30.6243854,-96.3364228,73.247,0.00300000002608,-0.0109999999404,0.0790000036359,2.50979232788,2.33474183083,6.17510128021,0.195200011134,4.40000000879e-08
2019/02/01/15:55:52.464030,1723,1549058152,463723247,gps,510970.600376,19,2,1,21,55,52,600,2038,3,16,30.6243854,-96.3364228,73.247,0.00300000002608,-0.0109999999404,0.0790000036359,2.50979232788,2.33474183083,6.17510128021,0.195200011134,4.40000000879e-08
2019/02/01/15:55:52.483838,1724,1549058152,483648981,gps,510970.600376,19,2,1,21,55,52,600,2038,3,16,30.6243854,-96.3364228,73.247,0.00300000002608,-0.0109999999404,0.0790000036359,2.50979232788,2.33474183083,6.17510128021,0.195200011134,4.40000000879e-08
2019/02/01/15:55:52.503937,1725,1549058152,503695560,gps,510970.600376,19,2,1,21,55,52,600,2038,3,16,30.6243854,-96.3364228,73.247,0.00300000002608,-0.0109999999404,0.0790000036359,2.50979232788,2.33474183083,6.17510128021,0.195200011134,4.40000000879e-08
2019/02/01/15:55:52.523687,1726,1549058152,523513815,gps,510970.600376,19,2,1,21,55,52,600,2038,3,16,30.6243854,-96.3364228,73.247,0.00300000002608,-0.0109999999404,0.0790000036359,2.50979232788,2.33474183083,6.17510128021,0.195200011134,4.40000000879e-08
2019/02/01/15:55:52.543808,1727,1549058152,543645841,gps,510970.800376,19,2,1,21,55,52,800,2038,3,16,30.6243852,-96.3364226,73.29,-0.0189999993891,-0.0149999996647,0.0209999997169,2.50597238541,2.33151006699,6.17524719238,0.176000013947,4.40000000879e-08
2019/02/01/15:55:52.563704,1728,1549058152,563478684,gps,510970.800376,19,2,1,21,55,52,800,2038,3,16,30.6243852,-96.3364226,73.29,-0.0189999993891,-0.0149999996647,0.0209999997169,2.50597238541,2.33151006699,6.17524719238,0.176000013947,4.40000000879e-08
2019/02/01/15:55:52.583640,1729,1549058152,583489781,gps,510970.800376,19,2,1,21,55,52,800,2038,3,16,30.6243852,-96.3364226,73.29,-0.0189999993891,-0.0149999996647,0.0209999997169,2.50597238541,2.33151006699,6.17524719238,0.176000013947,4.40000000879e-08
2019/02/01/15:55:52.603712,1730,1549058152,603545866,gps,510970.800376,19,2,1,21,55,52,800,2038,3,16,30.6243852,-96.3364226,73.29,-0.0189999993891,-0.0149999996647,0.0209999997169,2.50597238541,2.33151006699,6.17524719238,0.176000013947,4.40000000879e-08
2019/02/01/15:55:52.623515,1731,1549058152,623364347,gps,510970.800376,19,2,1,21,55,52,800,2038,3,16,30.6243852,-96.3364226,73.29,-0.0189999993891,-0.0149999996647,0.0209999997169,2.50597238541,2.33151006699,6.17524719238,0.176000013947,4.40000000879e-08
2019/02/01/15:55:52.643699,1732,1549058152,643483980,gps,510970.800376,19,2,1,21,55,52,800,2038,3,16,30.6243852,-96.3364226,73.29,-0.0189999993891,-0.0149999996647,0.0209999997169,2.50597238541,2.33151006699,6.17524719238,0.176000013947,4.40000000879e-08
2019/02/01/15:55:52.663412,1733,1549058152,663289601,gps,510970.800376,19,2,1,21,55,52,800,2038,3,16,30.6243852,-96.3364226,73.29,-0.0189999993891,-0.0149999996647,0.0209999997169,2.50597238541,2.33151006699,6.17524719238,0.176000013947,4.40000000879e-08
2019/02/01/15:55:52.683462,1734,1549058152,683272769,gps,510970.800376,19,2,1,21,55,52,800,2038,3,16,30.6243852,-96.3364226,73.29,-0.0189999993891,-0.0149999996647,0.0209999997169,2.50597238541,2.33151006699,6.17524719238,0.176000013947,4.40000000879e-08
2019/02/01/15:55:52.703562,1735,1549058152,703360192,gps,510970.800376,19,2,1,21,55,52,800,2038,3,16,30.6243852,-96.3364226,73.29,-0.0189999993891,-0.0149999996647,0.0209999997169,2.50597238541,2.33151006699,6.17524719238,0.176000013947,4.40000000879e-08
2019/02/01/15:55:52.723685,1736,1549058152,723171734,gps,510970.800376,19,2,1,21,55,52,800,2038,3,16,30.6243852,-96.3364226,73.29,-0.0189999993891,-0.0149999996647,0.0209999997169,2.50597238541,2.33151006699,6.17524719238,0.176000013947,4.40000000879e-08
2019/02/01/15:55:52.743340,1737,1549058152,743151908,gps,510970.800376,19,2,1,21,55,52,800,2038,3,16,30.6243852,-96.3364226,73.29,-0.0189999993891,-0.0149999996647,0.0209999997169,2.50597238541,2.33151006699,6.17524719238,0.176000013947,4.40000000879e-08
2019/02/01/15:55:52.763348,1738,1549058152,763207598,gps,510971.000376,19,2,1,21,55,53,0,2038,3,16,30.6243849,-96.3364224,73.298,-0.0280000008643,0.00600000005215,0.0729999989271,2.50148844719,2.3255546093,6.15163803101,0.197600007057,4.40000000879e-08
2019/02/01/15:55:52.784158,1739,1549058152,783150127,gps,510971.000376,19,2,1,21,55,53,0,2038,3,16,30.6243849,-96.3364224,73.298,-0.0280000008643,0.00600000005215,0.0729999989271,2.50148844719,2.3255546093,6.15163803101,0.197600007057,4.40000000879e-08
2019/02/01/15:55:52.803298,1740,1549058152,803098081,gps,510971.000376,19,2,1,21,55,53,0,2038,3,16,30.6243849,-96.3364224,73.298,-0.0280000008643,0.00600000005215,0.0729999989271,2.50148844719,2.3255546093,6.15163803101,0.197600007057,4.40000000879e-08
2019/02/01/15:55:52.823647,1741,1549058152,823142989,gps,510971.000376,19,2,1,21,55,53,0,2038,3,16,30.6243849,-96.3364224,73.298,-0.0280000008643,0.00600000005215,0.0729999989271,2.50148844719,2.3255546093,6.15163803101,0.197600007057,4.40000000879e-08
2019/02/01/15:55:52.843275,1742,1549058152,843124916,gps,510971.000376,19,2,1,21,55,53,0,2038,3,16,30.6243849,-96.3364224,73.298,-0.0280000008643,0.00600000005215,0.0729999989271,2.50148844719,2.3255546093,6.15163803101,0.197600007057,4.40000000879e-08
2019/02/01/15:55:52.863208,1743,1549058152,863016423,gps,510971.000376,19,2,1,21,55,53,0,2038,3,16,30.6243849,-96.3364224,73.298,-0.0280000008643,0.00600000005215,0.0729999989271,2.50148844719,2.3255546093,6.15163803101,0.197600007057,4.40000000879e-08
2019/02/01/15:55:52.883209,1744,1549058152,883010940,gps,510971.000376,19,2,1,21,55,53,0,2038,3,16,30.6243849,-96.3364224,73.298,-0.0280000008643,0.00600000005215,0.0729999989271,2.50148844719,2.3255546093,6.15163803101,0.197600007057,4.40000000879e-08
2019/02/01/15:55:52.903284,1745,1549058152,903083669,gps,510971.000376,19,2,1,21,55,53,0,2038,3,16,30.6243849,-96.3364224,73.298,-0.0280000008643,0.00600000005215,0.0729999989271,2.50148844719,2.3255546093,6.15163803101,0.197600007057,4.40000000879e-08
2019/02/01/15:55:52.923221,1746,1549058152,923018389,gps,510971.000376,19,2,1,21,55,53,0,2038,3,16,30.6243849,-96.3364224,73.298,-0.0280000008643,0.00600000005215,0.0729999989271,2.50148844719,2.3255546093,6.15163803101,0.197600007057,4.40000000879e-08
2019/02/01/15:55:52.943078,1747,1549058152,942882985,gps,510971.000376,19,2,1,21,55,53,0,2038,3,16,30.6243849,-96.3364224,73.298,-0.0280000008643,0.00600000005215,0.0729999989271,2.50148844719,2.3255546093,6.15163803101,0.197600007057,4.40000000879e-08
2019/02/01/15:55:52.963111,1748,1549058152,962892421,gps,510971.200376,19,2,1,21,55,53,200,2038,3,16,30.6243847,-96.3364221,73.31,-0.0270000007004,0.0890000015497,0.00899999961257,2.49733114243,2.3200480938,6.13042449951,0.136000007391,4.40000000879e-08
2019/02/01/15:55:52.983229,1749,1549058152,982982732,gps,510971.200376,19,2,1,21,55,53,200,2038,3,16,30.6243847,-96.3364221,73.31,-0.0270000007004,0.0890000015497,0.00899999961257,2.49733114243,2.3200480938,6.13042449951,0.136000007391,4.40000000879e-08
2019/02/01/15:55:53.003021,1750,1549058153,2837011,gps,510971.200376,19,2,1,21,55,53,200,2038,3,16,30.6243847,-96.3364221,73.31,-0.0270000007004,0.0890000015497,0.00899999961257,2.49733114243,2.3200480938,6.13042449951,0.136000007391,4.40000000879e-08
2019/02/01/15:55:53.023208,1751,1549058153,22949707,gps,510971.200376,19,2,1,21,55,53,200,2038,3,16,30.6243847,-96.3364221,73.31,-0.0270000007004,0.0890000015497,0.00899999961257,2.49733114243,2.3200480938,6.13042449951,0.136000007391,4.40000000879e-08
2019/02/01/15:55:53.043107,1752,1549058153,42885622,gps,510971.200376,19,2,1,21,55,53,200,2038,3,16,30.6243847,-96.3364221,73.31,-0.0270000007004,0.0890000015497,0.00899999961257,2.49733114243,2.3200480938,6.13042449951,0.136000007391,4.40000000879e-08
2019/02/01/15:55:53.064042,1753,1549058153,63806699,gps,510971.200376,19,2,1,21,55,53,200,2038,3,16,30.6243847,-96.3364221,73.31,-0.0270000007004,0.0890000015497,0.00899999961257,2.49733114243,2.3200480938,6.13042449951,0.136000007391,4.40000000879e-08
2019/02/01/15:55:53.083043,1754,1549058153,82840917,gps,510971.200376,19,2,1,21,55,53,200,2038,3,16,30.6243847,-96.3364221,73.31,-0.0270000007004,0.0890000015497,0.00899999961257,2.49733114243,2.3200480938,6.13042449951,0.136000007391,4.40000000879e-08
2019/02/01/15:55:53.102962,1755,1549058153,102760019,gps,510971.200376,19,2,1,21,55,53,200,2038,3,16,30.6243847,-96.3364221,73.31,-0.0270000007004,0.0890000015497,0.00899999961257,2.49733114243,2.3200480938,6.13042449951,0.136000007391,4.40000000879e-08
2019/02/01/15:55:53.122855,1756,1549058153,122709725,gps,510971.200376,19,2,1,21,55,53,200,2038,3,16,30.6243847,-96.3364221,73.31,-0.0270000007004,0.0890000015497,0.00899999961257,2.49733114243,2.3200480938,6.13042449951,0.136000007391,4.40000000879e-08
2019/02/01/15:55:53.143951,1757,1549058153,143747818,gps,510971.400376,19,2,1,21,55,53,400,2038,3,16,30.6243843,-96.3364216,73.316,-0.0860000029206,0.151999995112,-0.0520000010729,2.49351215363,2.31498146057,6.11050224304,0.134400010109,4.40000000879e-08
2019/02/01/15:55:53.163903,1758,1549058153,163682707,gps,510971.400376,19,2,1,21,55,53,400,2038,3,16,30.6243843,-96.3364216,73.316,-0.0860000029206,0.151999995112,-0.0520000010729,2.49351215363,2.31498146057,6.11050224304,0.134400010109,4.40000000879e-08
2019/02/01/15:55:53.183811,1759,1549058153,183611852,gps,510971.400376,19,2,1,21,55,53,400,2038,3,16,30.6243843,-96.3364216,73.316,-0.0860000029206,0.151999995112,-0.0520000010729,2.49351215363,2.31498146057,6.11050224304,0.134400010109,4.40000000879e-08
2019/02/01/15:55:53.203892,1760,1549058153,203657451,gps,510971.400376,19,2,1,21,55,53,400,2038,3,16,30.6243843,-96.3364216,73.316,-0.0860000029206,0.151999995112,-0.0520000010729,2.49351215363,2.31498146057,6.11050224304,0.134400010109,4.40000000879e-08
2019/02/01/15:55:53.223790,1761,1549058153,223589543,gps,510971.400376,19,2,1,21,55,53,400,2038,3,16,30.6243843,-96.3364216,73.316,-0.0860000029206,0.151999995112,-0.0520000010729,2.49351215363,2.31498146057,6.11050224304,0.134400010109,4.40000000879e-08
2019/02/01/15:55:53.243713,1762,1549058153,243489874,gps,510971.400376,19,2,1,21,55,53,400,2038,3,16,30.6243843,-96.3364216,73.316,-0.0860000029206,0.151999995112,-0.0520000010729,2.49351215363,2.31498146057,6.11050224304,0.134400010109,4.40000000879e-08
2019/02/01/15:55:53.263573,1763,1549058153,263431657,gps,510971.400376,19,2,1,21,55,53,400,2038,3,16,30.6243843,-96.3364216,73.316,-0.0860000029206,0.151999995112,-0.0520000010729,2.49351215363,2.31498146057,6.11050224304,0.134400010109,4.40000000879e-08
2019/02/01/15:55:53.283711,1764,1549058153,283476770,gps,510971.400376,19,2,1,21,55,53,400,2038,3,16,30.6243843,-96.3364216,73.316,-0.0860000029206,0.151999995112,-0.0520000010729,2.49351215363,2.31498146057,6.11050224304,0.134400010109,4.40000000879e-08
2019/02/01/15:55:53.303755,1765,1549058153,303555768,gps,510971.400376,19,2,1,21,55,53,400,2038,3,16,30.6243843,-96.3364216,73.316,-0.0860000029206,0.151999995112,-0.0520000010729,2.49351215363,2.31498146057,6.11050224304,0.134400010109,4.40000000879e-08
2019/02/01/15:55:53.323644,1766,1549058153,323467321,gps,510971.400376,19,2,1,21,55,53,400,2038,3,16,30.6243843,-96.3364216,73.316,-0.0860000029206,0.151999995112,-0.0520000010729,2.49351215363,2.31498146057,6.11050224304,0.134400010109,4.40000000879e-08
2019/02/01/15:55:53.343690,1767,1549058153,343488463,gps,510971.600376,19,2,1,21,55,53,600,2038,3,16,30.6243839,-96.336421,73.32,-0.222000002861,0.209999993443,0.0120000001043,2.48999047279,2.31025648117,6.09174346924,0.13520000875,4.40000000879e-08
2019/02/01/15:55:53.363539,1768,1549058153,363330551,gps,510971.600376,19,2,1,21,55,53,600,2038,3,16,30.6243839,-96.336421,73.32,-0.222000002861,0.209999993443,0.0120000001043,2.48999047279,2.31025648117,6.09174346924,0.13520000875,4.40000000879e-08
2019/02/01/15:55:53.383523,1769,1549058153,383332888,gps,510971.600376,19,2,1,21,55,53,600,2038,3,16,30.6243839,-96.336421,73.32,-0.222000002861,0.209999993443,0.0120000001043,2.48999047279,2.31025648117,6.09174346924,0.13520000875,4.40000000879e-08
2019/02/01/15:55:53.403533,1770,1549058153,403338240,gps,510971.600376,19,2,1,21,55,53,600,2038,3,16,30.6243839,-96.336421,73.32,-0.222000002861,0.209999993443,0.0120000001043,2.48999047279,2.31025648117,6.09174346924,0.13520000875,4.40000000879e-08
2019/02/01/15:55:53.423607,1771,1549058153,423368800,gps,510971.600376,19,2,1,21,55,53,600,2038,3,16,30.6243839,-96.336421,73.32,-0.222000002861,0.209999993443,0.0120000001043,2.48999047279,2.31025648117,6.09174346924,0.13520000875,4.40000000879e-08
2019/02/01/15:55:53.443340,1772,1549058153,443159158,gps,510971.600376,19,2,1,21,55,53,600,2038,3,16,30.6243839,-96.336421,73.32,-0.222000002861,0.209999993443,0.0120000001043,2.48999047279,2.31025648117,6.09174346924,0.13520000875,4.40000000879e-08
2019/02/01/15:55:53.463444,1773,1549058153,463192794,gps,510971.600376,19,2,1,21,55,53,600,2038,3,16,30.6243839,-96.336421,73.32,-0.222000002861,0.209999993443,0.0120000001043,2.48999047279,2.31025648117,6.09174346924,0.13520000875,4.40000000879e-08
2019/02/01/15:55:53.483544,1774,1549058153,483310479,gps,510971.600376,19,2,1,21,55,53,600,2038,3,16,30.6243839,-96.336421,73.32,-0.222000002861,0.209999993443,0.0120000001043,2.48999047279,2.31025648117,6.09174346924,0.13520000875,4.40000000879e-08
2019/02/01/15:55:53.503314,1775,1549058153,503142065,gps,510971.600376,19,2,1,21,55,53,600,2038,3,16,30.6243839,-96.336421,73.32,-0.222000002861,0.209999993443,0.0120000001043,2.48999047279,2.31025648117,6.09174346924,0.13520000875,4.40000000879e-08
2019/02/01/15:55:53.523412,1776,1549058153,523194387,gps,510971.600376,19,2,1,21,55,53,600,2038,3,16,30.6243839,-96.336421,73.32,-0.222000002861,0.209999993443,0.0120000001043,2.48999047279,2.31025648117,6.09174346924,0.13520000875,4.40000000879e-08
2019/02/01/15:55:53.543356,1777,1549058153,543145317,gps,510971.800376,19,2,1,21,55,53,800,2038,3,16,30.6243831,-96.3364202,73.307,-0.368000000715,0.347000002861,0.00200000009499,2.48676300049,2.30583524704,6.07411384583,0.133600011468,4.40000000879e-08
2019/02/01/15:55:53.563392,1778,1549058153,563146139,gps,510971.800376,19,2,1,21,55,53,800,2038,3,16,30.6243831,-96.3364202,73.307,-0.368000000715,0.347000002861,0.00200000009499,2.48676300049,2.30583524704,6.07411384583,0.133600011468,4.40000000879e-08
2019/02/01/15:55:53.583275,1779,1549058153,583026569,gps,510971.800376,19,2,1,21,55,53,800,2038,3,16,30.6243831,-96.3364202,73.307,-0.368000000715,0.347000002861,0.00200000009499,2.48676300049,2.30583524704,6.07411384583,0.133600011468,4.40000000879e-08
2019/02/01/15:55:53.603269,1780,1549058153,603016263,gps,510971.800376,19,2,1,21,55,53,800,2038,3,16,30.6243831,-96.3364202,73.307,-0.368000000715,0.347000002861,0.00200000009499,2.48676300049,2.30583524704,6.07411384583,0.133600011468,4.40000000879e-08
2019/02/01/15:55:53.623264,1781,1549058153,623045623,gps,510971.800376,19,2,1,21,55,53,800,2038,3,16,30.6243831,-96.3364202,73.307,-0.368000000715,0.347000002861,0.00200000009499,2.48676300049,2.30583524704,6.07411384583,0.133600011468,4.40000000879e-08
2019/02/01/15:55:53.643174,1782,1549058153,642931861,gps,510971.800376,19,2,1,21,55,53,800,2038,3,16,30.6243831,-96.3364202,73.307,-0.368000000715,0.347000002861,0.00200000009499,2.48676300049,2.30583524704,6.07411384583,0.133600011468,4.40000000879e-08
2019/02/01/15:55:53.663021,1783,1549058153,662864761,gps,510971.800376,19,2,1,21,55,53,800,2038,3,16,30.6243831,-96.3364202,73.307,-0.368000000715,0.347000002861,0.00200000009499,2.48676300049,2.30583524704,6.07411384583,0.133600011468,4.40000000879e-08
2019/02/01/15:55:53.683106,1784,1549058153,682865595,gps,510971.800376,19,2,1,21,55,53,800,2038,3,16,30.6243831,-96.3364202,73.307,-0.368000000715,0.347000002861,0.00200000009499,2.48676300049,2.30583524704,6.07411384583,0.133600011468,4.40000000879e-08
2019/02/01/15:55:53.703088,1785,1549058153,702886265,gps,510971.800376,19,2,1,21,55,53,800,2038,3,16,30.6243831,-96.3364202,73.307,-0.368000000715,0.347000002861,0.00200000009499,2.48676300049,2.30583524704,6.07411384583,0.133600011468,4.40000000879e-08
2019/02/01/15:55:53.722881,1786,1549058153,722747139,gps,510971.800376,19,2,1,21,55,53,800,2038,3,16,30.6243831,-96.3364202,73.307,-0.368000000715,0.347000002861,0.00200000009499,2.48676300049,2.30583524704,6.07411384583,0.133600011468,4.40000000879e-08
2019/02/01/15:55:53.743038,1787,1549058153,742737831,gps,510971.800376,19,2,1,21,55,53,800,2038,3,16,30.6243831,-96.3364202,73.307,-0.368000000715,0.347000002861,0.00200000009499,2.48676300049,2.30583524704,6.07411384583,0.133600011468,4.40000000879e-08
2019/02/01/15:55:53.762940,1788,1549058153,762753740,gps,510972.000376,19,2,1,21,55,54,0,2038,3,16,30.6243822,-96.3364191,73.32,-0.446999996901,0.458000004292,-0.0179999992251,2.48412680626,2.30278396606,6.05913591385,0.132800012827,4.40000000879e-08
2019/02/01/15:55:53.783971,1789,1549058153,783753425,gps,510972.000376,19,2,1,21,55,54,0,2038,3,16,30.6243822,-96.3364191,73.32,-0.446999996901,0.458000004292,-0.0179999992251,2.48412680626,2.30278396606,6.05913591385,0.132800012827,4.40000000879e-08
2019/02/01/15:55:53.803912,1790,1549058153,803730431,gps,510972.000376,19,2,1,21,55,54,0,2038,3,16,30.6243822,-96.3364191,73.32,-0.446999996901,0.458000004292,-0.0179999992251,2.48412680626,2.30278396606,6.05913591385,0.132800012827,4.40000000879e-08
2019/02/01/15:55:53.823764,1791,1549058153,823619452,gps,510972.000376,19,2,1,21,55,54,0,2038,3,16,30.6243822,-96.3364191,73.32,-0.446999996901,0.458000004292,-0.0179999992251,2.48412680626,2.30278396606,6.05913591385,0.132800012827,4.40000000879e-08
2019/02/01/15:55:53.843838,1792,1549058153,843628972,gps,510972.000376,19,2,1,21,55,54,0,2038,3,16,30.6243822,-96.3364191,73.32,-0.446999996901,0.458000004292,-0.0179999992251,2.48412680626,2.30278396606,6.05913591385,0.132800012827,4.40000000879e-08
2019/02/01/15:55:53.863719,1793,1549058153,863522904,gps,510972.000376,19,2,1,21,55,54,0,2038,3,16,30.6243822,-96.3364191,73.32,-0.446999996901,0.458000004292,-0.0179999992251,2.48412680626,2.30278396606,6.05913591385,0.132800012827,4.40000000879e-08
2019/02/01/15:55:53.883690,1794,1549058153,883487339,gps,510972.000376,19,2,1,21,55,54,0,2038,3,16,30.6243822,-96.3364191,73.32,-0.446999996901,0.458000004292,-0.0179999992251,2.48412680626,2.30278396606,6.05913591385,0.132800012827,4.40000000879e-08
2019/02/01/15:55:53.903706,1795,1549058153,903512080,gps,510972.000376,19,2,1,21,55,54,0,2038,3,16,30.6243822,-96.3364191,73.32,-0.446999996901,0.458000004292,-0.0179999992251,2.48412680626,2.30278396606,6.05913591385,0.132800012827,4.40000000879e-08
2019/02/01/15:55:53.924243,1796,1549058153,923651606,gps,510972.000376,19,2,1,21,55,54,0,2038,3,16,30.6243822,-96.3364191,73.32,-0.446999996901,0.458000004292,-0.0179999992251,2.48412680626,2.30278396606,6.05913591385,0.132800012827,4.40000000879e-08
2019/02/01/15:55:53.943658,1797,1549058153,943495235,gps,510972.000376,19,2,1,21,55,54,0,2038,3,16,30.6243822,-96.3364191,73.32,-0.446999996901,0.458000004292,-0.0179999992251,2.48412680626,2.30278396606,6.05913591385,0.132800012827,4.40000000879e-08
2019/02/01/15:55:53.964289,1798,1549058153,963432703,gps,510972.000376,19,2,1,21,55,54,0,2038,3,16,30.6243822,-96.3364191,73.32,-0.446999996901,0.458000004292,-0.0179999992251,2.48412680626,2.30278396606,6.05913591385,0.132800012827,4.40000000879e-08
2019/02/01/15:55:53.984246,1799,1549058153,983411445,gps,510972.200376,19,2,1,21,55,54,200,2038,3,16,30.6243812,-96.3364178,73.344,-0.561999976635,0.592999994755,-0.01600000076,2.48210406303,2.30042862892,6.04632854462,0.133600011468,4.40000000879e-08
2019/02/01/15:55:54.003567,1800,1549058154,3348484,gps,510972.200376,19,2,1,21,55,54,200,2038,3,16,30.6243812,-96.3364178,73.344,-0.561999976635,0.592999994755,-0.01600000076,2.48210406303,2.30042862892,6.04632854462,0.133600011468,4.40000000879e-08
2019/02/01/15:55:54.023504,1801,1549058154,23308655,gps,510972.200376,19,2,1,21,55,54,200,2038,3,16,30.6243812,-96.3364178,73.344,-0.561999976635,0.592999994755,-0.01600000076,2.48210406303,2.30042862892,6.04632854462,0.133600011468,4.40000000879e-08
2019/02/01/15:55:54.043472,1802,1549058154,43277316,gps,510972.200376,19,2,1,21,55,54,200,2038,3,16,30.6243812,-96.3364178,73.344,-0.561999976635,0.592999994755,-0.01600000076,2.48210406303,2.30042862892,6.04632854462,0.133600011468,4.40000000879e-08
2019/02/01/15:55:54.063519,1803,1549058154,63264690,gps,510972.200376,19,2,1,21,55,54,200,2038,3,16,30.6243812,-96.3364178,73.344,-0.561999976635,0.592999994755,-0.01600000076,2.48210406303,2.30042862892,6.04632854462,0.133600011468,4.40000000879e-08
2019/02/01/15:55:54.083445,1804,1549058154,83243271,gps,510972.200376,19,2,1,21,55,54,200,2038,3,16,30.6243812,-96.3364178,73.344,-0.561999976635,0.592999994755,-0.01600000076,2.48210406303,2.30042862892,6.04632854462,0.133600011468,4.40000000879e-08
2019/02/01/15:55:54.103358,1805,1549058154,103172501,gps,510972.200376,19,2,1,21,55,54,200,2038,3,16,30.6243812,-96.3364178,73.344,-0.561999976635,0.592999994755,-0.01600000076,2.48210406303,2.30042862892,6.04632854462,0.133600011468,4.40000000879e-08
2019/02/01/15:55:54.123398,1806,1549058154,123161992,gps,510972.200376,19,2,1,21,55,54,200,2038,3,16,30.6243812,-96.3364178,73.344,-0.561999976635,0.592999994755,-0.01600000076,2.48210406303,2.30042862892,6.04632854462,0.133600011468,4.40000000879e-08
2019/02/01/15:55:54.143383,1807,1549058154,143151208,gps,510972.400376,19,2,1,21,55,54,400,2038,3,16,30.62438,-96.3364164,73.357,-0.617999970913,0.617999970913,-0.0120000001043,2.48032450676,2.29716944695,6.03325939178,0.134400010109,4.40000000879e-08
2019/02/01/15:55:54.163280,1808,1549058154,163076194,gps,510972.400376,19,2,1,21,55,54,400,2038,3,16,30.62438,-96.3364164,73.357,-0.617999970913,0.617999970913,-0.0120000001043,2.48032450676,2.29716944695,6.03325939178,0.134400010109,4.40000000879e-08
2019/02/01/15:55:54.183292,1809,1549058154,183066467,gps,510972.400376,19,2,1,21,55,54,400,2038,3,16,30.62438,-96.3364164,73.357,-0.617999970913,0.617999970913,-0.0120000001043,2.48032450676,2.29716944695,6.03325939178,0.134400010109,4.40000000879e-08
2019/02/01/15:55:54.203259,1810,1549058154,203022882,gps,510972.400376,19,2,1,21,55,54,400,2038,3,16,30.62438,-96.3364164,73.357,-0.617999970913,0.617999970913,-0.0120000001043,2.48032450676,2.29716944695,6.03325939178,0.134400010109,4.40000000879e-08
2019/02/01/15:55:54.223228,1811,1549058154,223015374,gps,510972.400376,19,2,1,21,55,54,400,2038,3,16,30.62438,-96.3364164,73.357,-0.617999970913,0.617999970913,-0.0120000001043,2.48032450676,2.29716944695,6.03325939178,0.134400010109,4.40000000879e-08
2019/02/01/15:55:54.243209,1812,1549058154,242945036,gps,510972.400376,19,2,1,21,55,54,400,2038,3,16,30.62438,-96.3364164,73.357,-0.617999970913,0.617999970913,-0.0120000001043,2.48032450676,2.29716944695,6.03325939178,0.134400010109,4.40000000879e-08
2019/02/01/15:55:54.263249,1813,1549058154,263062645,gps,510972.400376,19,2,1,21,55,54,400,2038,3,16,30.62438,-96.3364164,73.357,-0.617999970913,0.617999970913,-0.0120000001043,2.48032450676,2.29716944695,6.03325939178,0.134400010109,4.40000000879e-08
2019/02/01/15:55:54.283183,1814,1549058154,282985932,gps,510972.400376,19,2,1,21,55,54,400,2038,3,16,30.62438,-96.3364164,73.357,-0.617999970913,0.617999970913,-0.0120000001043,2.48032450676,2.29716944695,6.03325939178,0.134400010109,4.40000000879e-08
2019/02/01/15:55:54.303166,1815,1549058154,302964808,gps,510972.400376,19,2,1,21,55,54,400,2038,3,16,30.62438,-96.3364164,73.357,-0.617999970913,0.617999970913,-0.0120000001043,2.48032450676,2.29716944695,6.03325939178,0.134400010109,4.40000000879e-08
2019/02/01/15:55:54.323016,1816,1549058154,322767234,gps,510972.400376,19,2,1,21,55,54,400,2038,3,16,30.62438,-96.3364164,73.357,-0.617999970913,0.617999970913,-0.0120000001043,2.48032450676,2.29716944695,6.03325939178,0.134400010109,4.40000000879e-08
2019/02/01/15:55:54.343061,1817,1549058154,342873226,gps,510972.600376,19,2,1,21,55,54,600,2038,3,16,30.6243786,-96.3364148,73.371,-0.690999984741,0.675999999046,-0.00200000009499,2.47837305069,2.2934923172,6.02049922943,0.134400010109,4.40000000879e-08
2019/02/01/15:55:54.362890,1818,1549058154,362746648,gps,510972.600376,19,2,1,21,55,54,600,2038,3,16,30.6243786,-96.3364148,73.371,-0.690999984741,0.675999999046,-0.00200000009499,2.47837305069,2.2934923172,6.02049922943,0.134400010109,4.40000000879e-08
2019/02/01/15:55:54.384012,1819,1549058154,383798025,gps,510972.600376,19,2,1,21,55,54,600,2038,3,16,30.6243786,-96.3364148,73.371,-0.690999984741,0.675999999046,-0.00200000009499,2.47837305069,2.2934923172,6.02049922943,0.134400010109,4.40000000879e-08
2019/02/01/15:55:54.404086,1820,1549058154,403839639,gps,510972.600376,19,2,1,21,55,54,600,2038,3,16,30.6243786,-96.3364148,73.371,-0.690999984741,0.675999999046,-0.00200000009499,2.47837305069,2.2934923172,6.02049922943,0.134400010109,4.40000000879e-08
2019/02/01/15:55:54.423895,1821,1549058154,423706799,gps,510972.600376,19,2,1,21,55,54,600,2038,3,16,30.6243786,-96.3364148,73.371,-0.690999984741,0.675999999046,-0.00200000009499,2.47837305069,2.2934923172,6.02049922943,0.134400010109,4.40000000879e-08
2019/02/01/15:55:54.443907,1822,1549058154,443702202,gps,510972.600376,19,2,1,21,55,54,600,2038,3,16,30.6243786,-96.3364148,73.371,-0.690999984741,0.675999999046,-0.00200000009499,2.47837305069,2.2934923172,6.02049922943,0.134400010109,4.40000000879e-08
2019/02/01/15:55:54.463972,1823,1549058154,463721576,gps,510972.600376,19,2,1,21,55,54,600,2038,3,16,30.6243786,-96.3364148,73.371,-0.690999984741,0.675999999046,-0.00200000009499,2.47837305069,2.2934923172,6.02049922943,0.134400010109,4.40000000879e-08
2019/02/01/15:55:54.483807,1824,1549058154,483646450,gps,510972.600376,19,2,1,21,55,54,600,2038,3,16,30.6243786,-96.3364148,73.371,-0.690999984741,0.675999999046,-0.00200000009499,2.47837305069,2.2934923172,6.02049922943,0.134400010109,4.40000000879e-08
2019/02/01/15:55:54.503809,1825,1549058154,503605438,gps,510972.600376,19,2,1,21,55,54,600,2038,3,16,30.6243786,-96.3364148,73.371,-0.690999984741,0.675999999046,-0.00200000009499,2.47837305069,2.2934923172,6.02049922943,0.134400010109,4.40000000879e-08
2019/02/01/15:55:54.523722,1826,1549058154,523536013,gps,510972.600376,19,2,1,21,55,54,600,2038,3,16,30.6243786,-96.3364148,73.371,-0.690999984741,0.675999999046,-0.00200000009499,2.47837305069,2.2934923172,6.02049922943,0.134400010109,4.40000000879e-08
2019/02/01/15:55:54.543763,1827,1549058154,543509344,gps,510972.800376,19,2,1,21,55,54,800,2038,3,16,30.6243772,-96.3364131,73.363,-0.762000024319,0.782000005245,-0.0379999987781,2.47672891617,2.2900595665,6.00897598267,0.133600011468,4.40000000879e-08
2019/02/01/15:55:54.563760,1828,1549058154,563593726,gps,510972.800376,19,2,1,21,55,54,800,2038,3,16,30.6243772,-96.3364131,73.363,-0.762000024319,0.782000005245,-0.0379999987781,2.47672891617,2.2900595665,6.00897598267,0.133600011468,4.40000000879e-08
2019/02/01/15:55:54.583704,1829,1549058154,583538399,gps,510972.800376,19,2,1,21,55,54,800,2038,3,16,30.6243772,-96.3364131,73.363,-0.762000024319,0.782000005245,-0.0379999987781,2.47672891617,2.2900595665,6.00897598267,0.133600011468,4.40000000879e-08
2019/02/01/15:55:54.603747,1830,1549058154,603519542,gps,510972.800376,19,2,1,21,55,54,800,2038,3,16,30.6243772,-96.3364131,73.363,-0.762000024319,0.782000005245,-0.0379999987781,2.47672891617,2.2900595665,6.00897598267,0.133600011468,4.40000000879e-08
2019/02/01/15:55:54.623626,1831,1549058154,623412962,gps,510972.800376,19,2,1,21,55,54,800,2038,3,16,30.6243772,-96.3364131,73.363,-0.762000024319,0.782000005245,-0.0379999987781,2.47672891617,2.2900595665,6.00897598267,0.133600011468,4.40000000879e-08
2019/02/01/15:55:54.643613,1832,1549058154,643430343,gps,510972.800376,19,2,1,21,55,54,800,2038,3,16,30.6243772,-96.3364131,73.363,-0.762000024319,0.782000005245,-0.0379999987781,2.47672891617,2.2900595665,6.00897598267,0.133600011468,4.40000000879e-08
2019/02/01/15:55:54.663608,1833,1549058154,663382038,gps,510972.800376,19,2,1,21,55,54,800,2038,3,16,30.6243772,-96.3364131,73.363,-0.762000024319,0.782000005245,-0.0379999987781,2.47672891617,2.2900595665,6.00897598267,0.133600011468,4.40000000879e-08
2019/02/01/15:55:54.683631,1834,1549058154,683399041,gps,510972.800376,19,2,1,21,55,54,800,2038,3,16,30.6243772,-96.3364131,73.363,-0.762000024319,0.782000005245,-0.0379999987781,2.47672891617,2.2900595665,6.00897598267,0.133600011468,4.40000000879e-08
2019/02/01/15:55:54.703560,1835,1549058154,703332625,gps,510972.800376,19,2,1,21,55,54,800,2038,3,16,30.6243772,-96.3364131,73.363,-0.762000024319,0.782000005245,-0.0379999987781,2.47672891617,2.2900595665,6.00897598267,0.133600011468,4.40000000879e-08
2019/02/01/15:55:54.723531,1836,1549058154,723327967,gps,510972.800376,19,2,1,21,55,54,800,2038,3,16,30.6243772,-96.3364131,73.363,-0.762000024319,0.782000005245,-0.0379999987781,2.47672891617,2.2900595665,6.00897598267,0.133600011468,4.40000000879e-08
2019/02/01/15:55:54.743487,1837,1549058154,743282864,gps,510972.800376,19,2,1,21,55,54,800,2038,3,16,30.6243772,-96.3364131,73.363,-0.762000024319,0.782000005245,-0.0379999987781,2.47672891617,2.2900595665,6.00897598267,0.133600011468,4.40000000879e-08
2019/02/01/15:55:54.763369,1838,1549058154,763216996,gps,510973.000376,19,2,1,21,55,55,0,2038,3,16,30.6243759,-96.3364113,73.355,-0.762000024319,0.776000022888,-0.0219999998808,2.4672665596,2.28665041924,5.99136352539,0.133600011468,4.40000000879e-08
2019/02/01/15:55:54.783385,1839,1549058154,783185358,gps,510973.000376,19,2,1,21,55,55,0,2038,3,16,30.6243759,-96.3364113,73.355,-0.762000024319,0.776000022888,-0.0219999998808,2.4672665596,2.28665041924,5.99136352539,0.133600011468,4.40000000879e-08
2019/02/01/15:55:54.803425,1840,1549058154,803212711,gps,510973.000376,19,2,1,21,55,55,0,2038,3,16,30.6243759,-96.3364113,73.355,-0.762000024319,0.776000022888,-0.0219999998808,2.4672665596,2.28665041924,5.99136352539,0.133600011468,4.40000000879e-08
2019/02/01/15:55:54.823241,1841,1549058154,823091592,gps,510973.000376,19,2,1,21,55,55,0,2038,3,16,30.6243759,-96.3364113,73.355,-0.762000024319,0.776000022888,-0.0219999998808,2.4672665596,2.28665041924,5.99136352539,0.133600011468,4.40000000879e-08
2019/02/01/15:55:54.843322,1842,1549058154,843134957,gps,510973.000376,19,2,1,21,55,55,0,2038,3,16,30.6243759,-96.3364113,73.355,-0.762000024319,0.776000022888,-0.0219999998808,2.4672665596,2.28665041924,5.99136352539,0.133600011468,4.40000000879e-08
2019/02/01/15:55:54.863274,1843,1549058154,863088684,gps,510973.000376,19,2,1,21,55,55,0,2038,3,16,30.6243759,-96.3364113,73.355,-0.762000024319,0.776000022888,-0.0219999998808,2.4672665596,2.28665041924,5.99136352539,0.133600011468,4.40000000879e-08
2019/02/01/15:55:54.883242,1844,1549058154,883109325,gps,510973.000376,19,2,1,21,55,55,0,2038,3,16,30.6243759,-96.3364113,73.355,-0.762000024319,0.776000022888,-0.0219999998808,2.4672665596,2.28665041924,5.99136352539,0.133600011468,4.40000000879e-08
2019/02/01/15:55:54.903285,1845,1549058154,903095347,gps,510973.000376,19,2,1,21,55,55,0,2038,3,16,30.6243759,-96.3364113,73.355,-0.762000024319,0.776000022888,-0.0219999998808,2.4672665596,2.28665041924,5.99136352539,0.133600011468,4.40000000879e-08
2019/02/01/15:55:54.923492,1846,1549058154,923038781,gps,510973.000376,19,2,1,21,55,55,0,2038,3,16,30.6243759,-96.3364113,73.355,-0.762000024319,0.776000022888,-0.0219999998808,2.4672665596,2.28665041924,5.99136352539,0.133600011468,4.40000000879e-08
2019/02/01/15:55:54.943165,1847,1549058154,942958258,gps,510973.200376,19,2,1,21,55,55,200,2038,3,16,30.6243747,-96.3364094,73.339,-0.79699999094,0.851999998093,-0.0509999990463,2.45847058296,2.2846031189,5.97733545303,0.132800012827,4.40000000879e-08
2019/02/01/15:55:54.963593,1848,1549058154,963293166,gps,510973.200376,19,2,1,21,55,55,200,2038,3,16,30.6243747,-96.3364094,73.339,-0.79699999094,0.851999998093,-0.0509999990463,2.45847058296,2.2846031189,5.97733545303,0.132800012827,4.40000000879e-08
2019/02/01/15:55:54.983206,1849,1549058154,982919927,gps,510973.200376,19,2,1,21,55,55,200,2038,3,16,30.6243747,-96.3364094,73.339,-0.79699999094,0.851999998093,-0.0509999990463,2.45847058296,2.2846031189,5.97733545303,0.132800012827,4.40000000879e-08
2019/02/01/15:55:55.003044,1850,1549058155,2895389,gps,510973.200376,19,2,1,21,55,55,200,2038,3,16,30.6243747,-96.3364094,73.339,-0.79699999094,0.851999998093,-0.0509999990463,2.45847058296,2.2846031189,5.97733545303,0.132800012827,4.40000000879e-08
2019/02/01/15:55:55.023674,1851,1549058155,22919178,gps,510973.200376,19,2,1,21,55,55,200,2038,3,16,30.6243747,-96.3364094,73.339,-0.79699999094,0.851999998093,-0.0509999990463,2.45847058296,2.2846031189,5.97733545303,0.132800012827,4.40000000879e-08
2019/02/01/15:55:55.042994,1852,1549058155,42843882,gps,510973.200376,19,2,1,21,55,55,200,2038,3,16,30.6243747,-96.3364094,73.339,-0.79699999094,0.851999998093,-0.0509999990463,2.45847058296,2.2846031189,5.97733545303,0.132800012827,4.40000000879e-08
2019/02/01/15:55:55.063070,1853,1549058155,62878480,gps,510973.200376,19,2,1,21,55,55,200,2038,3,16,30.6243747,-96.3364094,73.339,-0.79699999094,0.851999998093,-0.0509999990463,2.45847058296,2.2846031189,5.97733545303,0.132800012827,4.40000000879e-08
2019/02/01/15:55:55.083091,1854,1549058155,82767955,gps,510973.200376,19,2,1,21,55,55,200,2038,3,16,30.6243747,-96.3364094,73.339,-0.79699999094,0.851999998093,-0.0509999990463,2.45847058296,2.2846031189,5.97733545303,0.132800012827,4.40000000879e-08
2019/02/01/15:55:55.102879,1855,1549058155,102686710,gps,510973.200376,19,2,1,21,55,55,200,2038,3,16,30.6243747,-96.3364094,73.339,-0.79699999094,0.851999998093,-0.0509999990463,2.45847058296,2.2846031189,5.97733545303,0.132800012827,4.40000000879e-08
2019/02/01/15:55:55.124359,1856,1549058155,123707130,gps,510973.200376,19,2,1,21,55,55,200,2038,3,16,30.6243747,-96.3364094,73.339,-0.79699999094,0.851999998093,-0.0509999990463,2.45847058296,2.2846031189,5.97733545303,0.132800012827,4.40000000879e-08
2019/02/01/15:55:55.142823,1857,1549058155,142665729,gps,510973.400376,19,2,1,21,55,55,400,2038,3,16,30.6243734,-96.3364074,73.315,-0.740000009537,0.797999978065,-0.128999993205,2.45000982285,2.28185677528,5.96114349365,0.132000014186,4.40000000879e-08
2019/02/01/15:55:55.163884,1858,1549058155,163732969,gps,510973.400376,19,2,1,21,55,55,400,2038,3,16,30.6243734,-96.3364074,73.315,-0.740000009537,0.797999978065,-0.128999993205,2.45000982285,2.28185677528,5.96114349365,0.132000014186,4.40000000879e-08
2019/02/01/15:55:55.183805,1859,1549058155,183629681,gps,510973.400376,19,2,1,21,55,55,400,2038,3,16,30.6243734,-96.3364074,73.315,-0.740000009537,0.797999978065,-0.128999993205,2.45000982285,2.28185677528,5.96114349365,0.132000014186,4.40000000879e-08
